#___________________________________________________________________________
~VERSION INFORMATION
 VERS.                                 2.0 : CWLS LOG ASCII STANDARD - VERSION 2.0
 WRAP.                                  NO : ONE LINE PER DEPTH STEP
#___________________________________________________________________________
~WELL INFORMATION
 STRT.F                            9928.00 : START DEPTH
 STOP.F                           18929.00 : STOP DEPTH
 STEP.F                                  1 : STEP VALUE
 NULL.                             -999.25 : NULL VALUE
 COMP.      Magnolia Oil & Gas             : COMPANY
 WELL.      Bighorn Plains H02 BH          : WELL
  FLD.      Giddings (AC)                  : FIELD
  LOC.      Washington County              : LOCATION
 CNTY.      Washington County              : PARISH/COUNTY
 STAT.      Texas                          : STATE
 CTRY.      USA                            : COUNTRY
" SRVC.      PetroLog International, Inc.   : SERVICE COMPANY"
 DATE.      10/21/2021                     : LOG DATE
  API.      42-477-31179                   : API REFERENCE NUMBER
#___________________________________________________________________________
~CURVE INFORMATION
#MNEM.UNITS                                : DESCRIPTION
DEPTH.F                                    :  1 DEPTH
 TGAS.Units                                :  2 Chromatograph_TotalGas
 MTHX.PPM                                  :  3 Chromatograph_MethanePPMMax
 ETHX.PPM                                  :  4 Chromatograph_EthanePPMMax
 PRPX.PPM                                  :  5 Chromatograph_PropanePPMMax
 IBTX.PPM                                  :  6 Chromatograph_IButanePPMMax
 NBTX.PPM                                  :  7 Chromatograph_NButanePPMMax
CEMNT.%                                    :  8 Lithology_Cement
SHALE.%                                    :  9 Lithology_Shale
SILTST.%                                   : 10 Lithology_Siltstone
 SAND.%                                    : 11 Lithology_Sand
 LIME.%                                    : 12 Lithology_Lime
 CHLK.%                                    : 13 Lithology_Chalk
  ASH.%                                    : 14 Lithology_Ash
 FRAC.%                                    : 15 Fracture
Kick/Loss.----                             : 16 Kick/Loss
#___________________________________________________________________________
~A        DEPTH           TGAS           MTHX           ETHX           PRPX           IBTX           NBTX          CEMNT          SHALE         SILTST           SAND           LIME           CHLK            ASH           FRAC      Kick/Loss
# ...
          11730       584.8500     65898.0000     21320.0000      9087.0000      1154.0000      2369.0000              0              0              0              0              0            100              0           0.00         0.0000
          11731       492.6750     65898.0000     21320.0000      9087.0000      1154.0000      2369.0000              0              0              0              0              0            100              0           0.00         0.0000
          11732       429.1750     65898.0000     21320.0000      9087.0000      1154.0000      2369.0000              0              0              0              0              0            100              0           0.00         0.0000
          11733       360.2000     65898.0000     21320.0000      9087.0000      1154.0000      2369.0000              0              0              0              0              0            100              0           0.00         0.0000
          11734       311.9750     65898.0000     21320.0000      9087.0000      1154.0000      2369.0000              0              0              0              0              0            100              0           0.00         0.0000
          11735       281.4500     65898.0000     21320.0000      9087.0000      1154.0000      2369.0000              0              0              0              0              0            100              0           0.00         0.0000
          11736       254.5750     65898.0000     21320.0000      9087.0000      1154.0000      2369.0000              0              0              0              0              0            100              0           0.00         0.0000
          11737       233.8250     65898.0000     21320.0000      9087.0000      1154.0000      2369.0000              0              0              0              0              0            100              0           0.00         0.0000
          11738       294.2500     65898.0000     21320.0000      9087.0000      1154.0000      2369.0000              0              0              0              0              0            100              0           0.00         0.0000
          11739       369.9750     65898.0000     21320.0000      9087.0000      1154.0000      2369.0000              0              0              0              0              0            100              0           0.00         0.0000
          11740       394.4000     65898.0000     21320.0000      9087.0000      1154.0000      2369.0000              0              0              0              0              0            100              0           0.00         0.0000
          11741       393.7750     65898.0000     21320.0000      9087.0000      1154.0000      2369.0000              0              0              0              0              0            100              0           0.00         0.0000
          11742       431.0000     65898.0000     21320.0000      9087.0000      1154.0000      2369.0000              0              0              0              0              0            100              0           0.00         0.0000
          11743       513.4250     65898.0000     21320.0000      9087.0000      1154.0000      2369.0000              0              0              0              0              0            100              0           0.00         0.0000
          11744       606.8500     65898.0000     21320.0000      9087.0000      1154.0000      2369.0000              0              0              0              0              0            100              0           0.00         0.0000
          11745       685.6000     65898.0000     21320.0000      9087.0000      1154.0000      2369.0000              0              0              0              0              0            100              0           0.00         0.0000
          11746       755.1750     65898.0000     21320.0000      9087.0000      1154.0000      2369.0000              0              0              0              0              0            100              0           0.00         0.0000
          11747       846.1500     65898.0000     21320.0000      9087.0000      1154.0000      2369.0000              0              0              0              0              0            100              0           0.00         0.0000
          11748       923.0750     65898.0000     21320.0000      9087.0000      1154.0000      2369.0000              0              0              0              0              0            100              0           0.00         0.0000
          11749       970.1000     65898.0000     21320.0000      9087.0000      1154.0000      2369.0000              0              0              0              0              0            100              0           0.00         0.0000
          11750      1030.5500     65898.0000     21320.0000      9087.0000      1154.0000      2369.0000              0              0              0              0              0            100              0           0.00         0.0000
          11751      1056.1500     65898.0000     21320.0000      9087.0000      1154.0000      2369.0000              0              0              0              0              0            100              0           0.00         0.0000
          11752      1075.7000     65898.0000     21320.0000      9087.0000      1154.0000      2369.0000              0              0              0              0              0            100              0           0.00         0.0000
          11753      1107.4500     65898.0000     21320.0000      9087.0000      1154.0000      2369.0000              0              0              0              0              0            100              0           0.00         0.0000
          11754      1137.3750     65898.0000     21320.0000      9087.0000      1154.0000      2369.0000              0              0              0              0              0            100              0           0.00         0.0000
          11755      1151.4000     79645.0000     24093.0000      9490.0000      1188.0000      2412.0000              0              0              0              0              0            100              0           0.00         0.0000
          11756      1163.6000     79645.0000     24093.0000      9490.0000      1188.0000      2412.0000              0              0              0              0              0            100              0           0.00         0.0000
          11757      1163.6000     79645.0000     24093.0000      9490.0000      1188.0000      2412.0000              0              0              0              0              0            100              0           0.00         0.0000
          11758      1153.8500     79645.0000     24093.0000      9490.0000      1188.0000      2412.0000              0              0              0              0              0            100              0           0.00         0.0000
          11759      1129.4500     79645.0000     24093.0000      9490.0000      1188.0000      2412.0000              0              0              0              0              0            100              0           0.00         0.0000
          11760      1099.5000     79645.0000     24093.0000      9490.0000      1188.0000      2412.0000              0              0              0              0              0            100              0           0.00         0.0000
          11761      1086.7000     79645.0000     24093.0000      9490.0000      1188.0000      2412.0000              0              0              0              0              0            100              0           0.00         0.0000
          11762      1078.1500     79645.0000     24093.0000      9490.0000      1188.0000      2412.0000              0              0              0              0              0            100              0           0.00         0.0000
          11763      1063.5000     79645.0000     24093.0000      9490.0000      1188.0000      2412.0000              0              0              0              0              0            100              0           0.00         0.0000
