#___________________________________________________________________________
~VERSION INFORMATION
 VERS.                                 2.0 : CWLS LOG ASCII STANDARD - VERSION 2.0
 WRAP.                                  NO : ONE LINE PER DEPTH STEP
#___________________________________________________________________________
~WELL INFORMATION
 STRT.F                            9928.00 : START DEPTH
 STOP.F                           18929.00 : STOP DEPTH
 STEP.F                                  1 : STEP VALUE
 NULL.                             -999.25 : NULL VALUE
 COMP.      Magnolia Oil & Gas             : COMPANY
 WELL.      Bighorn Plains H02 BH          : WELL
  FLD.      Giddings (AC)                  : FIELD
  LOC.      Washington County              : LOCATION
 CNTY.      Washington County              : PARISH/COUNTY
 STAT.      Texas                          : STATE
 CTRY.      USA                            : COUNTRY
" SRVC.      PetroLog International, Inc.   : SERVICE COMPANY"
 DATE.      10/21/2021                     : LOG DATE
  API.      42-477-31179                   : API REFERENCE NUMBER
#___________________________________________________________________________
~CURVE INFORMATION
#MNEM.UNITS                                : DESCRIPTION
DEPTH.F                                    :  1 DEPTH
 TGAS.Units                                :  2 Chromatograph_TotalGas
 MTHX.PPM                                  :  3 Chromatograph_MethanePPMMax
 ETHX.PPM                                  :  4 Chromatograph_EthanePPMMax
 PRPX.PPM                                  :  5 Chromatograph_PropanePPMMax
 IBTX.PPM                                  :  6 Chromatograph_IButanePPMMax
 NBTX.PPM                                  :  7 Chromatograph_NButanePPMMax
CEMNT.%                                    :  8 Lithology_Cement
SHALE.%                                    :  9 Lithology_Shale
SILTST.%                                   : 10 Lithology_Siltstone
 SAND.%                                    : 11 Lithology_Sand
 LIME.%                                    : 12 Lithology_Lime
 CHLK.%                                    : 13 Lithology_Chalk
  ASH.%                                    : 14 Lithology_Ash
 FRAC.%                                    : 15 Fracture
Kick/Loss.----                             : 16 Kick/Loss
#___________________________________________________________________________
~A        DEPTH           TGAS           MTHX           ETHX           PRPX           IBTX           NBTX          CEMNT          SHALE         SILTST           SAND           LIME           CHLK            ASH           FRAC      Kick/Loss
# ...
          13532      1385.8500     72975.0000     23677.0000     11667.0000      1669.0000      3884.0000              0              0              0              0              0            100              0           0.00         0.0000
          13533      1387.0500     72975.0000     23677.0000     11667.0000      1669.0000      3884.0000              0              0              0              0              0            100              0           0.00         0.0000
          13534      1391.9500     72975.0000     23677.0000     11667.0000      1669.0000      3884.0000              0              0              0              0              0            100              0           0.00         0.0000
          13535      1394.4000     72975.0000     23677.0000     11667.0000      1669.0000      3884.0000              0              0              0              0              0            100              0           0.00         0.0000
          13536      1394.4000     72975.0000     23677.0000     11667.0000      1669.0000      3884.0000              0              0              0              0              0            100              0           0.00         0.0000
          13537      1385.2250     72975.0000     23677.0000     11667.0000      1669.0000      3884.0000              0              0              0              0              0            100              0           0.00         0.0000
          13538      1373.6500     72975.0000     23677.0000     11667.0000      1669.0000      3884.0000              0              0              0              0              0            100              0           0.00         0.0000
          13539      1365.1000     72975.0000     23677.0000     11667.0000      1669.0000      3884.0000              0              0              0              0              0            100              0           0.00         0.0000
          13540      1367.5000     72975.0000     23677.0000     11667.0000      1669.0000      3884.0000              0              0              0              0              0            100              0           0.00         0.0000
          13541      1367.5000     72975.0000     23677.0000     11667.0000      1669.0000      3884.0000              0              0              0              0              0            100              0           0.00         0.0000
          13542      1357.7500     72975.0000     23677.0000     11667.0000      1669.0000      3884.0000              0              0              0              0              0            100              0           0.00         0.0000
          13543      1337.0000     72975.0000     23677.0000     11667.0000      1669.0000      3884.0000              0              0              0              0              0            100              0           0.00         0.0000
          13544      1304.0500     72975.0000     23677.0000     11667.0000      1669.0000      3884.0000              0              0              0              0              0            100              0           0.00         0.0000
          13545      1327.2500     72975.0000     23677.0000     11667.0000      1669.0000      3884.0000              0              0              0              0              0            100              0           0.00         0.0000
          13546      1374.8500     71591.0000     21552.0000      9570.0000      1287.0000      3080.0000              0              0              0              0              0            100              0           0.00         0.0000
          13547      1393.1500     71591.0000     21552.0000      9570.0000      1287.0000      3080.0000              0              0              0              0              0            100              0           0.00         0.0000
          13548      1393.1500     71591.0000     21552.0000      9570.0000      1287.0000      3080.0000              0              0              0              0              0            100              0           0.00         0.0000
          13549      1378.5000     71591.0000     21552.0000      9570.0000      1287.0000      3080.0000              0              0              0              0              0            100              0           0.00         0.0000
          13550      1368.7500     71591.0000     21552.0000      9570.0000      1287.0000      3080.0000              0              0              0              0              0            100              0           0.00         0.0000
          13551      1360.2000     71591.0000     21552.0000      9570.0000      1287.0000      3080.0000              0              0              0              0              0            100              0           0.00         0.0000
          13552      1334.5500     71591.0000     21552.0000      9570.0000      1287.0000      3080.0000              0              0              0              0              0            100              0           0.00         0.0000
          13553      1352.8500     71591.0000     21552.0000      9570.0000      1287.0000      3080.0000              0              0              0              0              0            100              0           0.00         0.0000
          13554      1369.9500     71591.0000     21552.0000      9570.0000      1287.0000      3080.0000              0              0              0              0              0            100              0           0.00         0.0000
          13555      1404.1500     71591.0000     21552.0000      9570.0000      1287.0000      3080.0000              0              0              0              0              0            100              0           0.00         0.0000
          13556      1416.3500     71591.0000     21552.0000      9570.0000      1287.0000      3080.0000              0              0              0              0              0            100              0           0.00         0.0000
          13557      1418.8250     71591.0000     21552.0000      9570.0000      1287.0000      3080.0000              0              0              0              0              0            100              0           0.00         0.0000
          13558      1424.9000     71591.0000     21552.0000      9570.0000      1287.0000      3080.0000              0              0              0              0              0            100              0           0.00         0.0000
          13559      1416.3500     71591.0000     21552.0000      9570.0000      1287.0000      3080.0000              0              0              0              0              0            100              0           0.00         0.0000
          13560      1421.2500     71591.0000     21552.0000      9570.0000      1287.0000      3080.0000              0              0              0              0              0            100              0           0.00         0.0000
          13561      1465.2000     71591.0000     21552.0000      9570.0000      1287.0000      3080.0000              0              0              0              0              0            100              0           0.00         0.0000
          13562      1506.1000     71591.0000     21552.0000      9570.0000      1287.0000      3080.0000              0              0              0              0              0            100              0           0.00         0.0000
          13563      1528.7000     71591.0000     21552.0000      9570.0000      1287.0000      3080.0000              0              0              0              0              0            100              0           0.00         0.0000
          13564      1523.8000     71591.0000     21552.0000      9570.0000      1287.0000      3080.0000              0              0              0              0              0            100              0           0.00         0.0000
          13565      1484.7500     74451.0000     24641.0000     11248.0000      1470.0000      3486.0000              0              0              0              0              0            100              0           0.00         0.0000
