#___________________________________________________________________________
~VERSION INFORMATION
 VERS.                                 2.0 : CWLS LOG ASCII STANDARD - VERSION 2.0
 WRAP.                                  NO : ONE LINE PER DEPTH STEP
#___________________________________________________________________________
~WELL INFORMATION
 STRT.F                            9928.00 : START DEPTH
 STOP.F                           18929.00 : STOP DEPTH
 STEP.F                                  1 : STEP VALUE
 NULL.                             -999.25 : NULL VALUE
 COMP.      Magnolia Oil & Gas             : COMPANY
 WELL.      Bighorn Plains H02 BH          : WELL
  FLD.      Giddings (AC)                  : FIELD
  LOC.      Washington County              : LOCATION
 CNTY.      Washington County              : PARISH/COUNTY
 STAT.      Texas                          : STATE
 CTRY.      USA                            : COUNTRY
" SRVC.      PetroLog International, Inc.   : SERVICE COMPANY"
 DATE.      10/21/2021                     : LOG DATE
  API.      42-477-31179                   : API REFERENCE NUMBER
#___________________________________________________________________________
~CURVE INFORMATION
#MNEM.UNITS                                : DESCRIPTION
DEPTH.F                                    :  1 DEPTH
 TGAS.Units                                :  2 Chromatograph_TotalGas
 MTHX.PPM                                  :  3 Chromatograph_MethanePPMMax
 ETHX.PPM                                  :  4 Chromatograph_EthanePPMMax
 PRPX.PPM                                  :  5 Chromatograph_PropanePPMMax
 IBTX.PPM                                  :  6 Chromatograph_IButanePPMMax
 NBTX.PPM                                  :  7 Chromatograph_NButanePPMMax
CEMNT.%                                    :  8 Lithology_Cement
SHALE.%                                    :  9 Lithology_Shale
SILTST.%                                   : 10 Lithology_Siltstone
 SAND.%                                    : 11 Lithology_Sand
 LIME.%                                    : 12 Lithology_Lime
 CHLK.%                                    : 13 Lithology_Chalk
  ASH.%                                    : 14 Lithology_Ash
 FRAC.%                                    : 15 Fracture
Kick/Loss.----                             : 16 Kick/Loss
#___________________________________________________________________________
~A        DEPTH           TGAS           MTHX           ETHX           PRPX           IBTX           NBTX          CEMNT          SHALE         SILTST           SAND           LIME           CHLK            ASH           FRAC      Kick/Loss
# ...
          11118       736.8750     45985.0000     16862.0000      8673.0000      1133.0000      2515.0000              0              0              0              0              0            100              0           0.00         0.0000
          11119       744.2000     45985.0000     16862.0000      8673.0000      1133.0000      2515.0000              0              0              0              0              0            100              0           0.00         0.0000
          11120       749.3000     45985.0000     16862.0000      8673.0000      1133.0000      2515.0000              0              0              0              0              0            100              0           0.00         0.0000
          11121       926.1250     45985.0000     16862.0000      8673.0000      1133.0000      2515.0000              0              0              0              0              0            100              0           0.00         0.0000
          11122       926.7500     45985.0000     16862.0000      8673.0000      1133.0000      2515.0000              0              0              0              0              0            100              0           0.00         0.0000
          11123       863.2500     45985.0000     16862.0000      8673.0000      1133.0000      2515.0000              0              0              0              0              0            100              0           0.00         0.0000
          11124       710.6500     45985.0000     16862.0000      8673.0000      1133.0000      2515.0000              0              0              0              0              0            100              0           0.00         0.0000
          11125       489.6250     45985.0000     16862.0000      8673.0000      1133.0000      2515.0000              0              0              0              0              0            100              0           0.00         0.0000
          11126       333.3250     45985.0000     16862.0000      8673.0000      1133.0000      2515.0000              0              0              0              0              0            100              0           0.00         0.0000
          11127       363.8500     45985.0000     16862.0000      8673.0000      1133.0000      2515.0000              0              0              0              0              0            100              0           0.00         0.0000
          11128       379.1250     12075.0000      6697.0000      4878.0000       703.0000      1843.0000              0              0              0              0              0            100              0           0.00         0.0000
          11129       380.9500     12075.0000      6697.0000      4878.0000       703.0000      1843.0000              0              0              0              0              0            100              0           0.00         0.0000
          11130       377.3000     12075.0000      6697.0000      4878.0000       703.0000      1843.0000              0              0              0              0              0            100              0           0.00         0.0000
          11131       352.8500     12075.0000      6697.0000      4878.0000       703.0000      1843.0000              0              0              0              0              0            100              0           0.00         0.0000
          11132       323.5500     12075.0000      6697.0000      4878.0000       703.0000      1843.0000              0              0              0              0              0            100              0           0.00         0.0000
          11133       352.8500     12075.0000      6697.0000      4878.0000       703.0000      1843.0000              0              0              0              0              0            100              0           0.00         0.0000
          11134       407.8250     12075.0000      6697.0000      4878.0000       703.0000      1843.0000              0              0              0              0              0            100              0           0.00         0.0000
          11135       451.7750     12075.0000      6697.0000      4878.0000       703.0000      1843.0000              0              0              0              0              0            100              0           0.00         0.0000
          11136       503.6750     12075.0000      6697.0000      4878.0000       703.0000      1843.0000              0              0              0              0              0            100              0           0.00         0.0000
          11137       548.2500     12075.0000      6697.0000      4878.0000       703.0000      1843.0000              0              0              0              0              0            100              0           0.00         0.0000
          11138       576.9250     12075.0000      6697.0000      4878.0000       703.0000      1843.0000              0              0              0              0              0            100              0           0.00         0.0000
          11139       590.9500     12075.0000      6697.0000      4878.0000       703.0000      1843.0000              0              0              0              0              0            100              0           0.00         0.0000
          11140       612.9500     12075.0000      6697.0000      4878.0000       703.0000      1843.0000              0              0              0              0              0            100              0           0.00         0.0000
          11141       643.4500     12075.0000      6697.0000      4878.0000       703.0000      1843.0000              0              0              0              0              0            100              0           0.00         0.0000
          11142       673.3750     12075.0000      6697.0000      4878.0000       703.0000      1843.0000              0              0              0              0              0            100              0           0.00         0.0000
          11143       683.7500     12075.0000      6697.0000      4878.0000       703.0000      1843.0000              0              0              0              0              0            100              0           0.00         0.0000
          11144       682.5500     12075.0000      6697.0000      4878.0000       703.0000      1843.0000              0              0              0              0              0            100              0           0.00         0.0000
          11145       670.3500     12075.0000      6697.0000      4878.0000       703.0000      1843.0000              0              0              0              0              0            100              0           0.00         0.0000
          11146       644.2650     12075.0000      6697.0000      4878.0000       703.0000      1843.0000              0              0              0              0              0            100              0           0.00         0.0000
          11147       604.4000     12075.0000      6697.0000      4878.0000       703.0000      1843.0000              0              0              0              0              0            100              0           0.00         0.0000
          11148       565.3250     12075.0000      6697.0000      4878.0000       703.0000      1843.0000              0              0              0              0              0            100              0           0.00         0.0000
          11149       516.5000     12075.0000      6697.0000      4878.0000       703.0000      1843.0000              0              0              0              0              0            100              0           0.00         0.0000
          11150       478.0250     12075.0000      6697.0000      4878.0000       703.0000      1843.0000              0              0              0              0              0            100              0           0.00         0.0000
          11151       443.2250     12075.0000      6697.0000      4878.0000       703.0000      1843.0000              0              0              0              0              0            100              0           0.00         0.0000
