#___________________________________________________________________________
~VERSION INFORMATION
 VERS.                                 2.0 : CWLS LOG ASCII STANDARD - VERSION 2.0
 WRAP.                                  NO : ONE LINE PER DEPTH STEP
#___________________________________________________________________________
~WELL INFORMATION
 STRT.F                            9928.00 : START DEPTH
 STOP.F                           18929.00 : STOP DEPTH
 STEP.F                                  1 : STEP VALUE
 NULL.                             -999.25 : NULL VALUE
 COMP.      Magnolia Oil & Gas             : COMPANY
 WELL.      Bighorn Plains H02 BH          : WELL
  FLD.      Giddings (AC)                  : FIELD
  LOC.      Washington County              : LOCATION
 CNTY.      Washington County              : PARISH/COUNTY
 STAT.      Texas                          : STATE
 CTRY.      USA                            : COUNTRY
" SRVC.      PetroLog International, Inc.   : SERVICE COMPANY"
 DATE.      10/21/2021                     : LOG DATE
  API.      42-477-31179                   : API REFERENCE NUMBER
#___________________________________________________________________________
~CURVE INFORMATION
#MNEM.UNITS                                : DESCRIPTION
DEPTH.F                                    :  1 DEPTH
 TGAS.Units                                :  2 Chromatograph_TotalGas
 MTHX.PPM                                  :  3 Chromatograph_MethanePPMMax
 ETHX.PPM                                  :  4 Chromatograph_EthanePPMMax
 PRPX.PPM                                  :  5 Chromatograph_PropanePPMMax
 IBTX.PPM                                  :  6 Chromatograph_IButanePPMMax
 NBTX.PPM                                  :  7 Chromatograph_NButanePPMMax
CEMNT.%                                    :  8 Lithology_Cement
SHALE.%                                    :  9 Lithology_Shale
SILTST.%                                   : 10 Lithology_Siltstone
 SAND.%                                    : 11 Lithology_Sand
 LIME.%                                    : 12 Lithology_Lime
 CHLK.%                                    : 13 Lithology_Chalk
  ASH.%                                    : 14 Lithology_Ash
 FRAC.%                                    : 15 Fracture
Kick/Loss.----                             : 16 Kick/Loss
#___________________________________________________________________________
~A        DEPTH           TGAS           MTHX           ETHX           PRPX           IBTX           NBTX          CEMNT          SHALE         SILTST           SAND           LIME           CHLK            ASH           FRAC      Kick/Loss
# ...
          12920      1708.1750     82251.0000     35836.0000     20322.0000      3275.0000      7763.0000              0              0              0              0              0            100              0           0.00         0.0000
          12921      1805.8500     82251.0000     35836.0000     20322.0000      3275.0000      7763.0000              0              0              0              0              0            100              0           0.00         0.0000
          12922      1888.9000     82251.0000     35836.0000     20322.0000      3275.0000      7763.0000              0              0              0              0              0            100              0           0.00         0.0000
          12923      1953.6000     82251.0000     35836.0000     20322.0000      3275.0000      7763.0000              0              0              0              0              0            100              0           0.00         0.0000
          12924      2003.6500     82251.0000     35836.0000     20322.0000      3275.0000      7763.0000              0              0              0              0              0            100              0           0.00         0.0000
          12925      2068.4000     82251.0000     35836.0000     20322.0000      3275.0000      7763.0000              0              0              0              0              0            100              0           0.00         0.0000
          12926      2155.0500     82251.0000     35836.0000     20322.0000      3275.0000      7763.0000              0              0              0              0              0            100              0           0.00         0.0000
          12927      2229.5500     82251.0000     35836.0000     20322.0000      3275.0000      7763.0000              0              0              0              0              0            100              0           0.00         0.0000
          12928      2279.0000     82251.0000     35836.0000     20322.0000      3275.0000      7763.0000              0              0              0              0              0            100              0           0.00         0.0000
          12929      2293.6500     82251.0000     35836.0000     20322.0000      3275.0000      7763.0000              0              0              0              0              0            100              0           0.00         0.0000
          12930      2296.1000     82251.0000     35836.0000     20322.0000      3275.0000      7763.0000              0              0              0              0              0            100              0           0.00         0.0000
          12931      2281.4500     82251.0000     41261.0000     30404.0000      5484.0000     12799.0000              0              0              0              0              0            100              0           0.00         0.0000
          12932      2223.4500     67641.0000     41261.0000     30404.0000      5484.0000     12799.0000              0              0              0              0              0            100              0           0.00         0.0000
          12933      2152.0000     67641.0000     41261.0000     30404.0000      5484.0000     12799.0000              0              0              0              0              0            100              0           0.00         0.0000
          12934      2107.4500     67641.0000     41261.0000     30404.0000      5484.0000     12799.0000              0              0              0              0              0            100              0           0.00         0.0000
          12935      2076.9500     67641.0000     41261.0000     30404.0000      5484.0000     12799.0000              0              0              0              0              0            100              0           0.00         0.0000
          12936      2058.6000     67641.0000     41261.0000     30404.0000      5484.0000     12799.0000              0              0              0              0              0            100              0           0.00         0.0000
          12937      2024.4250     67641.0000     41261.0000     30404.0000      5484.0000     12799.0000              0              0              0              0              0            100              0           0.00         0.0000
          12938      1998.8000     67641.0000     41261.0000     30404.0000      5484.0000     12799.0000              0              0              0              0              0            100              0           0.00         0.0000
          12939      1966.4250     67641.0000     41261.0000     30404.0000      5484.0000     12799.0000              0              0              0              0              0            100              0           0.00         0.0000
          12940      1947.5000     67641.0000     41261.0000     30404.0000      5484.0000     12799.0000              0              0              0              0              0            100              0           0.00         0.0000
          12941      1935.3000     67641.0000     41261.0000     30404.0000      5484.0000     12799.0000              0              0              0              0              0            100              0           0.00         0.0000
          12942      1913.3250     67641.0000     41261.0000     30404.0000      5484.0000     12799.0000              0              0              0              0              0            100              0           0.00         0.0000
          12943      1895.0000     67641.0000     41261.0000     30404.0000      5484.0000     12799.0000              0              0              0              0              0            100              0           0.00         0.0000
          12944      1876.6850     67641.0000     41261.0000     30404.0000      5484.0000     12799.0000              0              0              0              0              0            100              0           0.00         0.0000
          12945      1862.0500     67641.0000     41261.0000     30404.0000      5484.0000     12799.0000              0              0              0              0              0            100              0           0.00         0.0000
          12946      1871.8000     67641.0000     41261.0000     30404.0000      5484.0000     12799.0000              0              0              0              0              0            100              0           0.00         0.0000
          12947      1869.3500     67641.0000     41261.0000     30404.0000      5484.0000     12799.0000              0              0              0              0              0            100              0           0.00         0.0000
          12948      1851.0250     67641.0000     41261.0000     30404.0000      5484.0000     12799.0000              0              0              0              0              0            100              0           0.00         0.0000
          12949      1847.4000     67641.0000     41261.0000     30404.0000      5484.0000     12799.0000              0              0              0              0              0            100              0           0.00         0.0000
          12950      1854.7000     67641.0000     41261.0000     30404.0000      5484.0000     12799.0000              0              0              0              0              0            100              0           0.00         0.0000
          12951      1851.0500     67641.0000     41261.0000     30404.0000      5484.0000     12799.0000              0              0              0              0              0            100              0           0.00         0.0000
          12952      1833.9500     67641.0000     41261.0000     30404.0000      5484.0000     12799.0000              0              0              0              0              0            100              0           0.00         0.0000
          12953      1826.0000     67641.0000     41261.0000     30404.0000      5484.0000     12799.0000              0              0              0              0              0            100              0           0.00         0.0000
