#___________________________________________________________________________
~VERSION INFORMATION
 VERS.                                 2.0 : CWLS LOG ASCII STANDARD - VERSION 2.0
 WRAP.                                  NO : ONE LINE PER DEPTH STEP
#___________________________________________________________________________
~WELL INFORMATION
 STRT.F                            9928.00 : START DEPTH
 STOP.F                           18929.00 : STOP DEPTH
 STEP.F                                  1 : STEP VALUE
 NULL.                             -999.25 : NULL VALUE
 COMP.      Magnolia Oil & Gas             : COMPANY
 WELL.      Bighorn Plains H02 BH          : WELL
  FLD.      Giddings (AC)                  : FIELD
  LOC.      Washington County              : LOCATION
 CNTY.      Washington County              : PARISH/COUNTY
 STAT.      Texas                          : STATE
 CTRY.      USA                            : COUNTRY
" SRVC.      PetroLog International, Inc.   : SERVICE COMPANY"
 DATE.      10/21/2021                     : LOG DATE
  API.      42-477-31179                   : API REFERENCE NUMBER
#___________________________________________________________________________
~CURVE INFORMATION
#MNEM.UNITS                                : DESCRIPTION
DEPTH.F                                    :  1 DEPTH
 TGAS.Units                                :  2 Chromatograph_TotalGas
 MTHX.PPM                                  :  3 Chromatograph_MethanePPMMax
 ETHX.PPM                                  :  4 Chromatograph_EthanePPMMax
 PRPX.PPM                                  :  5 Chromatograph_PropanePPMMax
 IBTX.PPM                                  :  6 Chromatograph_IButanePPMMax
 NBTX.PPM                                  :  7 Chromatograph_NButanePPMMax
CEMNT.%                                    :  8 Lithology_Cement
SHALE.%                                    :  9 Lithology_Shale
SILTST.%                                   : 10 Lithology_Siltstone
 SAND.%                                    : 11 Lithology_Sand
 LIME.%                                    : 12 Lithology_Lime
 CHLK.%                                    : 13 Lithology_Chalk
  ASH.%                                    : 14 Lithology_Ash
 FRAC.%                                    : 15 Fracture
Kick/Loss.----                             : 16 Kick/Loss
#___________________________________________________________________________
~A        DEPTH           TGAS           MTHX           ETHX           PRPX           IBTX           NBTX          CEMNT          SHALE         SILTST           SAND           LIME           CHLK            ASH           FRAC      Kick/Loss
# ...
          15300       780.2000     65573.0000      9767.0000      3044.0000       155.0000       304.0000              0              0              0              0              0             95              5           0.00         0.0000
          15301       786.3500     65573.0000     10180.0000      3241.0000       185.0000       666.0000              0              0              0              0              0            100              0           0.00         0.0000
          15302       791.2000     65157.0000     10180.0000      3241.0000       185.0000       666.0000              0              0              0              0              0            100              0           0.00         0.0000
          15303       787.5500     65157.0000     10180.0000      3241.0000       185.0000       666.0000              0              0              0              0              0            100              0           0.00         0.0000
          15304       794.2500     65157.0000     10180.0000      3241.0000       185.0000       666.0000              0              0              0              0              0            100              0           0.00         0.0000
          15305       792.4500     65223.0000     10270.0000      3284.0000       197.0000       684.0000              0              0              0              0              0            100              0           0.00         0.0000
          15306       790.0000     65223.0000     10270.0000      3284.0000       197.0000       684.0000              0              0              0              0              0            100              0           0.00         0.0000
          15307       790.6000     65223.0000     10270.0000      3284.0000       197.0000       684.0000              0              0              0              0              0            100              0           0.00         0.0000
          15308       780.2250     65223.0000     10270.0000      3284.0000       197.0000       684.0000              0              0              0              0              0            100              0           0.00         0.0000
          15309       775.3500     65223.0000     10270.0000      3284.0000       197.0000       684.0000              0              0              0              0              0            100              0           0.00         0.0000
          15310       765.5500     65223.0000     10270.0000      3284.0000       197.0000       684.0000              0              0              0              0              0            100              0           0.00         0.0000
          15311       769.2500     65223.0000     10270.0000      3284.0000       197.0000       684.0000              0              0              0              0              0            100              0           0.00         0.0000
          15312       786.3500     65223.0000     10270.0000      3284.0000       197.0000       684.0000              0              0              0              0              0            100              0           0.00         0.0000
          15313       790.6000     65223.0000     10270.0000      3284.0000       197.0000       684.0000              0              0              0              0              0            100              0           0.00         0.0000
          15314       787.5500     65223.0000     10270.0000      3284.0000       197.0000       684.0000              0              0              0              0              0            100              0           0.00         0.0000
          15315       786.3500     65286.0000     10270.0000      3284.0000       197.0000       684.0000              0              0              0              0              0            100              0           0.00         0.0000
          15316       775.3500     65286.0000     10116.0000      3199.0000       187.0000       662.0000              0              0              0              0              0            100              0           0.00         0.0000
          15317       771.7000     65286.0000     10116.0000      3199.0000       187.0000       662.0000              0              0              0              0              0            100              0           0.00         0.0000
          15318       768.0000     65286.0000     10116.0000      3199.0000       187.0000       662.0000              0              0              0              0              0            100              0           0.00         0.0000
          15319       765.5750     65286.0000     10116.0000      3199.0000       187.0000       662.0000              0              0              0              0              0            100              0           0.00         0.0000
          15320       760.7000     65286.0000     10116.0000      3199.0000       187.0000       662.0000              0              0              0              0              0            100              0           0.00         0.0000
          15321       758.2500     65286.0000     10116.0000      3199.0000       187.0000       662.0000              0              0              0              0              0            100              0           0.00         0.0000
          15322       759.4500     65286.0000     10116.0000      3199.0000       187.0000       662.0000              0              0              0              0              0            100              0           0.00         0.0000
          15323       769.2500     65286.0000     10116.0000      3199.0000       187.0000       662.0000              0              0              0              0              0            100              0           0.00         0.0000
          15324       779.0000     65286.0000     10116.0000      3199.0000       187.0000       662.0000              0              0              0              0              0            100              0           0.00         0.0000
          15325       786.3500     65286.0000     10116.0000      3199.0000       187.0000       662.0000              0              0              0              0              0            100              0           0.00         0.0000
          15326       783.9000     65286.0000     10116.0000      3199.0000       187.0000       662.0000              0              0              0              0              0            100              0           0.00         0.0000
          15327       779.0000     65286.0000     10116.0000      3199.0000       187.0000       662.0000              0              0              0              0              0            100              0           0.00         0.0000
          15328       787.5500     65286.0000     10116.0000      3199.0000       187.0000       662.0000              0              0              0              0              0            100              0           0.00         0.0000
          15329       793.6500     65286.0000     10116.0000      3199.0000       187.0000       662.0000              0              0              0              0              0            100              0           0.00         0.0000
          15330       794.8500     65286.0000     10116.0000      3199.0000       187.0000       662.0000              0              0              0              0              0            100              0           0.00         0.0000
          15331       790.0000     65286.0000     10116.0000      3199.0000       187.0000       662.0000              0              0              0              0              0            100              0           0.00         0.0000
          15332       780.2000     65286.0000     10116.0000      3199.0000       187.0000       662.0000              0              0              0              0              0            100              0           0.00         0.0000
          15333       769.2500     65286.0000     10116.0000      3199.0000       187.0000       662.0000              0              0              0              0              0            100              0           0.00         0.0000
