#___________________________________________________________________________
~VERSION INFORMATION
 VERS.                                 2.0 : CWLS LOG ASCII STANDARD - VERSION 2.0
 WRAP.                                  NO : ONE LINE PER DEPTH STEP
#___________________________________________________________________________
~WELL INFORMATION
 STRT.F                            9928.00 : START DEPTH
 STOP.F                           18929.00 : STOP DEPTH
 STEP.F                                  1 : STEP VALUE
 NULL.                             -999.25 : NULL VALUE
 COMP.      Magnolia Oil & Gas             : COMPANY
 WELL.      Bighorn Plains H02 BH          : WELL
  FLD.      Giddings (AC)                  : FIELD
  LOC.      Washington County              : LOCATION
 CNTY.      Washington County              : PARISH/COUNTY
 STAT.      Texas                          : STATE
 CTRY.      USA                            : COUNTRY
" SRVC.      PetroLog International, Inc.   : SERVICE COMPANY"
 DATE.      10/21/2021                     : LOG DATE
  API.      42-477-31179                   : API REFERENCE NUMBER
#___________________________________________________________________________
~CURVE INFORMATION
#MNEM.UNITS                                : DESCRIPTION
DEPTH.F                                    :  1 DEPTH
 TGAS.Units                                :  2 Chromatograph_TotalGas
 MTHX.PPM                                  :  3 Chromatograph_MethanePPMMax
 ETHX.PPM                                  :  4 Chromatograph_EthanePPMMax
 PRPX.PPM                                  :  5 Chromatograph_PropanePPMMax
 IBTX.PPM                                  :  6 Chromatograph_IButanePPMMax
 NBTX.PPM                                  :  7 Chromatograph_NButanePPMMax
CEMNT.%                                    :  8 Lithology_Cement
SHALE.%                                    :  9 Lithology_Shale
SILTST.%                                   : 10 Lithology_Siltstone
 SAND.%                                    : 11 Lithology_Sand
 LIME.%                                    : 12 Lithology_Lime
 CHLK.%                                    : 13 Lithology_Chalk
  ASH.%                                    : 14 Lithology_Ash
 FRAC.%                                    : 15 Fracture
Kick/Loss.----                             : 16 Kick/Loss
#___________________________________________________________________________
~A        DEPTH           TGAS           MTHX           ETHX           PRPX           IBTX           NBTX          CEMNT          SHALE         SILTST           SAND           LIME           CHLK            ASH           FRAC      Kick/Loss
# ...
          14722       941.4000     73715.0000     12522.0000      4708.0000       489.0000      1361.0000              0              0              0              0              0            100              0           0.00         0.0000
          14723       954.0150     73715.0000     12522.0000      4708.0000       489.0000      1361.0000              0              0              0              0              0            100              0           0.00         0.0000
          14724       964.6000     73715.0000     12522.0000      4708.0000       489.0000      1361.0000              0              0              0              0              0            100              0           0.00         0.0000
          14725       864.4500     73715.0000     12522.0000      4708.0000       541.0000      1544.0000              0              0              0              0              0            100              0           0.00         0.0000
          14726       684.3750     48302.0000     10384.0000      4674.0000       541.0000      1544.0000              0              0              0              0              0            100              0           0.00         0.0000
          14727       512.8000     48302.0000     10384.0000      4674.0000       541.0000      1544.0000              0              0              0              0              0            100              0           0.00         0.0000
          14728       411.5000     48302.0000     10384.0000      4674.0000       541.0000      1544.0000              0              0              0              0              0            100              0           0.00         0.0000
          14729       352.2500     48302.0000     10384.0000      4674.0000       541.0000      1544.0000              0              0              0              0              0            100              0           0.00         0.0000
          14730       470.1000     48302.0000     10384.0000      4674.0000       541.0000      1544.0000              0              0              0              0              0            100              0           0.00         0.0000
          14731       713.7000     48302.0000     10384.0000      4674.0000       541.0000      1544.0000              0              0              0              0              0            100              0           0.00         0.0000
          14732       893.8000     48302.0000     10384.0000      4674.0000       541.0000      1544.0000              0              0              0              0              0            100              0           0.00         0.0000
          14733       992.7000     48302.0000     10384.0000      4674.0000       541.0000      1544.0000              0              0              0              0              0            100              0           0.00         0.0000
          14734      1015.9000     48302.0000     10384.0000      4674.0000       541.0000      1544.0000              0              0              0              0              0            100              0           0.00         0.0000
          14735      1024.4000     48302.0000     10384.0000      4674.0000       541.0000      1544.0000              0              0              0              0              0            100              0           0.00         0.0000
          14736      1024.4000     48302.0000     10384.0000      4674.0000       541.0000      1544.0000              0              0              0              0              0            100              0           0.00         0.0000
          14737      1004.2750     48302.0000     10384.0000      4674.0000       541.0000      1544.0000              0              0              0              0              0            100              0           0.00         0.0000
          14738       975.5850     48302.0000     10384.0000      4674.0000       541.0000      1544.0000              0              0              0              0              0            100              0           0.00         0.0000
          14739       964.6000     48302.0000     10384.0000      4674.0000       541.0000      1544.0000              0              0              0              0              0            100              0           0.00         0.0000
          14740       960.9500     48302.0000     10384.0000      4674.0000       541.0000      1544.0000              0              0              0              0              0            100              0           0.00         0.0000
          14741       953.0000     48302.0000     10384.0000      4674.0000       541.0000      1544.0000              0              0              0              0              0            100              0           0.00         0.0000
          14742       954.8500     48302.0000     10384.0000      4674.0000       541.0000      1544.0000              0              0              0              0              0            100              0           0.00         0.0000
          14743       960.9500     48302.0000     10384.0000      4674.0000       541.0000      1544.0000              0              0              0              0              0            100              0           0.00         0.0000
          14744       962.7500     48302.0000     10384.0000      4674.0000       541.0000      1544.0000              0              0              0              0              0            100              0           0.00         0.0000
          14745       958.5000     48302.0000     10384.0000      4674.0000       541.0000      1544.0000              0              0              0              0              0            100              0           0.00         0.0000
          14746       940.7750     69223.0000     12575.0000      4835.0000       485.0000      1406.0000              0              0              0              0              0            100              0           0.00         0.0000
          14747       911.6850     69223.0000     12575.0000      4835.0000       485.0000      1406.0000              0              0              0              0              0            100              0           0.00         0.0000
          14748       873.0000     69223.0000     12575.0000      4835.0000       485.0000      1406.0000              0              0              0              0              0            100              0           0.00         0.0000
          14749       808.3150     69223.0000     12575.0000      4835.0000       485.0000      1406.0000              0              0              0              0              0            100              0           0.00         0.0000
          14750       836.4000     69223.0000     12575.0000      4835.0000       485.0000      1406.0000              0              0              0              0              0            100              0           0.00         0.0000
          14751       891.7500     69223.0000     12575.0000      4835.0000       485.0000      1406.0000              0              0              0              0              0            100              0           0.00         0.0000
          14752       960.9500     69223.0000     12575.0000      4835.0000       485.0000      1406.0000              0              0              0              0              0            100              0           0.00         0.0000
          14753      1009.1500     69223.0000     12575.0000      4835.0000       485.0000      1406.0000              0              0              0              0              0            100              0           0.00         0.0000
          14754      1029.3000     69223.0000     12575.0000      4835.0000       485.0000      1406.0000              0              0              0              0              0            100              0           0.00         0.0000
          14755      1053.7500     69223.0000     12575.0000      4835.0000       485.0000      1406.0000              0              0              0              0              0            100              0           0.00         0.0000
