#___________________________________________________________________________
~VERSION INFORMATION
 VERS.                                 2.0 : CWLS LOG ASCII STANDARD - VERSION 2.0
 WRAP.                                  NO : ONE LINE PER DEPTH STEP
#___________________________________________________________________________
~WELL INFORMATION
 STRT.F                            9928.00 : START DEPTH
 STOP.F                           18929.00 : STOP DEPTH
 STEP.F                                  1 : STEP VALUE
 NULL.                             -999.25 : NULL VALUE
 COMP.      Magnolia Oil & Gas             : COMPANY
 WELL.      Bighorn Plains H02 BH          : WELL
  FLD.      Giddings (AC)                  : FIELD
  LOC.      Washington County              : LOCATION
 CNTY.      Washington County              : PARISH/COUNTY
 STAT.      Texas                          : STATE
 CTRY.      USA                            : COUNTRY
" SRVC.      PetroLog International, Inc.   : SERVICE COMPANY"
 DATE.      10/21/2021                     : LOG DATE
  API.      42-477-31179                   : API REFERENCE NUMBER
#___________________________________________________________________________
~CURVE INFORMATION
#MNEM.UNITS                                : DESCRIPTION
DEPTH.F                                    :  1 DEPTH
 TGAS.Units                                :  2 Chromatograph_TotalGas
 MTHX.PPM                                  :  3 Chromatograph_MethanePPMMax
 ETHX.PPM                                  :  4 Chromatograph_EthanePPMMax
 PRPX.PPM                                  :  5 Chromatograph_PropanePPMMax
 IBTX.PPM                                  :  6 Chromatograph_IButanePPMMax
 NBTX.PPM                                  :  7 Chromatograph_NButanePPMMax
CEMNT.%                                    :  8 Lithology_Cement
SHALE.%                                    :  9 Lithology_Shale
SILTST.%                                   : 10 Lithology_Siltstone
 SAND.%                                    : 11 Lithology_Sand
 LIME.%                                    : 12 Lithology_Lime
 CHLK.%                                    : 13 Lithology_Chalk
  ASH.%                                    : 14 Lithology_Ash
 FRAC.%                                    : 15 Fracture
Kick/Loss.----                             : 16 Kick/Loss
#___________________________________________________________________________
~A        DEPTH           TGAS           MTHX           ETHX           PRPX           IBTX           NBTX          CEMNT          SHALE         SILTST           SAND           LIME           CHLK            ASH           FRAC      Kick/Loss
# ...
          14110      1622.7000     77027.0000     30580.0000     14486.0000      1851.0000      3891.0000              0              0              0              0              0            100              0           0.00         0.0000
          14111      1622.7000     77027.0000     30580.0000     14486.0000      1851.0000      3891.0000              0              0              0              0              0            100              0           0.00         0.0000
          14112      1603.8000     77027.0000     30580.0000     14486.0000      1851.0000      3891.0000              0              0              0              0              0            100              0           0.00         0.0000
          14113      1573.2500     77027.0000     30580.0000     14486.0000      1851.0000      3891.0000              0              0              0              0              0            100              0           0.00         0.0000
          14114      1527.4750     77027.0000     30580.0000     14486.0000      1851.0000      3891.0000              0              0              0              0              0            100              0           0.00         0.0000
          14115      1387.0500     77027.0000     30580.0000     14486.0000      1851.0000      3891.0000              0              0              0              0              0            100              0           0.00         0.0000
          14116      1158.7250     77027.0000     30580.0000     14486.0000      1851.0000      3891.0000              0              0              0              0              0            100              0           0.00         0.0000
          14117       947.5000     77027.0000     30580.0000     14486.0000      1851.0000      3891.0000              0              0              0              0              0            100              0           0.00         0.0000
          14118       798.5500     77027.0000     30580.0000     14486.0000      1851.0000      3891.0000              0              0              0              0              0            100              0           0.00         0.0000
          14119       997.5500     77027.0000     30580.0000     14486.0000      1851.0000      3891.0000              0              0              0              0              0            100              0           0.00         0.0000
          14120      1266.2000     77027.0000     30580.0000     14486.0000      1851.0000      3891.0000              0              0              0              0              0            100              0           0.00         0.0000
          14121      1368.7500     77027.0000     30580.0000     14486.0000      1851.0000      3891.0000              0              0              0              0              0            100              0           0.00         0.0000
          14122      1390.7000     77027.0000     30580.0000     14486.0000      1851.0000      3891.0000              0              0              0              0              0            100              0           0.00         0.0000
          14123      1389.5000     77027.0000     30580.0000     14486.0000      1851.0000      3891.0000              0              0              0              0              0            100              0           0.00         0.0000
          14124      1385.8500     77027.0000     30580.0000     14486.0000      1851.0000      3891.0000              0              0              0              0              0            100              0           0.00         0.0000
          14125      1380.9500     77027.0000     30580.0000     14486.0000      1851.0000      3891.0000              0              0              0              0              0            100              0           0.00         0.0000
          14126      1438.7500     77027.0000     30580.0000     14486.0000      1851.0000      3891.0000              0              0              0              0              0            100              0           0.00         0.0000
          14127      1556.8000     77027.0000     30580.0000     14486.0000      1851.0000      3891.0000              0              0              0              0              0            100              0           0.00         0.0000
          14128      1667.9000     77027.0000     30580.0000     14486.0000      1851.0000      3891.0000              0              0              0              0              0            100              0           0.00         0.0000
          14129      1738.1000     77027.0000     30580.0000     14486.0000      1851.0000      3891.0000              0              0              0              0              0            100              0           0.00         0.0000
          14130      1752.1500     78038.0000     34803.0000     19229.0000      2894.0000      6227.0000              0              0              0              0              0            100              0           0.00         0.0000
          14131      1746.6500     78038.0000     34803.0000     19229.0000      2894.0000      6227.0000              0              0              0              0              0            100              0           0.00         0.0000
          14132      1923.1000     78038.0000     34803.0000     19229.0000      2894.0000      6227.0000              0              0              0              0              0            100              0           0.00         0.0000
          14133      1923.1000     78038.0000     34803.0000     19229.0000      2894.0000      6227.0000              0              0              0              0              0            100              0           0.00         0.0000
          14134      1916.3500     78038.0000     34803.0000     19229.0000      2894.0000      6227.0000              0              0              0              0              0            100              0           0.00         0.0000
          14135      1874.6500     78038.0000     34803.0000     19229.0000      2894.0000      6227.0000              0              0              0              0              0            100              0           0.00         0.0000
          14136      1796.5000     78038.0000     34803.0000     19229.0000      2894.0000      6227.0000              0              0              0              0              0            100              0           0.00         0.0000
          14137      1730.1500     78038.0000     34803.0000     19229.0000      2894.0000      6227.0000              0              0              0              0              0            100              0           0.00         0.0000
          14138      1689.8500     78038.0000     34803.0000     19229.0000      2894.0000      6227.0000              0              0              0              0              0            100              0           0.00         0.0000
          14139      1648.9750     78912.0000     34803.0000     19229.0000      2894.0000      6227.0000              0              0              0              0              0            100              0           0.00         0.0000
          14140      1600.7500     78912.0000     31514.0000     15129.0000      2248.0000      4822.0000              0              0              0              0              0            100              0           0.00         0.0000
          14141      1569.0000     78912.0000     31514.0000     15129.0000      2248.0000      4822.0000              0              0              0              0              0            100              0           0.00         0.0000
          14142      1536.0000     86775.0000     31514.0000     15129.0000      2248.0000      4822.0000              0              0              0              0              0            100              0           0.00         0.0000
          14143      1221.0000     86775.0000     20825.0000      8186.0000      1029.0000      2495.0000              0              0              0              0              0            100              0           0.00         0.0000
