#___________________________________________________________________________
~VERSION INFORMATION
 VERS.                                 2.0 : CWLS LOG ASCII STANDARD - VERSION 2.0
 WRAP.                                  NO : ONE LINE PER DEPTH STEP
#___________________________________________________________________________
~WELL INFORMATION
 STRT.F                            9928.00 : START DEPTH
 STOP.F                           18929.00 : STOP DEPTH
 STEP.F                                  1 : STEP VALUE
 NULL.                             -999.25 : NULL VALUE
 COMP.      Magnolia Oil & Gas             : COMPANY
 WELL.      Bighorn Plains H02 BH          : WELL
  FLD.      Giddings (AC)                  : FIELD
  LOC.      Washington County              : LOCATION
 CNTY.      Washington County              : PARISH/COUNTY
 STAT.      Texas                          : STATE
 CTRY.      USA                            : COUNTRY
" SRVC.      PetroLog International, Inc.   : SERVICE COMPANY"
 DATE.      10/21/2021                     : LOG DATE
  API.      42-477-31179                   : API REFERENCE NUMBER
#___________________________________________________________________________
~CURVE INFORMATION
#MNEM.UNITS                                : DESCRIPTION
DEPTH.F                                    :  1 DEPTH
 TGAS.Units                                :  2 Chromatograph_TotalGas
 MTHX.PPM                                  :  3 Chromatograph_MethanePPMMax
 ETHX.PPM                                  :  4 Chromatograph_EthanePPMMax
 PRPX.PPM                                  :  5 Chromatograph_PropanePPMMax
 IBTX.PPM                                  :  6 Chromatograph_IButanePPMMax
 NBTX.PPM                                  :  7 Chromatograph_NButanePPMMax
CEMNT.%                                    :  8 Lithology_Cement
SHALE.%                                    :  9 Lithology_Shale
SILTST.%                                   : 10 Lithology_Siltstone
 SAND.%                                    : 11 Lithology_Sand
 LIME.%                                    : 12 Lithology_Lime
 CHLK.%                                    : 13 Lithology_Chalk
  ASH.%                                    : 14 Lithology_Ash
 FRAC.%                                    : 15 Fracture
Kick/Loss.----                             : 16 Kick/Loss
#___________________________________________________________________________
~A        DEPTH           TGAS           MTHX           ETHX           PRPX           IBTX           NBTX          CEMNT          SHALE         SILTST           SAND           LIME           CHLK            ASH           FRAC      Kick/Loss
# ...
          15912       654.4500     64919.0000      9891.0000      2714.0000        83.0000       351.0000              0              0              0              0              0            100              0           0.00         0.0000
          15913       647.1500     64919.0000      9891.0000      2714.0000        83.0000       351.0000              0              0              0              0              0            100              0           0.00         0.0000
          15914       645.9000     64919.0000      9891.0000      2714.0000        83.0000       351.0000              0              0              0              0              0            100              0           0.00         0.0000
          15915       650.8000     64919.0000      9891.0000      2714.0000        83.0000       351.0000              0              0              0              0              0            100              0           0.00         0.0000
          15916       654.4500     64919.0000      9891.0000      2714.0000        83.0000       351.0000              0              0              0              0              0            100              0           0.00         0.0000
          15917       654.4500     64919.0000      9891.0000      2714.0000        83.0000       351.0000              0              0              0              0              0            100              0           0.00         0.0000
          15918       649.6000     64919.0000      9891.0000      2714.0000        83.0000       351.0000              0              0              0              0              0            100              0           0.00         0.0000
          15919       609.3000     64919.0000      9891.0000      2714.0000        83.0000       351.0000              0              0              0              0              0            100              0           0.00         0.0000
          15920       623.3250     64919.0000      9891.0000      2714.0000        83.0000       351.0000              0              0              0              0              0            100              0           0.00         0.0000
          15921       647.1500     64919.0000      9891.0000      2714.0000        83.0000       351.0000              0              0              0              0              0            100              0           0.00         0.0000
          15922       656.9000     64919.0000      9891.0000      2714.0000        83.0000       351.0000              0              0              0              0              0            100              0           0.00         0.0000
          15923       717.9500     64919.0000     10680.0000      3281.0000       185.0000       576.0000              0              0              0              0              0            100              0           0.00         0.0000
          15924       730.1500     64729.0000     10680.0000      3281.0000       185.0000       576.0000              0              0              0              0              0            100              0           0.00         0.0000
          15925       736.2500     64729.0000     10680.0000      3281.0000       185.0000       576.0000              0              0              0              0              0            100              0           0.00         0.0000
          15926       737.5000     64729.0000     10680.0000      3281.0000       185.0000       576.0000              0              0              0              0              0            100              0           0.00         0.0000
          15927       744.8000     64729.0000     10680.0000      3281.0000       185.0000       576.0000              0              0              0              0              0            100              0           0.00         0.0000
          15928       761.9000     64729.0000     10680.0000      3281.0000       185.0000       576.0000              0              0              0              0              0            100              0           0.00         0.0000
          15929       764.3500     64729.0000     10680.0000      3281.0000       185.0000       576.0000              0              0              0              0              0            100              0           0.00         0.0000
          15930       755.8000     64729.0000     10680.0000      3281.0000       185.0000       576.0000              0              0              0              0              0            100              0           0.00         0.0000
          15931       738.7000     64729.0000     10680.0000      3281.0000       185.0000       576.0000              0              0              0              0              0            100              0           0.00         0.0000
          15932       717.9500     64729.0000     10680.0000      3281.0000       185.0000       576.0000              0              0              0              0              0            100              0           0.00         0.0000
          15933       695.3500     64729.0000     10680.0000      3281.0000       185.0000       576.0000              0              0              0              0              0            100              0           0.00         0.0000
          15934       675.2000     64729.0000     10680.0000      3281.0000       185.0000       576.0000              0              0              0              0              0            100              0           0.00         0.0000
          15935       625.1500     64729.0000     10680.0000      3281.0000       185.0000       576.0000              0              0              0              0              0            100              0           0.00         0.0000
          15936       645.3000     64729.0000     10680.0000      3281.0000       185.0000       576.0000              0              0              0              0              0            100              0           0.00         0.0000
          15937       658.1000     64729.0000     10680.0000      3534.0000       277.0000       816.0000              0              0              0              0              0            100              0           0.00         0.0000
          15938       660.5500     59604.0000      9786.0000      3534.0000       277.0000       816.0000              0              0              0              0              0            100              0           0.00         0.0000
          15939       662.4000     59604.0000      9786.0000      3534.0000       277.0000       816.0000              0              0              0              0              0            100              0           0.00         0.0000
          15940       661.8000     59604.0000      9786.0000      3534.0000       277.0000       816.0000              0              0              0              0              0            100              0           0.00         0.0000
          15941       665.4500     59604.0000      9786.0000      3534.0000       277.0000       816.0000              0              0              0              0              0            100              0           0.00         0.0000
          15942       669.1000     59604.0000      9786.0000      3534.0000       277.0000       816.0000              0              0              0              0              0            100              0           0.00         0.0000
          15943       673.3750     59604.0000      9786.0000      3534.0000       277.0000       816.0000              0              0              0              0              0            100              0           0.00         0.0000
          15944       672.7500     59604.0000      9786.0000      3534.0000       277.0000       816.0000              0              0              0              0              0            100              0           0.00         0.0000
          15945       672.7650     59604.0000      9786.0000      3534.0000       277.0000       816.0000              0              0              0              0              0            100              0           0.00         0.0000
