#___________________________________________________________________________
~VERSION INFORMATION
 VERS.                                 2.0 : CWLS LOG ASCII STANDARD - VERSION 2.0
 WRAP.                                  NO : ONE LINE PER DEPTH STEP
#___________________________________________________________________________
~WELL INFORMATION
 STRT.F                            9928.00 : START DEPTH
 STOP.F                           18929.00 : STOP DEPTH
 STEP.F                                  1 : STEP VALUE
 NULL.                             -999.25 : NULL VALUE
 COMP.      Magnolia Oil & Gas             : COMPANY
 WELL.      Bighorn Plains H02 BH          : WELL
  FLD.      Giddings (AC)                  : FIELD
  LOC.      Washington County              : LOCATION
 CNTY.      Washington County              : PARISH/COUNTY
 STAT.      Texas                          : STATE
 CTRY.      USA                            : COUNTRY
" SRVC.      PetroLog International, Inc.   : SERVICE COMPANY"
 DATE.      10/21/2021                     : LOG DATE
  API.      42-477-31179                   : API REFERENCE NUMBER
#___________________________________________________________________________
~CURVE INFORMATION
#MNEM.UNITS                                : DESCRIPTION
DEPTH.F                                    :  1 DEPTH
 TGAS.Units                                :  2 Chromatograph_TotalGas
 MTHX.PPM                                  :  3 Chromatograph_MethanePPMMax
 ETHX.PPM                                  :  4 Chromatograph_EthanePPMMax
 PRPX.PPM                                  :  5 Chromatograph_PropanePPMMax
 IBTX.PPM                                  :  6 Chromatograph_IButanePPMMax
 NBTX.PPM                                  :  7 Chromatograph_NButanePPMMax
CEMNT.%                                    :  8 Lithology_Cement
SHALE.%                                    :  9 Lithology_Shale
SILTST.%                                   : 10 Lithology_Siltstone
 SAND.%                                    : 11 Lithology_Sand
 LIME.%                                    : 12 Lithology_Lime
 CHLK.%                                    : 13 Lithology_Chalk
  ASH.%                                    : 14 Lithology_Ash
 FRAC.%                                    : 15 Fracture
Kick/Loss.----                             : 16 Kick/Loss
#___________________________________________________________________________
~A        DEPTH           TGAS           MTHX           ETHX           PRPX           IBTX           NBTX          CEMNT          SHALE         SILTST           SAND           LIME           CHLK            ASH           FRAC      Kick/Loss
# ...
          18904         0.0000         0.0000         0.0000         0.0000         0.0000         0.0000              0              0              0              0              0              0              0           0.00        -4.0000
          18905         0.0000         0.0000         0.0000         0.0000         0.0000         0.0000              0              0              0              0              0              0              0           0.00        -4.0000
          18906         0.0000         0.0000         0.0000         0.0000         0.0000         0.0000              0              0              0              0              0              0              0           0.00        -4.0000
          18907         0.0000         0.0000         0.0000         0.0000         0.0000         0.0000              0              0              0              0              0              0              0           0.00        -4.0000
          18908         0.0000         0.0000         0.0000         0.0000         0.0000         0.0000              0              0              0              0              0              0              0           0.00        -4.0000
          18909         0.0000         0.0000         0.0000         0.0000         0.0000         0.0000              0              0              0              0              0              0              0           0.00        -4.0000
          18910         0.0000         0.0000         0.0000         0.0000         0.0000         0.0000              0              0              0              0              0              0              0           0.00        -4.0000
          18911         0.0000         0.0000         0.0000         0.0000         0.0000         0.0000              0              0              0              0              0              0              0           0.00        -4.0000
          18912         0.0000         0.0000         0.0000         0.0000         0.0000         0.0000              0              0              0              0              0              0              0           0.00        -4.0000
          18913         0.0000         0.0000         0.0000         0.0000         0.0000         0.0000              0              0              0              0              0              0              0           0.00        -4.0000
          18914         0.0000         0.0000         0.0000         0.0000         0.0000         0.0000              0              0              0              0              0              0              0           0.00        -4.0000
          18915         0.0000         0.0000         0.0000         0.0000         0.0000         0.0000              0              0              0              0              0              0              0           0.00        -4.0000
          18916         0.0000         0.0000         0.0000         0.0000         0.0000         0.0000              0              0              0              0              0              0              0           0.00        -4.0000
          18917         0.0000         0.0000         0.0000         0.0000         0.0000         0.0000              0              0              0              0              0              0              0           0.00        -4.0000
          18918         0.0000         0.0000         0.0000         0.0000         0.0000         0.0000              0              0              0              0              0              0              0           0.00        -4.0000
          18919         0.0000         0.0000         0.0000         0.0000         0.0000         0.0000              0              0              0              0              0              0              0           0.00        -4.0000
          18920         0.0000         0.0000         0.0000         0.0000         0.0000         0.0000              0              0              0              0              0              0              0           0.00        -4.0000
          18921         0.0000         0.0000         0.0000         0.0000         0.0000         0.0000              0              0              0              0              0              0              0           0.00        -4.0000
          18922         0.0000         0.0000         0.0000         0.0000         0.0000         0.0000              0              0              0              0              0              0              0           0.00        -4.0000
          18923         0.0000         0.0000         0.0000         0.0000         0.0000         0.0000              0              0              0              0              0              0              0           0.00        -4.0000
          18924         0.0000         0.0000         0.0000         0.0000         0.0000         0.0000              0              0              0              0              0              0              0           0.00        -4.0000
          18925         0.0000         0.0000         0.0000         0.0000         0.0000         0.0000              0              0              0              0              0              0              0           0.00        -4.0000
          18926         0.0000         0.0000         0.0000         0.0000         0.0000         0.0000              0              0              0              0              0              0              0           0.00        -4.0000
          18927         0.0000         0.0000         0.0000         0.0000         0.0000         0.0000              0              0              0              0              0              0              0           0.00        -4.0000
          18928         0.0000         0.0000         0.0000         0.0000         0.0000         0.0000              0              0              0              0              0              0              0           0.00        -4.0000
          18929         0.0000         0.0000         0.0000         0.0000         0.0000         0.0000              0              0              0              0              0              0              0           0.00        -4.0000
