#___________________________________________________________________________
~VERSION INFORMATION
 VERS.                                 2.0 : CWLS LOG ASCII STANDARD - VERSION 2.0
 WRAP.                                  NO : ONE LINE PER DEPTH STEP
#___________________________________________________________________________
~WELL INFORMATION
 STRT.F                            9928.00 : START DEPTH
 STOP.F                           18929.00 : STOP DEPTH
 STEP.F                                  1 : STEP VALUE
 NULL.                             -999.25 : NULL VALUE
 COMP.      Magnolia Oil & Gas             : COMPANY
 WELL.      Bighorn Plains H02 BH          : WELL
  FLD.      Giddings (AC)                  : FIELD
  LOC.      Washington County              : LOCATION
 CNTY.      Washington County              : PARISH/COUNTY
 STAT.      Texas                          : STATE
 CTRY.      USA                            : COUNTRY
" SRVC.      PetroLog International, Inc.   : SERVICE COMPANY"
 DATE.      10/21/2021                     : LOG DATE
  API.      42-477-31179                   : API REFERENCE NUMBER
#___________________________________________________________________________
~CURVE INFORMATION
#MNEM.UNITS                                : DESCRIPTION
DEPTH.F                                    :  1 DEPTH
 TGAS.Units                                :  2 Chromatograph_TotalGas
 MTHX.PPM                                  :  3 Chromatograph_MethanePPMMax
 ETHX.PPM                                  :  4 Chromatograph_EthanePPMMax
 PRPX.PPM                                  :  5 Chromatograph_PropanePPMMax
 IBTX.PPM                                  :  6 Chromatograph_IButanePPMMax
 NBTX.PPM                                  :  7 Chromatograph_NButanePPMMax
CEMNT.%                                    :  8 Lithology_Cement
SHALE.%                                    :  9 Lithology_Shale
SILTST.%                                   : 10 Lithology_Siltstone
 SAND.%                                    : 11 Lithology_Sand
 LIME.%                                    : 12 Lithology_Lime
 CHLK.%                                    : 13 Lithology_Chalk
  ASH.%                                    : 14 Lithology_Ash
 FRAC.%                                    : 15 Fracture
Kick/Loss.----                             : 16 Kick/Loss
#___________________________________________________________________________
~A        DEPTH           TGAS           MTHX           ETHX           PRPX           IBTX           NBTX          CEMNT          SHALE         SILTST           SAND           LIME           CHLK            ASH           FRAC      Kick/Loss
# ...
          10540       154.4500      7076.0000      2707.0000      1707.0000       102.0000       288.0000              0              0              0              0              0            100              0           0.00         0.0000
          10541       148.9500      7076.0000      2707.0000      1707.0000       102.0000       288.0000              0              0              0              0              0            100              0           0.00         0.0000
          10542       153.8500      7076.0000      2707.0000      1707.0000       102.0000       288.0000              0              0              0              0              0            100              0           0.00         0.0000
          10543       155.0500      7076.0000      2707.0000      1707.0000       102.0000       288.0000              0              0              0              0              0            100              0           0.00         0.0000
          10544       155.0500      7076.0000      2707.0000      1707.0000       102.0000       288.0000              0              0              0              0              0            100              0           0.00         0.0000
          10545       154.4500      7076.0000      2707.0000      1707.0000       102.0000       288.0000              0              0              0              0              0            100              0           0.00         0.0000
          10546       153.8500      7076.0000      2707.0000      1707.0000       102.0000       376.0000              0              0              0              0              0            100              0           0.00         0.0000
          10547       152.6500      6510.0000      2266.0000      1383.0000        28.0000       376.0000              0              0              0              0              0            100              0           0.00         0.0000
          10548       154.4500      6510.0000      2266.0000      1383.0000        28.0000       376.0000              0              0              0              0              0            100              0           0.00         0.0000
          10549       159.3500      6510.0000      2266.0000      1383.0000        28.0000       376.0000              0              0              0              0              0            100              0           0.00         0.0000
          10550       159.3500      6510.0000      2266.0000      1383.0000        28.0000       376.0000              0              0              0              0              0            100              0           0.00         0.0000
          10551       152.6500      6510.0000      2266.0000      1383.0000        28.0000       376.0000              0              0              0              0              0            100              0           0.00         0.0000
          10552       146.5250      6510.0000      2266.0000      1383.0000        28.0000       376.0000              0              0              0              0              0            100              0           0.00         0.0000
          10553       150.2000      6510.0000      2266.0000      1383.0000        28.0000       376.0000              0              0              0              0              0            100              0           0.00         0.0000
          10554       152.6500      6510.0000      2266.0000      1383.0000        28.0000       376.0000              0              0              0              0              0            100              0           0.00         0.0000
          10555       340.6500     15179.0000      6402.0000      4180.0000       455.0000       636.0000              0              0              0              0              0            100              0           0.00         0.0000
          10556       168.5000      7965.0000      3831.0000      2409.0000       189.0000       391.0000              0              0              0              0              0            100              0           0.00         0.0000
          10557       188.0500      7965.0000      3831.0000      2409.0000       189.0000       525.0000              0              0              0              0              0            100              0           0.00         0.0000
          10558       188.0500      7409.0000      3203.0000      1922.0000       125.0000       525.0000              0              0              0              0              0            100              0           0.00         0.0000
          10559       185.6000      7409.0000      3203.0000      1922.0000       125.0000       525.0000              0              0              0              0              0            100              0           0.00         0.0000
          10560       175.2250      7409.0000      3203.0000      1922.0000       125.0000       525.0000              0              0              0              0              0            100              0           0.00         0.0000
          10561       175.2250      7409.0000      3203.0000      1922.0000       125.0000       525.0000              0              0              0              0              0            100              0           0.00         0.0000
          10562       174.0000      7409.0000      3203.0000      1922.0000       125.0000       525.0000              0              0              0              0              0            100              0           0.00         0.0000
          10563       170.9500      7409.0000      3203.0000      1922.0000       125.0000       525.0000              0              0              0              0              0            100              0           0.00         0.0000
          10564       173.4000      7409.0000      3203.0000      1922.0000       125.0000       547.0000              0              0              0              0              0            100              0           0.00         0.0000
          10565       174.6000      6467.0000      2903.0000      1822.0000        84.0000       547.0000              0              0              0              0              0            100              0           0.00         0.0000
          10566       181.9500      6467.0000      2903.0000      1822.0000        84.0000       547.0000              0              0              0              0              0            100              0           0.00         0.0000
          10567       183.1500      6467.0000      2903.0000      1822.0000        84.0000       547.0000              0              0              0              0              0            100              0           0.00         0.0000
          10568       181.9500      6467.0000      2903.0000      1822.0000        84.0000       547.0000              0              0              0              0              0            100              0           0.00         0.0000
          10569       190.5000      6467.0000      2903.0000      1822.0000        84.0000       547.0000              0              0              0              0              0            100              0           0.00         0.0000
          10570       203.9000      6467.0000      2903.0000      1822.0000        84.0000       547.0000              0              0              0              0              0            100              0           0.00         0.0000
          10571       206.7500      6467.0000      2903.0000      1822.0000        84.0000       547.0000              0              0              0              0              0            100              0           0.00         0.0000
          10572       200.8500      6467.0000      2903.0000      1822.0000        84.0000       547.0000              0              0              0              0              0            100              0           0.00         0.0000
          10573       186.0000      6467.0000      2903.0000      1822.0000        84.0000       547.0000              0              0              0              0              0            100              0           0.00         0.0000
