#___________________________________________________________________________
~VERSION INFORMATION
 VERS.                                 2.0 : CWLS LOG ASCII STANDARD - VERSION 2.0
 WRAP.                                  NO : ONE LINE PER DEPTH STEP
#___________________________________________________________________________
~WELL INFORMATION
 STRT.F                            9928.00 : START DEPTH
 STOP.F                           18929.00 : STOP DEPTH
 STEP.F                                  1 : STEP VALUE
 NULL.                             -999.25 : NULL VALUE
 COMP.      Magnolia Oil & Gas             : COMPANY
 WELL.      Bighorn Plains H02 BH          : WELL
  FLD.      Giddings (AC)                  : FIELD
  LOC.      Washington County              : LOCATION
 CNTY.      Washington County              : PARISH/COUNTY
 STAT.      Texas                          : STATE
 CTRY.      USA                            : COUNTRY
" SRVC.      PetroLog International, Inc.   : SERVICE COMPANY"
 DATE.      10/21/2021                     : LOG DATE
  API.      42-477-31179                   : API REFERENCE NUMBER
#___________________________________________________________________________
~CURVE INFORMATION
#MNEM.UNITS                                : DESCRIPTION
DEPTH.F                                    :  1 DEPTH
 TGAS.Units                                :  2 Chromatograph_TotalGas
 MTHX.PPM                                  :  3 Chromatograph_MethanePPMMax
 ETHX.PPM                                  :  4 Chromatograph_EthanePPMMax
 PRPX.PPM                                  :  5 Chromatograph_PropanePPMMax
 IBTX.PPM                                  :  6 Chromatograph_IButanePPMMax
 NBTX.PPM                                  :  7 Chromatograph_NButanePPMMax
CEMNT.%                                    :  8 Lithology_Cement
SHALE.%                                    :  9 Lithology_Shale
SILTST.%                                   : 10 Lithology_Siltstone
 SAND.%                                    : 11 Lithology_Sand
 LIME.%                                    : 12 Lithology_Lime
 CHLK.%                                    : 13 Lithology_Chalk
  ASH.%                                    : 14 Lithology_Ash
 FRAC.%                                    : 15 Fracture
Kick/Loss.----                             : 16 Kick/Loss
#___________________________________________________________________________
~A        DEPTH           TGAS           MTHX           ETHX           PRPX           IBTX           NBTX          CEMNT          SHALE         SILTST           SAND           LIME           CHLK            ASH           FRAC      Kick/Loss
# ...
          12308      1250.3000     89791.0000     25137.0000     11032.0000      1455.0000      3039.0000              0              0              0              0              0            100              0           4.00         0.0000
          12309      1092.8000     89791.0000     25137.0000     11032.0000      1455.0000      3039.0000              0              0              0              0              0            100              0           4.00         0.0000
          12310       859.5850     89791.0000     25137.0000     11032.0000      1455.0000      3039.0000              0              0              0              0              0            100              0           4.00         0.0000
          12311       670.3500     89791.0000     25137.0000     11032.0000      1455.0000      3039.0000              0              0              0              0              0            100              0           4.00         0.0000
          12312       540.9000     89791.0000     25137.0000     11032.0000      1455.0000      3039.0000              0              0              0              0              0            100              0           4.00         0.0000
          12313       454.2000     89791.0000     25137.0000     11032.0000      1455.0000      3039.0000              0              0              0              0              0            100              0           4.00         0.0000
          12314       396.8500     89791.0000     25137.0000     11032.0000      1455.0000      3039.0000              0              0              0              0              0            100              0           4.00         0.0000
          12315       358.9750     89791.0000     25137.0000     11032.0000      1455.0000      3039.0000              0              0              0              0              0            100              0           4.00         0.0000
          12316       543.3500     89791.0000     25137.0000     11032.0000      1455.0000      3039.0000              0              0              0              0              0            100              0           4.00         0.0000
          12317       799.1250     89791.0000     25137.0000     11032.0000      1455.0000      3039.0000              0              0              0              0              0            100              0           4.00         0.0000
          12318       982.3000     89791.0000     25137.0000     11032.0000      1455.0000      3039.0000              0              0              0              0              0            100              0           4.00         0.0000
          12319      1095.2500     89791.0000     25137.0000     11032.0000      1455.0000      3039.0000              0              0              0              0              0            100              0           4.00         0.0000
          12320      1173.4000     89791.0000     25137.0000     11032.0000      1455.0000      3039.0000              0              0              0              0              0            100              0           4.00         0.0000
          12321      1220.4000     89791.0000     25137.0000     11032.0000      1455.0000      3039.0000              0              0              0              0              0            100              0           4.00         0.0000
          12322      1238.7000     89791.0000     25137.0000     11032.0000      1455.0000      3039.0000              0              0              0              0              0            100              0           4.00         0.0000
          12323      1246.6500     89791.0000     25137.0000     11032.0000      1455.0000      3039.0000              0              0              0              0              0            100              0           4.00         0.0000
          12324      1260.5000     89791.0000     25137.0000     11032.0000      1455.0000      3039.0000              0              0              0              0              0            100              0           4.00         0.0000
          12325      1276.5500     89791.0000     25137.0000     11032.0000      1455.0000      3039.0000              0              0              0              0              0            100              0           4.00         0.0000
          12326      1280.2250     89791.0000     25137.0000     11032.0000      1455.0000      3039.0000              0              0              0              0              0            100              0           4.00         0.0000
          12327      1280.8500     88579.0000     24776.0000     10896.0000      1298.0000      2897.0000              0              0              0              0              0            100              0           4.00         0.0000
          12328      1291.8000     88579.0000     24776.0000     10896.0000      1298.0000      2897.0000              0              0              0              0              0            100              0           4.00         0.0000
          12329      1291.8000     88579.0000     24776.0000     10896.0000      1298.0000      2897.0000              0              0              0              0              0            100              0           4.00         0.0000
          12330      1290.0000     88579.0000     24776.0000     10896.0000      1298.0000      2897.0000              0              0              0              0              0            100              0           4.00         0.0000
          12331      1299.1500     88579.0000     24776.0000     10896.0000      1298.0000      2897.0000              0              0              0              0              0            100              0           4.00         0.0000
          12332      1310.1500     88579.0000     24776.0000     10896.0000      1298.0000      2897.0000              0              0              0              0              0            100              0           4.00         0.0000
          12333      1311.7650     88579.0000     24776.0000     10896.0000      1298.0000      2897.0000              0              0              0              0              0            100              0           4.00         0.0000
          12334      1324.8000     88579.0000     24776.0000     10896.0000      1298.0000      2897.0000              0              0              0              0              0            100              0           4.00         0.0000
          12335      1335.8000     88579.0000     24776.0000     10896.0000      1298.0000      2897.0000              0              0              0              0              0            100              0           4.00         0.0000
          12336      1333.3500     88579.0000     24776.0000     10896.0000      1298.0000      2897.0000              0              0              0              0              0            100              0           4.00         0.0000
          12337      1319.9000     88579.0000     24776.0000     10896.0000      1298.0000      2897.0000              0              0              0              0              0            100              0           4.00         0.0000
          12338      1313.8000     88579.0000     24776.0000     10896.0000      1298.0000      2897.0000              0              0              0              0              0            100              0           4.00         0.0000
          12339      1360.2000     88579.0000     24776.0000     10896.0000      1298.0000      2897.0000              0              0              0              0              0            100              0           4.00         0.0000
          12340      1366.3000     88579.0000     24776.0000     10896.0000      1298.0000      2897.0000              0              0              0              0              0            100              0           4.00         0.0000
          12341      1341.9000     88579.0000     24776.0000     10896.0000      1298.0000      2897.0000              0              0              0              0              0            100              0           4.00         0.0000
