#___________________________________________________________________________
~VERSION INFORMATION
 VERS.                                 2.0 : CWLS LOG ASCII STANDARD - VERSION 2.0
 WRAP.                                  NO : ONE LINE PER DEPTH STEP
#___________________________________________________________________________
~WELL INFORMATION
 STRT.F                           10029.00 : START DEPTH
 STOP.F                           19102.00 : STOP DEPTH
 STEP.F                                  1 : STEP VALUE
 NULL.                             -999.25 : NULL VALUE
 COMP.      Magnolia Oil & Gas             : COMPANY
 WELL.      Boone C 1H                     : WELL
  FLD.      Giddings (AC)                  : FIELD
  LOC.      Texas                          : LOCATION
 CNTY.      Washington                     : PARISH/COUNTY
 STAT.      Texas                          : STATE
 CTRY.      USA                            : COUNTRY
" SRVC.      PetroLog International, Inc.   : SERVICE COMPANY"
 DATE.      07/26/2021                     : LOG DATE
  API.      42-477-31153                   : API REFERENCE NUMBER
#___________________________________________________________________________
~CURVE INFORMATION
#MNEM.UNITS                                : DESCRIPTION
DEPTH.F                                    :  1 DEPTH
 TGAS.Units                                :  2 Chromatograph_TotalGas
 MTHX.PPM                                  :  3 Chromatograph_MethanePPMMax
 ETHX.PPM                                  :  4 Chromatograph_EthanePPMMax
 PRPX.PPM                                  :  5 Chromatograph_PropanePPMMax
 IBTX.PPM                                  :  6 Chromatograph_IButanePPMMax
 NBTX.PPM                                  :  7 Chromatograph_NButanePPMMax
CEMNT.%                                    :  8 Lithology_Cement
SHALE.%                                    :  9 Lithology_Shale
SILTST.%                                   : 10 Lithology_Siltstone
 SAND.%                                    : 11 Lithology_Sand
 LIME.%                                    : 12 Lithology_Lime
 CHLK.%                                    : 13 Lithology_Chalk
  ASH.%                                    : 14 Lithology_Tuff
 FRAC.%                                    : 15 Fracture
Kick/Loss.                                 : 16 Kick/Loss
#___________________________________________________________________________
~A        DEPTH           TGAS           MTHX           ETHX           PRPX           IBTX           NBTX          CEMNT          SHALE         SILTST           SAND           LIME           CHLK            ASH           FRAC      Kick/Loss
# ...
          17883       774.1000    101000.0000     44073.0000     30840.0000      4992.0000     14325.0000              0              0              0              0              0            100              0           7.00        -1.0000
          17884       710.6500    101000.0000     44073.0000     30840.0000      4992.0000     14325.0000              0              0              0              0              0            100              0           7.00        -1.0000
          17885       774.1250    101000.0000     44073.0000     30840.0000      4992.0000     14325.0000              0              0              0              0              0            100              0           7.00        -1.0000
          17886       890.7250    101000.0000     44073.0000     30840.0000      4992.0000     14325.0000              0              0              0              0              0            100              0           7.00        -1.0000
          17887      1003.6500    101000.0000     44073.0000     30840.0000      4992.0000     14325.0000              0              0              0              0              0            100              0           7.00        -1.0000
          17888      1120.9000    101000.0000     44073.0000     30840.0000      4992.0000     14325.0000              0              0              0              0              0            100              0           7.00        -1.0000
          17889      1195.7650    101000.0000     44073.0000     30840.0000      4992.0000     14325.0000              0              0              0              0              0            100              0           7.00        -1.0000
          17890      1248.4750    101000.0000     44073.0000     30840.0000      4992.0000     14325.0000              0              0              0              0              0            100              0           7.00        -1.0000
          17891      1273.5000    101000.0000     44073.0000     30840.0000      4992.0000     14325.0000              0              0              0              0              0            100              0           7.00        -1.0000
          17892      1280.8500    101000.0000     44073.0000     30840.0000      4992.0000     14325.0000              0              0              0              0              0            100              0           7.00        -1.0000
          17893      1280.8500    101000.0000     44073.0000     30840.0000      4992.0000     14325.0000              0              0              0              0              0            100              0           7.00        -1.0000
          17894      1278.4000    101000.0000     44073.0000     30840.0000      4992.0000     14325.0000              0              0              0              0              0            100              0           7.00        -1.0000
          17895      1258.8500    101000.0000     44073.0000     30840.0000      4992.0000     14325.0000              0              0              0              0              0            100              0           7.00        -1.0000
          17896      1260.1000    101000.0000     44073.0000     30840.0000      4992.0000     14325.0000              0              0              0              0              0            100              0           7.00        -1.0000
          17897      1272.3000    101000.0000     44073.0000     30840.0000      4992.0000     14325.0000              0              0              0              0              0            100              0           7.00        -1.0000
          17898      1287.5500    101000.0000     44073.0000     30840.0000      4992.0000     14325.0000              0              0              0              0              0            100              0           7.00        -1.0000
          17899      1311.3500    101000.0000     44073.0000     30840.0000      4992.0000     14325.0000              0              0              0              0              0            100              0           7.00        -1.0000
          17900      1321.1250    101000.0000     44073.0000     30840.0000      4992.0000     14325.0000              0              0              0              0              0            100              0           7.00        -1.0000
          17901      1335.8000    101000.0000     44073.0000     30840.0000      4992.0000     14325.0000              0              0              0              0              0            100              0           3.00        -1.0000
          17902      1356.5500    101000.0000     44073.0000     30840.0000      4992.0000     14325.0000              0              0              0              0              0            100              0           3.00        -1.0000
          17903      1377.3000    101000.0000     44073.0000     30840.0000      4992.0000     14325.0000              0              0              0              0              0            100              0           3.00        -1.0000
          17904      1393.1500    101000.0000     44073.0000     30840.0000      4992.0000     14325.0000              0              0              0              0              0            100              0           3.00        -1.0000
          17905      1400.5000    101000.0000     44073.0000     30840.0000      4992.0000     14325.0000              0              0              0              0              0            100              0           3.00        -1.0000
          17906      1438.3500    120234.0000     73663.0000     49240.0000      7381.0000     18022.0000              0              0              0              0              0            100              0           3.00        -1.0000
          17907      1413.9000    120234.0000     73663.0000     49240.0000      7381.0000     18022.0000              0              0              0              0              0            100              0           3.00        -1.0000
          17908      1434.6750    120234.0000     73663.0000     49240.0000      7381.0000     18022.0000              0              0              0              0              0            100              0           3.00        -1.0000
          17909      1460.3250    120234.0000     73663.0000     49240.0000      7381.0000     18022.0000              0              0              0              0              0            100              0           3.00        -1.0000
          17910      1472.5500    120234.0000     73663.0000     49240.0000      7381.0000     18022.0000              0              0              0              0              0            100              0           3.00        -1.0000
          17911      1477.4000    120234.0000     73663.0000     49240.0000      7381.0000     18022.0000              0              0              0              0              0            100              0           3.00        -1.0000
          17912      1481.1000    120234.0000     73663.0000     49240.0000      7381.0000     18022.0000              0              0              0              0              0            100              0           3.00        -1.0000
          17913      1476.2000    120234.0000     73663.0000     49240.0000      7381.0000     18022.0000              0              0              0              0              0            100              0           3.00        -1.0000
          17914      1470.1000    120234.0000     73663.0000     49240.0000      7381.0000     18022.0000              0              0              0              0              0            100              0           3.00        -1.0000
          17915      1456.6500    120234.0000     73663.0000     49240.0000      7381.0000     18022.0000              0              0              0              0              0            100              0           3.00        -1.0000
          17916      1437.1000    120234.0000     73663.0000     49240.0000      7381.0000     18022.0000              0              0              0              0              0            100              0           3.00        -1.0000
