#___________________________________________________________________________
~VERSION INFORMATION
 VERS.                                 2.0 : CWLS LOG ASCII STANDARD - VERSION 2.0
 WRAP.                                  NO : ONE LINE PER DEPTH STEP
#___________________________________________________________________________
~WELL INFORMATION
 STRT.F                           10029.00 : START DEPTH
 STOP.F                           19102.00 : STOP DEPTH
 STEP.F                                  1 : STEP VALUE
 NULL.                             -999.25 : NULL VALUE
 COMP.      Magnolia Oil & Gas             : COMPANY
 WELL.      Boone C 1H                     : WELL
  FLD.      Giddings (AC)                  : FIELD
  LOC.      Texas                          : LOCATION
 CNTY.      Washington                     : PARISH/COUNTY
 STAT.      Texas                          : STATE
 CTRY.      USA                            : COUNTRY
" SRVC.      PetroLog International, Inc.   : SERVICE COMPANY"
 DATE.      07/26/2021                     : LOG DATE
  API.      42-477-31153                   : API REFERENCE NUMBER
#___________________________________________________________________________
~CURVE INFORMATION
#MNEM.UNITS                                : DESCRIPTION
DEPTH.F                                    :  1 DEPTH
 TGAS.Units                                :  2 Chromatograph_TotalGas
 MTHX.PPM                                  :  3 Chromatograph_MethanePPMMax
 ETHX.PPM                                  :  4 Chromatograph_EthanePPMMax
 PRPX.PPM                                  :  5 Chromatograph_PropanePPMMax
 IBTX.PPM                                  :  6 Chromatograph_IButanePPMMax
 NBTX.PPM                                  :  7 Chromatograph_NButanePPMMax
CEMNT.%                                    :  8 Lithology_Cement
SHALE.%                                    :  9 Lithology_Shale
SILTST.%                                   : 10 Lithology_Siltstone
 SAND.%                                    : 11 Lithology_Sand
 LIME.%                                    : 12 Lithology_Lime
 CHLK.%                                    : 13 Lithology_Chalk
  ASH.%                                    : 14 Lithology_Tuff
 FRAC.%                                    : 15 Fracture
Kick/Loss.                                 : 16 Kick/Loss
#___________________________________________________________________________
~A        DEPTH           TGAS           MTHX           ETHX           PRPX           IBTX           NBTX          CEMNT          SHALE         SILTST           SAND           LIME           CHLK            ASH           FRAC      Kick/Loss
# ...
          12443       663.0000     73927.0000     14447.0000      4184.0000       547.0000      1463.0000              0              0              0              0              0            100              0           0.00         0.0000
          12444       644.7000     73927.0000     14447.0000      4184.0000       547.0000      1463.0000              0              0              0              0              0            100              0           0.00         0.0000
          12445       632.5000     73927.0000     14447.0000      4184.0000       547.0000      1463.0000              0              0              0              0              0            100              0           0.00         0.0000
          12446       633.7000     73927.0000     14447.0000      4184.0000       547.0000      1463.0000              0              0              0              0              0            100              0           0.00         0.0000
          12447       638.6000     73927.0000     14447.0000      4184.0000       547.0000      1463.0000              0              0              0              0              0            100              0           0.00         0.0000
          12448       655.7000     73927.0000     14447.0000      4184.0000       547.0000      1463.0000              0              0              0              0              0            100              0           0.00         0.0000
          12449       677.0500     73927.0000     14447.0000      4184.0000       547.0000      1463.0000              0              0              0              0              0            100              0           0.00         0.0000
          12450       689.8750     73927.0000     14447.0000      4184.0000       547.0000      1463.0000              0              0              0              0              0            100              0           0.00         0.0000
          12451       702.7000     73927.0000     14447.0000      4184.0000       547.0000      1463.0000              0              0              0              0              0            100              0           0.00         0.0000
          12452       726.5000     73927.0000     14447.0000      4184.0000       547.0000      1463.0000              0              0              0              0              0            100              0           0.00         0.0000
          12453       736.8750     73927.0000     14447.0000      4184.0000       547.0000      1463.0000              0              0              0              0              0            100              0           0.00         0.0000
          12454       738.7000     73927.0000     14447.0000      4184.0000       547.0000      1463.0000              0              0              0              0              0            100              0           0.00         0.0000
          12455      1150.2000     90320.0000     18951.0000      6003.0000       764.0000      1943.0000              0              0              0              0              0            100              0           0.00         0.0000
          12456      1063.4750     90320.0000     18951.0000      6003.0000       764.0000      1943.0000              0              0              0              0              0            100              0           0.00         0.0000
          12457      1191.7000     90320.0000     18951.0000      6003.0000       764.0000      1943.0000              0              0              0              0              0            100              0           0.00         0.0000
          12458      1223.4500     90320.0000     18951.0000      6003.0000       764.0000      1943.0000              0              0              0              0              0            100              0           0.00         0.0000
          12459      1227.1000     90320.0000     18951.0000      6003.0000       764.0000      1943.0000              0              0              0              0              0            100              0           0.00         0.0000
          12460      1249.1000     90320.0000     18951.0000      6003.0000       764.0000      1943.0000              0              0              0              0              0            100              0           0.00         0.0000
          12461      1212.4500     90320.0000     18951.0000      6003.0000       764.0000      1943.0000              0              0              0              0              0            100              0           0.00         0.0000
          12462      1130.0500     90320.0000     18951.0000      6003.0000       764.0000      1943.0000              0              0              0              0              0            100              0           0.00         0.0000
          12463      1141.6500     90320.0000     18951.0000      6003.0000       764.0000      1943.0000              0              0              0              0              0            100              0           0.00         0.0000
          12464      1190.5000     90320.0000     18951.0000      6003.0000       764.0000      1943.0000              0              0              0              0              0            100              0           0.00         0.0000
          12465      1205.1500    106705.0000     34610.0000     15195.0000      2398.0000      5032.0000              0              0              0              0              0            100              0           0.00         0.0000
          12466      1216.1250    106705.0000     34610.0000     15195.0000      2398.0000      5032.0000              0              0              0              0              0            100              0           0.00         0.0000
          12467      1167.2750    106705.0000     34610.0000     15195.0000      2398.0000      5032.0000              0              0              0              0              0            100              0           0.00         0.0000
          12468      1178.2750    106705.0000     34610.0000     15195.0000      2398.0000      5032.0000              0              0              0              0              0            100              0           0.00         0.0000
          12469      1177.0500    106705.0000     34610.0000     15195.0000      2398.0000      5032.0000              0              0              0              0              0            100              0           0.00         0.0000
          12470      1164.8500    106705.0000     34610.0000     15195.0000      2398.0000      5032.0000              0              0              0              0              0            100              0           0.00         0.0000
          12471      1158.7500    106705.0000     34610.0000     15195.0000      2398.0000      5032.0000              0              0              0              0              0            100              0           0.00         0.0000
          12472      1125.1500    106705.0000     34610.0000     15195.0000      2398.0000      5032.0000              0              0              0              0              0            100              0           0.00         0.0000
          12473      1047.6000    106705.0000     34610.0000     15195.0000      2398.0000      5032.0000              0              0              0              0              0            100              0           0.00         0.0000
          12474      1024.4250    106705.0000     34610.0000     15195.0000      2398.0000      5032.0000              0              0              0              0              0            100              0           0.00         0.0000
          12475      1031.7500    106705.0000     34610.0000     15195.0000      2398.0000      5032.0000              0              0              0              0              0            100              0           0.00         0.0000
          12476      1039.0500    106705.0000     34610.0000     15195.0000      2398.0000      5032.0000              0              0              0              0              0            100              0           0.00         0.0000
