#___________________________________________________________________________
~VERSION INFORMATION
 VERS.                                 2.0 : CWLS LOG ASCII STANDARD - VERSION 2.0
 WRAP.                                  NO : ONE LINE PER DEPTH STEP
#___________________________________________________________________________
~WELL INFORMATION
 STRT.F                           10029.00 : START DEPTH
 STOP.F                           19102.00 : STOP DEPTH
 STEP.F                                  1 : STEP VALUE
 NULL.                             -999.25 : NULL VALUE
 COMP.      Magnolia Oil & Gas             : COMPANY
 WELL.      Boone C 1H                     : WELL
  FLD.      Giddings (AC)                  : FIELD
  LOC.      Texas                          : LOCATION
 CNTY.      Washington                     : PARISH/COUNTY
 STAT.      Texas                          : STATE
 CTRY.      USA                            : COUNTRY
" SRVC.      PetroLog International, Inc.   : SERVICE COMPANY"
 DATE.      07/26/2021                     : LOG DATE
  API.      42-477-31153                   : API REFERENCE NUMBER
#___________________________________________________________________________
~CURVE INFORMATION
#MNEM.UNITS                                : DESCRIPTION
DEPTH.F                                    :  1 DEPTH
 TGAS.Units                                :  2 Chromatograph_TotalGas
 MTHX.PPM                                  :  3 Chromatograph_MethanePPMMax
 ETHX.PPM                                  :  4 Chromatograph_EthanePPMMax
 PRPX.PPM                                  :  5 Chromatograph_PropanePPMMax
 IBTX.PPM                                  :  6 Chromatograph_IButanePPMMax
 NBTX.PPM                                  :  7 Chromatograph_NButanePPMMax
CEMNT.%                                    :  8 Lithology_Cement
SHALE.%                                    :  9 Lithology_Shale
SILTST.%                                   : 10 Lithology_Siltstone
 SAND.%                                    : 11 Lithology_Sand
 LIME.%                                    : 12 Lithology_Lime
 CHLK.%                                    : 13 Lithology_Chalk
  ASH.%                                    : 14 Lithology_Tuff
 FRAC.%                                    : 15 Fracture
Kick/Loss.                                 : 16 Kick/Loss
#___________________________________________________________________________
~A        DEPTH           TGAS           MTHX           ETHX           PRPX           IBTX           NBTX          CEMNT          SHALE         SILTST           SAND           LIME           CHLK            ASH           FRAC      Kick/Loss
# ...
          17271       984.7500    114993.0000     50793.0000     23626.0000      3766.0000      7652.0000              0              0              0              0              0            100              0           0.00        -1.0000
          17272       984.1500    114993.0000     50793.0000     23626.0000      3766.0000      7652.0000              0              0              0              0              0            100              0           0.00        -1.0000
          17273       994.5250    114993.0000     50793.0000     23626.0000      3766.0000      7652.0000              0              0              0              0              0            100              0           0.00        -1.0000
          17274      1023.2000    119779.0000     50793.0000     23626.0000      3766.0000      7652.0000              0              0              0              0              0            100              0           0.00        -1.0000
          17275      1029.9000    119779.0000     49535.0000     22093.0000      3468.0000      7148.0000              0              0              0              0              0            100              0           0.00        -1.0000
          17276      1015.8750    119779.0000     49535.0000     22093.0000      3468.0000      7148.0000              0              0              0              0              0            100              0           0.00        -1.0000
          17277      1013.4500    119779.0000     49535.0000     22093.0000      3468.0000      7148.0000              0              0              0              0              0            100              0           0.00        -1.0000
          17278      1006.7250    119779.0000     49535.0000     22093.0000      3468.0000      7148.0000              0              0              0              0              0            100              0           0.00        -1.0000
          17279      1332.1250    119779.0000     54814.0000     30362.0000      4737.0000      9731.0000              0              0              0              0              0            100              0           0.00        -1.0000
          17280      1052.5000    118724.0000     53144.0000     25373.0000      3829.0000      8075.0000              0              0              0              0              0            100              0           0.00        -1.0000
          17281       998.8000    118724.0000     53144.0000     25373.0000      3829.0000      8075.0000              0              0              0              0              0            100              0           0.00        -1.0000
          17282       978.0000    115649.0000     46278.0000     20147.0000      3248.0000      6737.0000              0              0              0              0              0            100              0           0.00        -1.0000
          17283      1009.1750    119400.0000     46278.0000     20147.0000      3248.0000      6737.0000              0              0              0              0              0            100              0           0.00        -1.0000
          17284       968.2500    119400.0000     45988.0000     19735.0000      3170.0000      6590.0000              0              0              0              0              0            100              0           0.00        -1.0000
          17285       969.5000    119400.0000     45988.0000     19735.0000      3170.0000      6590.0000              0              0              0              0              0            100              0           0.00        -1.0000
          17286       934.0500    118216.0000     45183.0000     19462.0000      3125.0000      6497.0000              0              0              0              0              0            100              0           0.00        -1.0000
          17287       998.7750    118216.0000     45183.0000     19462.0000      3125.0000      6497.0000              0              0              0              0              0            100              0           0.00        -1.0000
          17288       937.7250    113870.0000     43770.0000     18976.0000      3039.0000      6390.0000              0              0              0              0              0            100              0           0.00        -1.0000
          17289       943.8500    117652.0000     45435.0000     19492.0000      3078.0000      6460.0000              0              0              0              0              0            100              0           0.00        -1.0000
          17290       855.9000    117652.0000     45435.0000     19492.0000      3078.0000      6460.0000              0              0              0              0              0            100              0           0.00        -1.0000
          17291       885.2500     70683.0000     28851.0000     13268.0000      2187.0000      4594.0000              0              0              0              0              0            100              0           0.00        -1.0000
          17292       938.9500    110162.0000     43108.0000     18824.0000      2932.0000      6283.0000              0              0              0              0              0            100              0           0.00        -1.0000
          17293       924.9250    110162.0000     43108.0000     19035.0000      2956.0000      6383.0000              0              0              0              0              0            100              0           0.00        -1.0000
          17294       968.2500    106933.0000     42895.0000     19035.0000      2956.0000      6383.0000              0              0              0              0              0            100              0           0.00        -1.0000
          17295       910.2500    105813.0000     41766.0000     18472.0000      2945.0000      6242.0000              0              0              0              0              0            100              0           0.00        -1.0000
          17296       908.4500    105813.0000     41766.0000     18472.0000      2945.0000      6242.0000              0              0              0              0              0            100              0           0.00        -1.0000
          17297       867.5250    105813.0000     41766.0000     18472.0000      2945.0000      6242.0000              0              0              0              0              0            100              0           0.00        -1.0000
          17298       926.7500    109931.0000     43336.0000     19060.0000      2971.0000      6345.0000              0              0              0              0              0            100              0           0.00        -1.0000
          17299       919.4000    109931.0000     43336.0000     19060.0000      2971.0000      6345.0000              0              0              0              0              0            100              0           0.00        -1.0000
          17300       921.8500    109931.0000     43336.0000     19060.0000      2971.0000      6345.0000              0              0              0              0              0            100              0           0.00        -1.0000
          17301       873.0250    109931.0000     43336.0000     19060.0000      2971.0000      6345.0000              0              0              0              0              0            100              0           0.00        -1.0000
          17302       895.0000    109931.0000     43336.0000     19060.0000      2971.0000      6345.0000              0              0              0              0              0            100              0           0.00        -1.0000
          17303       907.2000    109931.0000     43336.0000     19060.0000      2971.0000      6345.0000              0              0              0              0              0            100              0           0.00        -1.0000
          17304       913.3250    109931.0000     43336.0000     19060.0000      2971.0000      6345.0000              0              0              0              0              0            100              0           0.00        -1.0000
