#___________________________________________________________________________
~VERSION INFORMATION
 VERS.                                 2.0 : CWLS LOG ASCII STANDARD - VERSION 2.0
 WRAP.                                  NO : ONE LINE PER DEPTH STEP
#___________________________________________________________________________
~WELL INFORMATION
 STRT.F                           10029.00 : START DEPTH
 STOP.F                           19102.00 : STOP DEPTH
 STEP.F                                  1 : STEP VALUE
 NULL.                             -999.25 : NULL VALUE
 COMP.      Magnolia Oil & Gas             : COMPANY
 WELL.      Boone C 1H                     : WELL
  FLD.      Giddings (AC)                  : FIELD
  LOC.      Texas                          : LOCATION
 CNTY.      Washington                     : PARISH/COUNTY
 STAT.      Texas                          : STATE
 CTRY.      USA                            : COUNTRY
" SRVC.      PetroLog International, Inc.   : SERVICE COMPANY"
 DATE.      07/26/2021                     : LOG DATE
  API.      42-477-31153                   : API REFERENCE NUMBER
#___________________________________________________________________________
~CURVE INFORMATION
#MNEM.UNITS                                : DESCRIPTION
DEPTH.F                                    :  1 DEPTH
 TGAS.Units                                :  2 Chromatograph_TotalGas
 MTHX.PPM                                  :  3 Chromatograph_MethanePPMMax
 ETHX.PPM                                  :  4 Chromatograph_EthanePPMMax
 PRPX.PPM                                  :  5 Chromatograph_PropanePPMMax
 IBTX.PPM                                  :  6 Chromatograph_IButanePPMMax
 NBTX.PPM                                  :  7 Chromatograph_NButanePPMMax
CEMNT.%                                    :  8 Lithology_Cement
SHALE.%                                    :  9 Lithology_Shale
SILTST.%                                   : 10 Lithology_Siltstone
 SAND.%                                    : 11 Lithology_Sand
 LIME.%                                    : 12 Lithology_Lime
 CHLK.%                                    : 13 Lithology_Chalk
  ASH.%                                    : 14 Lithology_Tuff
 FRAC.%                                    : 15 Fracture
Kick/Loss.                                 : 16 Kick/Loss
#___________________________________________________________________________
~A        DEPTH           TGAS           MTHX           ETHX           PRPX           IBTX           NBTX          CEMNT          SHALE         SILTST           SAND           LIME           CHLK            ASH           FRAC      Kick/Loss
# ...
          14245      1494.5000     98131.0000     26270.0000      7119.0000      1067.0000      1735.0000              0             20              0              0              0             80              0           4.00         0.0000
          14246      1733.8250    118257.0000     40476.0000     15001.0000      2286.0000      3946.0000              0             20              0              0              0             80              0           4.00         0.0000
          14247      1090.3500    106719.0000     28744.0000      8110.0000      1124.0000      1929.0000              0             20              0              0              0             80              0           4.00         0.0000
          14248      1119.6500     96698.0000     22165.0000      5435.0000       815.0000      1407.0000              0             20              0              0              0             80              0           4.00         0.0000
          14249      1107.4500     96698.0000     22165.0000      5435.0000       815.0000      1407.0000              0             20              0              0              0             80              0           4.00         0.0000
          14250      1222.2000    114184.0000     30785.0000      9346.0000      1428.0000      2238.0000              0             20              0              0              0             80              0           4.00         0.0000
          14251      1241.7500    114184.0000     30785.0000      9346.0000      1428.0000      2238.0000              0             20              0              0              0             80              0           4.00         0.0000
          14252      1288.7500    114184.0000     30785.0000      9346.0000      1428.0000      2238.0000              0             20              0              0              0             80              0           4.00         0.0000
          14253      1224.6500    114184.0000     30785.0000      9346.0000      1428.0000      2238.0000              0             20              0              0              0             80              0           4.00         0.0000
          14254      1236.2750    115945.0000     30785.0000      9346.0000      1428.0000      2293.0000              0             20              0              0              0             80              0           4.00         0.0000
          14255      1163.0000    115945.0000     29849.0000      9154.0000      1343.0000      2293.0000              0             20              0              0              0             80              0           4.00         0.0000
          14256      1086.7000    115945.0000     29849.0000      9154.0000      1343.0000      2293.0000              0             20              0              0              0             80              0           4.00         0.0000
          14257       987.8000    115945.0000     29849.0000      9154.0000      1343.0000      2293.0000              0             20              0              0              0             80              0           4.00         0.0000
          14258       946.3000    115945.0000     29849.0000      9154.0000      1343.0000      2293.0000              0             20              0              0              0             80              0           4.00         0.0000
          14259      1069.6000    115945.0000     29849.0000      9154.0000      1343.0000      2293.0000              0             20              0              0              0             80              0           4.00         0.0000
          14260      1155.6750    102254.0000     22041.0000      5996.0000       921.0000      1559.0000              0             20              0              0              0             80              0           4.00         0.0000
          14261      1174.6000    102254.0000     22041.0000      5996.0000       921.0000      1559.0000              0             20              0              0              0             80              0           4.00         0.0000
          14262      1151.4000    102254.0000     22041.0000      5996.0000       921.0000      1559.0000              0             20              0              0              0             80              0           4.00         0.0000
          14263      1278.4000    102254.0000     22041.0000      5996.0000       921.0000      1559.0000              0             20              0              0              0             80              0           4.00         0.0000
          14264      1376.0750    111491.0000     32267.0000     10951.0000      1686.0000      2769.0000              0             20              0              0              0             80              0           4.00         0.0000
          14265      1295.5000    111491.0000     32267.0000     10951.0000      1686.0000      2769.0000              0             20              0              0              0             80              0           4.00         0.0000
          14266      1295.5000    111491.0000     32267.0000     10951.0000      1686.0000      2769.0000              0             20              0              0              0             80              0           4.00         0.0000
          14267      1261.9000    111491.0000     32267.0000     10951.0000      1686.0000      2769.0000              0             20              0              0              0             80              0           4.00         0.0000
          14268      1155.0500    111491.0000     32267.0000     10951.0000      1686.0000      2769.0000              0             20              0              0              0             80              0           4.00         0.0000
          14269      1109.9000    111491.0000     32267.0000     10951.0000      1686.0000      2769.0000              0             20              0              0              0             80              0           4.00         0.0000
          14270      1232.6000    111491.0000     32267.0000     10951.0000      1686.0000      2769.0000              0             20              0              0              0             80              0           4.00         0.0000
          14271      1343.1000    105630.0000     25603.0000      7970.0000      1198.0000      2097.0000              0             20              0              0              0             80              0           4.00         0.0000
          14272      1464.0000    105630.0000     25603.0000      7970.0000      1198.0000      2097.0000              0             20              0              0              0             80              0           4.00         0.0000
          14273      1566.5500    105630.0000     25603.0000      7970.0000      1198.0000      2097.0000              0             20              0              0              0             80              0           4.00         0.0000
          14274      1637.3500    110318.0000     42308.0000     16861.0000      2644.0000      4398.0000              0             20              0              0              0             80              0           4.00         0.0000
          14275      1586.7000    110318.0000     42308.0000     16861.0000      2644.0000      4398.0000              0             20              0              0              0             80              0           4.00         0.0000
          14276      1677.6750    110318.0000     42308.0000     16861.0000      2644.0000      4398.0000              0             20              0              0              0             80              0           4.00         0.0000
          14277      1744.8000    110318.0000     42308.0000     16861.0000      2644.0000      4398.0000              0             20              0              0              0             80              0           4.00         0.0000
          14278      1789.3750    110318.0000     42308.0000     16861.0000      2644.0000      4398.0000              0             20              0              0              0             80              0           4.00         0.0000
