#___________________________________________________________________________
~VERSION INFORMATION
 VERS.                                 2.0 : CWLS LOG ASCII STANDARD - VERSION 2.0
 WRAP.                                  NO : ONE LINE PER DEPTH STEP
#___________________________________________________________________________
~WELL INFORMATION
 STRT.F                           10029.00 : START DEPTH
 STOP.F                           19102.00 : STOP DEPTH
 STEP.F                                  1 : STEP VALUE
 NULL.                             -999.25 : NULL VALUE
 COMP.      Magnolia Oil & Gas             : COMPANY
 WELL.      Boone C 1H                     : WELL
  FLD.      Giddings (AC)                  : FIELD
  LOC.      Texas                          : LOCATION
 CNTY.      Washington                     : PARISH/COUNTY
 STAT.      Texas                          : STATE
 CTRY.      USA                            : COUNTRY
" SRVC.      PetroLog International, Inc.   : SERVICE COMPANY"
 DATE.      07/26/2021                     : LOG DATE
  API.      42-477-31153                   : API REFERENCE NUMBER
#___________________________________________________________________________
~CURVE INFORMATION
#MNEM.UNITS                                : DESCRIPTION
DEPTH.F                                    :  1 DEPTH
 TGAS.Units                                :  2 Chromatograph_TotalGas
 MTHX.PPM                                  :  3 Chromatograph_MethanePPMMax
 ETHX.PPM                                  :  4 Chromatograph_EthanePPMMax
 PRPX.PPM                                  :  5 Chromatograph_PropanePPMMax
 IBTX.PPM                                  :  6 Chromatograph_IButanePPMMax
 NBTX.PPM                                  :  7 Chromatograph_NButanePPMMax
CEMNT.%                                    :  8 Lithology_Cement
SHALE.%                                    :  9 Lithology_Shale
SILTST.%                                   : 10 Lithology_Siltstone
 SAND.%                                    : 11 Lithology_Sand
 LIME.%                                    : 12 Lithology_Lime
 CHLK.%                                    : 13 Lithology_Chalk
  ASH.%                                    : 14 Lithology_Tuff
 FRAC.%                                    : 15 Fracture
Kick/Loss.                                 : 16 Kick/Loss
#___________________________________________________________________________
~A        DEPTH           TGAS           MTHX           ETHX           PRPX           IBTX           NBTX          CEMNT          SHALE         SILTST           SAND           LIME           CHLK            ASH           FRAC      Kick/Loss
# ...
          16047       839.4500    110667.0000     36054.0000     11713.0000      1490.0000      2646.0000              0              0              0              0              0            100              0           0.00         0.0000
          16048       840.0500    110667.0000     36054.0000     11713.0000      1490.0000      2646.0000              0              0              0              0              0            100              0           0.00         0.0000
          16049       834.5500    110667.0000     36054.0000     11713.0000      1490.0000      2646.0000              0              0              0              0              0            100              0           0.00         0.0000
          16050       832.1250    110667.0000     36054.0000     11713.0000      1490.0000      2646.0000              0              0              0              0              0            100              0           0.00         0.0000
          16051       821.1250    110667.0000     36054.0000     11713.0000      1490.0000      2646.0000              0              0              0              0              0            100              0           0.00         0.0000
          16052       808.9250    110667.0000     36054.0000     11713.0000      1490.0000      2646.0000              0              0              0              0              0            100              0           0.00         0.0000
          16053       806.4750    110667.0000     36054.0000     11713.0000      1490.0000      2646.0000              0              0              0              0              0            100              0           0.00         0.0000
          16054       809.5500    110667.0000     36054.0000     11713.0000      1490.0000      2646.0000              0              0              0              0              0            100              0           0.00         0.0000
          16055       685.0000    110667.0000     36054.0000     11713.0000      1490.0000      2646.0000              0              0              0              0              0            100              0           0.00         0.0000
          16056       590.9500    110667.0000     36054.0000     11713.0000      1490.0000      2646.0000              0              0              0              0              0            100              0           0.00         0.0000
          16057       515.2750    110667.0000     36054.0000     11713.0000      1490.0000      2646.0000              0              0              0              0              0            100              0           0.00         0.0000
          16058       429.8000    110667.0000     36054.0000     11713.0000      1490.0000      2646.0000              0              0              0              0              0            100              0           0.00         0.0000
          16059       374.2500    110667.0000     36054.0000     11713.0000      1490.0000      2646.0000              0              0              0              0              0            100              0           0.00         0.0000
          16060       339.4500     27342.0000     12134.0000      5613.0000       819.0000      1768.0000              0              0              0              0              0            100              0           0.00         0.0000
          16061       292.4250     27342.0000     12134.0000      5613.0000       819.0000      1768.0000              0              0              0              0              0            100              0           0.00         0.0000
          16062       269.2250     27342.0000     12134.0000      5613.0000       819.0000      1768.0000              0              0              0              0              0            100              0           0.00         0.0000
          16063       240.5500     27342.0000     12134.0000      5613.0000       819.0000      1768.0000              0              0              0              0              0            100              0           0.00         0.0000
          16064       219.8000     27342.0000     12134.0000      5613.0000       819.0000      1768.0000              0              0              0              0              0            100              0           0.00         0.0000
          16065       210.0000     27342.0000     12134.0000      5613.0000       819.0000      1768.0000              0              0              0              0              0            100              0           0.00         0.0000
          16066       192.3000     27342.0000     12134.0000      5613.0000       819.0000      1768.0000              0              0              0              0              0            100              0           0.00         0.0000
          16067       181.9250     27342.0000     12134.0000      5613.0000       819.0000      1768.0000              0              0              0              0              0            100              0           0.00         0.0000
          16068       180.7000     27342.0000     12134.0000      5613.0000       819.0000      1768.0000              0              0              0              0              0            100              0           0.00         0.0000
          16069       242.3750     27342.0000     12134.0000      5613.0000       819.0000      1768.0000              0              0              0              0              0            100              0           0.00         0.0000
          16070       383.4000     27342.0000     12134.0000      5613.0000       819.0000      1768.0000              0              0              0              0              0            100              0           0.00         0.0000
          16071       512.8000     27342.0000     12134.0000      5613.0000       819.0000      1768.0000              0              0              0              0              0            100              0           0.00         0.0000
          16072       627.6000     27342.0000     12134.0000      5613.0000       819.0000      1768.0000              0              0              0              0              0            100              0           0.00         0.0000
          16073       719.7750     27342.0000     12134.0000      5613.0000       819.0000      1768.0000              0              0              0              0              0            100              0           0.00         0.0000
          16074       739.9500     27342.0000     12134.0000      5613.0000       819.0000      1768.0000              0              0              0              0              0            100              0           0.00         0.0000
          16075       684.3750     27342.0000     12134.0000      5613.0000       819.0000      1768.0000              0              0              0              0              0            100              0           0.00         0.0000
          16076       720.4000     27342.0000     12134.0000      5613.0000       819.0000      1768.0000              0              0              0              0              0            100              0           0.00         0.0000
          16077       750.9250     27342.0000     12134.0000      5613.0000       819.0000      1768.0000              0              0              0              0              0            100              0           0.00         0.0000
          16078       786.3500     27342.0000     12134.0000      5613.0000       819.0000      1768.0000              0              0              0              0              0            100              0           0.00         0.0000
          16079       807.7000     27342.0000     12134.0000      5613.0000       819.0000      1768.0000              0              0              0              0              0            100              0           0.00         0.0000
          16080       829.0500     27342.0000     12134.0000      5613.0000       819.0000      1768.0000              0              0              0              0              0            100              0           0.00         0.0000
