#___________________________________________________________________________
~VERSION INFORMATION
 VERS.                                 2.0 : CWLS LOG ASCII STANDARD - VERSION 2.0
 WRAP.                                  NO : ONE LINE PER DEPTH STEP
#___________________________________________________________________________
~WELL INFORMATION
 STRT.F                           10029.00 : START DEPTH
 STOP.F                           19102.00 : STOP DEPTH
 STEP.F                                  1 : STEP VALUE
 NULL.                             -999.25 : NULL VALUE
 COMP.      Magnolia Oil & Gas             : COMPANY
 WELL.      Boone C 1H                     : WELL
  FLD.      Giddings (AC)                  : FIELD
  LOC.      Texas                          : LOCATION
 CNTY.      Washington                     : PARISH/COUNTY
 STAT.      Texas                          : STATE
 CTRY.      USA                            : COUNTRY
" SRVC.      PetroLog International, Inc.   : SERVICE COMPANY"
 DATE.      07/26/2021                     : LOG DATE
  API.      42-477-31153                   : API REFERENCE NUMBER
#___________________________________________________________________________
~CURVE INFORMATION
#MNEM.UNITS                                : DESCRIPTION
DEPTH.F                                    :  1 DEPTH
 TGAS.Units                                :  2 Chromatograph_TotalGas
 MTHX.PPM                                  :  3 Chromatograph_MethanePPMMax
 ETHX.PPM                                  :  4 Chromatograph_EthanePPMMax
 PRPX.PPM                                  :  5 Chromatograph_PropanePPMMax
 IBTX.PPM                                  :  6 Chromatograph_IButanePPMMax
 NBTX.PPM                                  :  7 Chromatograph_NButanePPMMax
CEMNT.%                                    :  8 Lithology_Cement
SHALE.%                                    :  9 Lithology_Shale
SILTST.%                                   : 10 Lithology_Siltstone
 SAND.%                                    : 11 Lithology_Sand
 LIME.%                                    : 12 Lithology_Lime
 CHLK.%                                    : 13 Lithology_Chalk
  ASH.%                                    : 14 Lithology_Tuff
 FRAC.%                                    : 15 Fracture
Kick/Loss.                                 : 16 Kick/Loss
#___________________________________________________________________________
~A        DEPTH           TGAS           MTHX           ETHX           PRPX           IBTX           NBTX          CEMNT          SHALE         SILTST           SAND           LIME           CHLK            ASH           FRAC      Kick/Loss
# ...
          18461      2409.6500    202025.0000     98652.0000     76214.0000      8155.0000     23000.0000              0              0              0              0              0            100              0           1.00        -1.0000
          18462      2238.1000    202025.0000     98652.0000     76214.0000      8155.0000     23000.0000              0              0              0              0              0            100              0           1.00        -1.0000
          18463      1989.0000    202025.0000     98652.0000     76214.0000      8155.0000     23000.0000              0              0              0              0              0            100              0           1.00        -1.0000
          18464      1882.8000    202025.0000     98652.0000     76214.0000      8155.0000     23000.0000              0              0              0              0              0            100              0           1.00        -1.0000
          18465      1819.9000    202025.0000     98652.0000     76214.0000      8155.0000     23000.0000              0              0              0              0              0            100              0           1.00        -1.0000
          18466      1752.1500    202025.0000     98652.0000     76214.0000      8155.0000     23000.0000              0              0              0              0              0            100              0           1.00        -1.0000
          18467      1719.6600    202025.0000     98652.0000     76214.0000      8155.0000     23000.0000              0              0              0              0              0            100              0           1.00        -1.0000
          18468      1705.7500    202025.0000     98652.0000     76214.0000      8155.0000     23000.0000              0              0              0              0              0            100              0           1.00        -1.0000
          18469      1700.8500    202025.0000     98652.0000     76214.0000      8155.0000     23000.0000              0              0              0              0              0            100              0           1.00        -1.0000
          18470      1684.3750    202025.0000     98652.0000     76214.0000      8155.0000     23000.0000              0              0              0              0              0            100              0           1.00        -1.0000
          18471      1658.1000    202025.0000     98652.0000     76214.0000      8155.0000     23000.0000              0              0              0              0              0            100              0           1.00        -1.0000
          18472      1623.0150    202025.0000     98652.0000     76214.0000      8155.0000     23000.0000              0              0              0              0              0            100              0           1.00        -1.0000
          18473      1587.9000    202025.0000     98652.0000     76214.0000      8155.0000     23000.0000              0              0              0              0              0            100              0           1.00        -1.0000
          18474      1557.4000    202025.0000     98652.0000     76214.0000      8155.0000     23000.0000              0              0              0              0              0            100              0           1.00        -1.0000
          18475      1529.9000    202025.0000     98652.0000     76214.0000      8155.0000     23000.0000              0              0              0              0              0            100              0           1.00        -1.0000
          18476      1504.3000    202025.0000     98652.0000     76214.0000      8155.0000     23000.0000              0              0              0              0              0            100              0           1.00        -1.0000
          18477      1507.9500    202025.0000     98652.0000     76214.0000      8155.0000     23000.0000              0              0              0              0              0            100              0           1.00        -1.0000
          18478      1526.8750    202025.0000     98652.0000     76214.0000      8155.0000     23000.0000              0              0              0              0              0            100              0           1.00        -1.0000
          18479      1537.2500    202025.0000     98652.0000     76214.0000      8155.0000     23000.0000              0              0              0              0              0            100              0           1.00        -1.0000
          18480      1535.4000    202025.0000     98652.0000     76214.0000      8155.0000     23000.0000              0              0              0              0              0            100              0           1.00        -1.0000
          18481      1531.1500    202025.0000     98652.0000     76214.0000      8155.0000     23000.0000              0              0              0              0              0            100              0           1.00        -1.0000
          18482      1528.7000    202025.0000     98652.0000     76214.0000      8155.0000     23000.0000              0              0              0              0              0            100              0           1.00        -1.0000
          18483      1523.8000    202025.0000     98652.0000     76214.0000      8155.0000     23000.0000              0              0              0              0              0            100              0           1.00        -1.0000
          18484      1512.2000    202025.0000     98652.0000     76214.0000      8155.0000     23000.0000              0              0              0              0              0            100              0           1.00        -1.0000
          18485      1503.0500    202025.0000     98652.0000     76214.0000      8155.0000     23000.0000              0              0              0              0              0            100              0           1.00        -1.0000
          18486      1497.5500    219844.0000     77101.0000     36328.0000      8155.0000     23000.0000              0              0              0              0              0            100              0           1.00        -1.0000
          18487      1479.8500    219844.0000     77101.0000     36328.0000      8155.0000     23000.0000              0              0              0              0              0            100              0           1.00        -1.0000
          18488      1490.8500    219844.0000     77101.0000     36328.0000      8155.0000     23000.0000              0              0              0              0              0            100              0           1.00        -1.0000
          18489      1507.3250    219844.0000     77101.0000     36328.0000      8155.0000     23000.0000              0              0              0              0              0            100              0           1.00        -1.0000
          18490      1507.3250    219844.0000     77101.0000     36328.0000      8155.0000     23000.0000              0              0              0              0              0            100              0           1.00        -1.0000
          18491      1506.7000    219844.0000     77101.0000     36328.0000      8155.0000     23000.0000              0              0              0              0              0            100              0           1.00        -1.0000
          18492      1500.6000    219844.0000     77101.0000     36328.0000      8155.0000     23000.0000              0              0              0              0              0            100              0           1.00        -1.0000
          18493      1492.0500    219844.0000     77101.0000     36328.0000      8155.0000     23000.0000              0              0              0              0              0            100              0           1.00        -1.0000
          18494      1478.6500    219844.0000     77101.0000     36328.0000      8155.0000     23000.0000              0              0              0              0              0            100              0           1.00        -1.0000
