#___________________________________________________________________________
~VERSION INFORMATION
 VERS.                                 2.0 : CWLS LOG ASCII STANDARD - VERSION 2.0
 WRAP.                                  NO : ONE LINE PER DEPTH STEP
#___________________________________________________________________________
~WELL INFORMATION
 STRT.F                           10029.00 : START DEPTH
 STOP.F                           19102.00 : STOP DEPTH
 STEP.F                                  1 : STEP VALUE
 NULL.                             -999.25 : NULL VALUE
 COMP.      Magnolia Oil & Gas             : COMPANY
 WELL.      Boone C 1H                     : WELL
  FLD.      Giddings (AC)                  : FIELD
  LOC.      Texas                          : LOCATION
 CNTY.      Washington                     : PARISH/COUNTY
 STAT.      Texas                          : STATE
 CTRY.      USA                            : COUNTRY
" SRVC.      PetroLog International, Inc.   : SERVICE COMPANY"
 DATE.      07/26/2021                     : LOG DATE
  API.      42-477-31153                   : API REFERENCE NUMBER
#___________________________________________________________________________
~CURVE INFORMATION
#MNEM.UNITS                                : DESCRIPTION
DEPTH.F                                    :  1 DEPTH
 TGAS.Units                                :  2 Chromatograph_TotalGas
 MTHX.PPM                                  :  3 Chromatograph_MethanePPMMax
 ETHX.PPM                                  :  4 Chromatograph_EthanePPMMax
 PRPX.PPM                                  :  5 Chromatograph_PropanePPMMax
 IBTX.PPM                                  :  6 Chromatograph_IButanePPMMax
 NBTX.PPM                                  :  7 Chromatograph_NButanePPMMax
CEMNT.%                                    :  8 Lithology_Cement
SHALE.%                                    :  9 Lithology_Shale
SILTST.%                                   : 10 Lithology_Siltstone
 SAND.%                                    : 11 Lithology_Sand
 LIME.%                                    : 12 Lithology_Lime
 CHLK.%                                    : 13 Lithology_Chalk
  ASH.%                                    : 14 Lithology_Tuff
 FRAC.%                                    : 15 Fracture
Kick/Loss.                                 : 16 Kick/Loss
#___________________________________________________________________________
~A        DEPTH           TGAS           MTHX           ETHX           PRPX           IBTX           NBTX          CEMNT          SHALE         SILTST           SAND           LIME           CHLK            ASH           FRAC      Kick/Loss
# ...
          10641       788.7500     51971.0000     15373.0000      3590.0000       152.0000         0.0000              0              0              0              0              0            100              0           0.00         0.0000
          10642       786.3500     51971.0000     15373.0000      3590.0000       152.0000         0.0000              0              0              0              0              0            100              0           0.00         0.0000
          10643       806.4750     51971.0000     15373.0000      3590.0000       152.0000         0.0000              0              0              0              0              0            100              0           0.00         0.0000
          10644       813.1750     51971.0000     15373.0000      3590.0000       152.0000         0.0000              0              0              0              0              0            100              0           0.00         0.0000
          10645       876.7000     51971.0000     15373.0000      3590.0000       152.0000         0.0000              0              0              0              0              0            100              0           0.00         0.0000
          10646       901.1000     51971.0000     15373.0000      3590.0000       152.0000       142.0000              0              0              0              0              0            100              0           0.00         0.0000
          10647       893.8000     39069.0000     14869.0000      3104.0000        53.0000       142.0000              0              0              0              0              0            100              0           0.00         0.0000
          10648       873.0000     39069.0000     14869.0000      3104.0000        53.0000       142.0000              0              0              0              0              0            100              0           0.00         0.0000
          10649       855.9000     39069.0000     14869.0000      3104.0000        53.0000       142.0000              0              0              0              0              0            100              0           0.00         0.0000
          10650      1084.2500     39069.0000     14869.0000      3104.0000        53.0000       142.0000              0              0              0              0              0            100              0           0.00         0.0000
          10651      1488.4000     39069.0000     14869.0000      3104.0000        53.0000       142.0000              0              0              0              0              0            100              0           3.00         0.0000
          10652      1870.5750     39069.0000     14869.0000      3104.0000        53.0000       142.0000              0              0              0              0              0            100              0           3.00         0.0000
          10653      2123.9250     39069.0000     14869.0000      3104.0000        53.0000       142.0000              0              0              0              0              0            100              0           3.00         0.0000
          10654      2244.2000     39069.0000     14869.0000      3104.0000        53.0000       142.0000              0              0              0              0              0            100              0           3.00         0.0000
          10655      2312.6000     39069.0000     14869.0000      3104.0000        53.0000       142.0000              0              0              0              0              0            100              0           3.00         0.0000
          10656      2492.0500     39069.0000     14869.0000      3104.0000        53.0000       142.0000              0              0              0              0              0            100              0           3.00         0.0000
          10657      2500.6000     39069.0000     14869.0000      3104.0000        53.0000       142.0000              0              0              0              0              0            100              0           3.00         0.0000
          10658      2333.3250     39069.0000     14869.0000      3104.0000        53.0000       142.0000              0              0              0              0              0            100              0           3.00         0.0000
          10659      1778.4000     39069.0000     18235.0000     17195.0000        53.0000       142.0000              0              0              0              0              0            100              0           3.00         0.0000
          10660      1641.6250     27008.0000     18235.0000     17195.0000      5864.0000      9852.0000              0              0              0              0              0            100              0           3.00         0.0000
          10661      1945.0500     27008.0000     18235.0000     17195.0000      5864.0000      9852.0000              0              0              0              0              0            100              0           3.00         0.0000
          10662      2115.4000     27008.0000     18235.0000     17195.0000      5864.0000      9852.0000              0              0              0              0              0            100              0           3.00         0.0000
          10663      2205.1500     27008.0000     18235.0000     17195.0000      5864.0000      9852.0000              0              0              0              0              0            100              0           3.00         0.0000
          10664      2540.9000     35231.0000     33671.0000     21650.0000      5864.0000      9852.0000              0              0              0              0              0            100              0           3.00         0.0000
          10665      2367.5000     37979.0000     34322.0000     21650.0000      5864.0000      9852.0000              0              0              0              0              0            100              0           3.00         0.0000
          10666      2281.4500     37979.0000     34322.0000     21467.0000      5864.0000      9852.0000              0              0              0              0              0            100              0           3.00         0.0000
          10667      1609.3000     37979.0000     34322.0000     21467.0000      5864.0000      9852.0000              0              0              0              0              0            100              0           3.00         0.0000
          10668      1813.8000     37979.0000     34322.0000     21467.0000      5864.0000      9852.0000              0              0              0              0              0            100              0           3.00         0.0000
          10669      1139.8000     37979.0000     34322.0000     21467.0000      5864.0000      9852.0000              0              0              0              0              0            100              0           3.00         0.0000
          10670      1312.6000     37979.0000     34322.0000     21467.0000      5864.0000      9852.0000              0              0              0              0              0            100              0           3.00         0.0000
          10671      1292.4250     46079.0000     34322.0000     27779.0000      6022.0000     10250.0000              0              0              0              0              0            100              0           3.00         0.0000
          10672      1285.7000     46079.0000     35844.0000     27779.0000      6022.0000     10250.0000              0              0              0              0              0            100              0           3.00         0.0000
          10673      1867.5250     46079.0000     35844.0000     27779.0000      6022.0000     10250.0000              0              0              0              0              0            100              0           3.00         0.0000
          10674      1844.3250     46079.0000     35844.0000     27779.0000      6022.0000     10250.0000              0              0              0              0              0            100              0           3.00         0.0000
