#___________________________________________________________________________
~VERSION INFORMATION
 VERS.                                 2.0 : CWLS LOG ASCII STANDARD - VERSION 2.0
 WRAP.                                  NO : ONE LINE PER DEPTH STEP
#___________________________________________________________________________
~WELL INFORMATION
 STRT.F                           10029.00 : START DEPTH
 STOP.F                           19102.00 : STOP DEPTH
 STEP.F                                  1 : STEP VALUE
 NULL.                             -999.25 : NULL VALUE
 COMP.      Magnolia Oil & Gas             : COMPANY
 WELL.      Boone C 1H                     : WELL
  FLD.      Giddings (AC)                  : FIELD
  LOC.      Texas                          : LOCATION
 CNTY.      Washington                     : PARISH/COUNTY
 STAT.      Texas                          : STATE
 CTRY.      USA                            : COUNTRY
" SRVC.      PetroLog International, Inc.   : SERVICE COMPANY"
 DATE.      07/26/2021                     : LOG DATE
  API.      42-477-31153                   : API REFERENCE NUMBER
#___________________________________________________________________________
~CURVE INFORMATION
#MNEM.UNITS                                : DESCRIPTION
DEPTH.F                                    :  1 DEPTH
 TGAS.Units                                :  2 Chromatograph_TotalGas
 MTHX.PPM                                  :  3 Chromatograph_MethanePPMMax
 ETHX.PPM                                  :  4 Chromatograph_EthanePPMMax
 PRPX.PPM                                  :  5 Chromatograph_PropanePPMMax
 IBTX.PPM                                  :  6 Chromatograph_IButanePPMMax
 NBTX.PPM                                  :  7 Chromatograph_NButanePPMMax
CEMNT.%                                    :  8 Lithology_Cement
SHALE.%                                    :  9 Lithology_Shale
SILTST.%                                   : 10 Lithology_Siltstone
 SAND.%                                    : 11 Lithology_Sand
 LIME.%                                    : 12 Lithology_Lime
 CHLK.%                                    : 13 Lithology_Chalk
  ASH.%                                    : 14 Lithology_Tuff
 FRAC.%                                    : 15 Fracture
Kick/Loss.                                 : 16 Kick/Loss
#___________________________________________________________________________
~A        DEPTH           TGAS           MTHX           ETHX           PRPX           IBTX           NBTX          CEMNT          SHALE         SILTST           SAND           LIME           CHLK            ASH           FRAC      Kick/Loss
# ...
          16659       637.3500     96567.0000     31577.0000     11963.0000      1492.0000      2900.0000              0              0              0              0              0            100              0           0.00         0.0000
          16660       630.6500     96567.0000     31577.0000     11963.0000      1492.0000      2900.0000              0              0              0              0              0            100              0           0.00         0.0000
          16661       620.2500     96567.0000     31577.0000     11963.0000      1492.0000      2900.0000              0              0              0              0              0            100              0           0.00         0.0000
          16662       614.1500     96567.0000     31577.0000     11963.0000      1492.0000      2900.0000              0              0              0              0              0            100              0           0.00         0.0000
          16663       614.1500     96567.0000     31577.0000     11963.0000      1492.0000      2900.0000              0              0              0              0              0            100              0           0.00         0.0000
          16664       617.8500     96567.0000     31577.0000     11963.0000      1492.0000      2900.0000              0              0              0              0              0            100              0           0.00         0.0000
          16665       623.9250     96567.0000     31577.0000     11963.0000      1492.0000      2900.0000              0              0              0              0              0            100              0           0.00         0.0000
          16666       634.9000     96567.0000     31577.0000     11963.0000      1492.0000      2900.0000              0              0              0              0              0            100              0           0.00         0.0000
          16667       642.2500     96567.0000     31577.0000     11963.0000      1492.0000      2900.0000              0              0              0              0              0            100              0           0.00         0.0000
          16668       647.1500     96567.0000     31577.0000     11963.0000      1492.0000      2900.0000              0              0              0              0              0            100              0           0.00         0.0000
          16669       650.2000     93481.0000     24708.0000      7982.0000       852.0000      1817.0000              0              0              0              0              0            100              0           0.00         0.0000
          16670       650.2000     93481.0000     24708.0000      7982.0000       852.0000      1817.0000              0              0              0              0              0            100              0           0.00         0.0000
          16671       658.7500     93481.0000     24708.0000      7982.0000       852.0000      1817.0000              0              0              0              0              0            100              0           0.00         0.0000
          16672       661.1750     93481.0000     24708.0000      7982.0000       852.0000      1817.0000              0              0              0              0              0            100              0           0.00         0.0000
          16673       664.2500     93481.0000     24708.0000      7982.0000       852.0000      1817.0000              0              0              0              0              0            100              0           0.00         0.0000
          16674       660.5500     93481.0000     24708.0000      7982.0000       852.0000      1817.0000              0              0              0              0              0            100              0           0.00         0.0000
          16675       658.1000     93481.0000     24708.0000      7982.0000       852.0000      1817.0000              0              0              0              0              0            100              0           0.00         0.0000
          16676       661.8000     93481.0000     24708.0000      7982.0000       852.0000      1817.0000              0              0              0              0              0            100              0           0.00         0.0000
          16677       665.4500     93481.0000     24708.0000      7982.0000       852.0000      1817.0000              0              0              0              0              0            100              0           0.00         0.0000
          16678       675.8250     93481.0000     24708.0000      7982.0000       852.0000      1817.0000              0              0              0              0              0            100              0           0.00         0.0000
          16679       682.5500     93481.0000     24708.0000      7982.0000       852.0000      1817.0000              0              0              0              0              0            100              0           0.00         0.0000
          16680       685.0000     93481.0000     24708.0000      7982.0000       852.0000      1817.0000              0              0              0              0              0            100              0           0.00         0.0000
          16681       686.2000     93481.0000     24708.0000      7982.0000       852.0000      1817.0000              0              0              0              0              0            100              0           0.00         0.0000
          16682       684.3750     93481.0000     24708.0000      7982.0000       852.0000      1817.0000              0              0              0              0              0            100              0           0.00         0.0000
          16683       681.9250     93481.0000     24708.0000      7982.0000       852.0000      1817.0000              0              0              0              0              0            100              0           0.00         0.0000
          16684       678.9000     93481.0000     24708.0000      7982.0000       852.0000      1817.0000              0              0              0              0              0            100              0           0.00         0.0000
          16685       675.2000     93481.0000     24708.0000      7982.0000       852.0000      1817.0000              0              0              0              0              0            100              0           0.00         0.0000
          16686       674.0000     93481.0000     24708.0000      7982.0000       852.0000      1817.0000              0              0              0              0              0            100              0           0.00         0.0000
          16687       670.3500     93481.0000     24708.0000      7982.0000       852.0000      1817.0000              0              0              0              0              0            100              0           0.00         0.0000
          16688       652.0000     93481.0000     24708.0000      7982.0000       852.0000      1817.0000              0              0              0              0              0            100              0           0.00         0.0000
          16689       650.8000     93481.0000     24708.0000      7982.0000       852.0000      1817.0000              0              0              0              0              0            100              0           0.00         0.0000
          16690       653.2500     93481.0000     24708.0000      7982.0000       852.0000      1817.0000              0              0              0              0              0            100              0           0.00         0.0000
          16691       657.5000     93481.0000     24708.0000      7982.0000       852.0000      1817.0000              0              0              0              0              0            100              0           0.00         0.0000
          16692       667.2750     93481.0000     24708.0000      7982.0000       852.0000      1817.0000              0              0              0              0              0            100              0           0.00         0.0000
