#___________________________________________________________________________
~VERSION INFORMATION
 VERS.                                 2.0 : CWLS LOG ASCII STANDARD - VERSION 2.0
 WRAP.                                  NO : ONE LINE PER DEPTH STEP
#___________________________________________________________________________
~WELL INFORMATION
 STRT.F                           10029.00 : START DEPTH
 STOP.F                           19102.00 : STOP DEPTH
 STEP.F                                  1 : STEP VALUE
 NULL.                             -999.25 : NULL VALUE
 COMP.      Magnolia Oil & Gas             : COMPANY
 WELL.      Boone C 1H                     : WELL
  FLD.      Giddings (AC)                  : FIELD
  LOC.      Texas                          : LOCATION
 CNTY.      Washington                     : PARISH/COUNTY
 STAT.      Texas                          : STATE
 CTRY.      USA                            : COUNTRY
" SRVC.      PetroLog International, Inc.   : SERVICE COMPANY"
 DATE.      07/26/2021                     : LOG DATE
  API.      42-477-31153                   : API REFERENCE NUMBER
#___________________________________________________________________________
~CURVE INFORMATION
#MNEM.UNITS                                : DESCRIPTION
DEPTH.F                                    :  1 DEPTH
 TGAS.Units                                :  2 Chromatograph_TotalGas
 MTHX.PPM                                  :  3 Chromatograph_MethanePPMMax
 ETHX.PPM                                  :  4 Chromatograph_EthanePPMMax
 PRPX.PPM                                  :  5 Chromatograph_PropanePPMMax
 IBTX.PPM                                  :  6 Chromatograph_IButanePPMMax
 NBTX.PPM                                  :  7 Chromatograph_NButanePPMMax
CEMNT.%                                    :  8 Lithology_Cement
SHALE.%                                    :  9 Lithology_Shale
SILTST.%                                   : 10 Lithology_Siltstone
 SAND.%                                    : 11 Lithology_Sand
 LIME.%                                    : 12 Lithology_Lime
 CHLK.%                                    : 13 Lithology_Chalk
  ASH.%                                    : 14 Lithology_Tuff
 FRAC.%                                    : 15 Fracture
Kick/Loss.                                 : 16 Kick/Loss
#___________________________________________________________________________
~A        DEPTH           TGAS           MTHX           ETHX           PRPX           IBTX           NBTX          CEMNT          SHALE         SILTST           SAND           LIME           CHLK            ASH           FRAC      Kick/Loss
# ...
          13055      1482.9000    110067.0000     44165.0000     19171.0000      2631.0000      4992.0000              0              0              0              0              0            100              0           0.00         0.0000
          13056      1551.8750    110067.0000     44165.0000     19171.0000      2631.0000      4992.0000              0              0              0              0              0            100              0           0.00         0.0000
          13057      1572.6500    110067.0000     44165.0000     19171.0000      2631.0000      4992.0000              0              0              0              0              0            100              0           0.00         0.0000
          13058      1584.8500    110067.0000     44165.0000     19171.0000      2631.0000      4992.0000              0              0              0              0              0            100              0           0.00         0.0000
          13059      1595.8500    110067.0000     44165.0000     19171.0000      2631.0000      4992.0000              0              0              0              0              0            100              0           0.00         0.0000
          13060      1595.8500    110067.0000     44165.0000     19171.0000      2631.0000      4992.0000              0              0              0              0              0            100              0           0.00         0.0000
          13061      1621.5000    110067.0000     44165.0000     20557.0000      3004.0000      5893.0000              0              0              0              0              0            100              0           0.00         0.0000
          13062      1703.9000     91946.0000     43234.0000     20557.0000      3004.0000      5893.0000              0              0              0              0              0            100              0           0.00         0.0000
          13063      1590.9500     91946.0000     43234.0000     20557.0000      3004.0000      5893.0000              0              0              0              0              0            100              0           0.00         0.0000
          13064      1572.6500     91946.0000     43234.0000     20557.0000      3004.0000      5893.0000              0              0              0              0              0            100              0           0.00         0.0000
          13065      1582.4000     91946.0000     43234.0000     20557.0000      3004.0000      5893.0000              0              0              0              0              0            100              0           0.00         0.0000
          13066      1583.6500     91946.0000     43234.0000     20557.0000      3004.0000      5893.0000              0              0              0              0              0            100              0           0.00         0.0000
          13067      1578.7500     91946.0000     43234.0000     20557.0000      3004.0000      5893.0000              0              0              0              0              0            100              0           0.00         0.0000
          13068      1584.8500     91946.0000     43234.0000     20557.0000      3004.0000      5893.0000              0              0              0              0              0            100              0           0.00         0.0000
          13069      1594.6500     91946.0000     43234.0000     20557.0000      3004.0000      5893.0000              0              0              0              0              0            100              0           0.00         0.0000
          13070      1595.8500     91946.0000     43234.0000     20557.0000      3004.0000      5893.0000              0              0              0              0              0            100              0           0.00         0.0000
          13071      1612.9500     91946.0000     43234.0000     20557.0000      3004.0000      5893.0000              0              0              0              0              0            100              0           0.00         0.0000
          13072      1593.4000     91946.0000     43234.0000     20557.0000      3004.0000      5893.0000              0              0              0              0              0            100              0           0.00         0.0000
          13073      1592.2000     91946.0000     43234.0000     20557.0000      3004.0000      5893.0000              0              0              0              0              0            100              0           0.00         0.0000
          13074      1630.0500     91946.0000     43234.0000     20557.0000      3004.0000      5893.0000              0              0              0              0              0            100              0           0.00         0.0000
          13075      1610.5000     91946.0000     43234.0000     20557.0000      3004.0000      5893.0000              0              0              0              0              0            100              0           0.00         0.0000
          13076      1592.8000     91946.0000     43234.0000     20557.0000      3004.0000      5893.0000              0              0              0              0              0            100              0           0.00         0.0000
          13077      1588.5500     91946.0000     43234.0000     20557.0000      3004.0000      5893.0000              0              0              0              0              0            100              0           0.00         0.0000
          13078      1586.7000     91946.0000     43234.0000     20557.0000      3004.0000      5893.0000              0              0              0              0              0            100              0           0.00         0.0000
          13079      1609.9000     91946.0000     43234.0000     20557.0000      3004.0000      5893.0000              0              0              0              0              0            100              0           0.00         0.0000
          13080      1626.4000     91946.0000     43234.0000     20557.0000      3004.0000      5893.0000              0              0              0              0              0            100              0           0.00         0.0000
          13081      1648.3750     91946.0000     43234.0000     20557.0000      3004.0000      5893.0000              0              0              0              0              0            100              0           0.00         0.0000
          13082      1648.3500     91946.0000     43234.0000     20557.0000      3004.0000      5893.0000              0              0              0              0              0            100              0           0.00         0.0000
          13083      1689.8500     91946.0000     43234.0000     20557.0000      3004.0000      5893.0000              0              0              0              0              0            100              0           0.00         0.0000
          13084      1665.4500     91946.0000     43234.0000     20557.0000      3004.0000      5893.0000              0              0              0              0              0            100              0           0.00         0.0000
          13085      1661.7750     91946.0000     43234.0000     20557.0000      3004.0000      5893.0000              0              0              0              0              0            100              0           0.00         0.0000
          13086      1659.3500     91946.0000     43234.0000     20557.0000      3004.0000      5893.0000              0              0              0              0              0            100              0           0.00         0.0000
          13087      1674.0000     91946.0000     43234.0000     20557.0000      3004.0000      5893.0000              0              0              0              0              0            100              0           0.00         0.0000
          13088      1675.2000     91946.0000     43234.0000     20557.0000      3004.0000      5893.0000              0              0              0              0              0            100              0           0.00         0.0000
