#___________________________________________________________________________
~VERSION INFORMATION
 VERS.                                 2.0 : CWLS LOG ASCII STANDARD - VERSION 2.0
 WRAP.                                  NO : ONE LINE PER DEPTH STEP
#___________________________________________________________________________
~WELL INFORMATION
 STRT.F                           10029.00 : START DEPTH
 STOP.F                           19102.00 : STOP DEPTH
 STEP.F                                  1 : STEP VALUE
 NULL.                             -999.25 : NULL VALUE
 COMP.      Magnolia Oil & Gas             : COMPANY
 WELL.      Boone C 1H                     : WELL
  FLD.      Giddings (AC)                  : FIELD
  LOC.      Texas                          : LOCATION
 CNTY.      Washington                     : PARISH/COUNTY
 STAT.      Texas                          : STATE
 CTRY.      USA                            : COUNTRY
" SRVC.      PetroLog International, Inc.   : SERVICE COMPANY"
 DATE.      07/26/2021                     : LOG DATE
  API.      42-477-31153                   : API REFERENCE NUMBER
#___________________________________________________________________________
~CURVE INFORMATION
#MNEM.UNITS                                : DESCRIPTION
DEPTH.F                                    :  1 DEPTH
 TGAS.Units                                :  2 Chromatograph_TotalGas
 MTHX.PPM                                  :  3 Chromatograph_MethanePPMMax
 ETHX.PPM                                  :  4 Chromatograph_EthanePPMMax
 PRPX.PPM                                  :  5 Chromatograph_PropanePPMMax
 IBTX.PPM                                  :  6 Chromatograph_IButanePPMMax
 NBTX.PPM                                  :  7 Chromatograph_NButanePPMMax
CEMNT.%                                    :  8 Lithology_Cement
SHALE.%                                    :  9 Lithology_Shale
SILTST.%                                   : 10 Lithology_Siltstone
 SAND.%                                    : 11 Lithology_Sand
 LIME.%                                    : 12 Lithology_Lime
 CHLK.%                                    : 13 Lithology_Chalk
  ASH.%                                    : 14 Lithology_Tuff
 FRAC.%                                    : 15 Fracture
Kick/Loss.                                 : 16 Kick/Loss
#___________________________________________________________________________
~A        DEPTH           TGAS           MTHX           ETHX           PRPX           IBTX           NBTX          CEMNT          SHALE         SILTST           SAND           LIME           CHLK            ASH           FRAC      Kick/Loss
# ...
          14857       862.0100     20733.0000      6241.0000      4418.0000       808.0000      2188.0000              0              0              0              0              0            100              0           3.00         0.0000
          14858       870.6600     20733.0000      6241.0000      4418.0000       808.0000      2188.0000              0              0              0              0              0            100              0           3.00         0.0000
          14859       862.4800     20733.0000      6241.0000      4418.0000       808.0000      2188.0000              0              0              0              0              0            100              0           3.00         0.0000
          14860       856.3600    152663.0000     40483.0000     12653.0000      1508.0000      2547.0000              0              0              0              0              0            100              0           3.00         0.0000
          14861       857.1500      3385.0000      2503.0000      2072.0000       295.0000      1041.0000              0              0              0              0              0            100              0           3.00         0.0000
          14862       764.9500    144878.0000     35158.0000      8903.0000       800.0000      1556.0000              0              0              0              0              0            100              0           3.00         0.0000
          14863       688.6500    144878.0000     35158.0000      8903.0000       800.0000      1556.0000              0              0              0              0              0            100              0           3.00         0.0000
          14864       724.6750    144878.0000     35158.0000      8903.0000       800.0000      1556.0000              0              0              0              0              0            100              0           3.00         0.0000
          14865       785.1000    144878.0000     35158.0000      8903.0000       800.0000      1556.0000              0              0              0              0              0            100              0           3.00         0.0000
          14866       830.3000    184392.0000     35158.0000      8903.0000       800.0000      1556.0000              0              0              0              0              0            100              0           3.00         0.0000
          14867       844.9500    184392.0000     34958.0000      7238.0000       647.0000      1306.0000              0              0              0              0              0            100              0           3.00         0.0000
          14868      1061.6500    184392.0000     34958.0000      7238.0000       647.0000      1306.0000              0              0              0              0              0            100              0           3.00         0.0000
          14869      1109.2750    193369.0000     45128.0000     12911.0000      1494.0000      2692.0000              0              0              0              0              0            100              0           3.00         0.0000
          14870       502.4500      4263.0000      1856.0000      1098.0000       144.0000       735.0000              0              0              0              0              0            100              0           3.00         0.0000
          14871       502.4500      4263.0000      1856.0000      1098.0000       144.0000       735.0000              0              0              0              0              0            100              0           3.00         0.0000
          14872       506.1000      4263.0000      1856.0000      1098.0000       144.0000       735.0000              0              0              0              0              0            100              0           3.00         0.0000
          14873       507.9500      4263.0000      1856.0000      1098.0000       144.0000       735.0000              0              0              0              0              0            100              0           3.00         0.0000
          14874       512.8250      4263.0000      1856.0000      1098.0000       144.0000       735.0000              0              0              0              0              0            100              0           3.00         0.0000
          14875       511.6000      4263.0000      1856.0000      1098.0000       144.0000       735.0000              0              0              0              0              0            100              0           3.00         0.0000
          14876       500.6000      4263.0000      1856.0000      1098.0000       144.0000       735.0000              0              0              0              0              0            100              0           3.00         0.0000
          14877       496.9500      4263.0000      1856.0000      1098.0000       144.0000       735.0000              0              0              0              0              0            100              0           3.00         0.0000
          14878       495.7500      4263.0000      1856.0000      1098.0000       144.0000       735.0000              0              0              0              0              0            100              0           3.00         0.0000
          14879       495.7500      4263.0000      1856.0000      1098.0000       144.0000       735.0000              0              0              0              0              0            100              0           3.00         0.0000
          14880       492.0500      4263.0000      1856.0000      1098.0000       144.0000       735.0000              0              0              0              0              0            100              0           3.00         0.0000
          14881       474.3750      4263.0000      1856.0000      1098.0000       144.0000       735.0000              0              0              0              0              0            100              0           3.00         0.0000
          14882       470.7000      4263.0000      1856.0000      1098.0000       144.0000       735.0000              0              0              0              0              0            100              0           3.00         0.0000
          14883       487.2000    136147.0000     23662.0000      6428.0000       973.0000      2290.0000              0              0              0              0              0            100              0           3.00         0.0000
          14884       489.6000    136147.0000     23662.0000      6428.0000       973.0000      2290.0000              0              0              0              0              0            100              0           3.00         0.0000
          14885       487.8000    136147.0000     23662.0000      6428.0000       973.0000      2290.0000              0              0              0              0              0            100              0           3.00         0.0000
          14886       493.3000    136147.0000     23662.0000      6428.0000       973.0000      2290.0000              0              0              0              0              0            100              0           3.00         0.0000
          14887       494.5000    136147.0000     23662.0000      6428.0000       973.0000      2290.0000              0              0              0              0              0            100              0           3.00         0.0000
          14888       496.9500    136147.0000     23662.0000      6428.0000       973.0000      2290.0000              0              0              0              0              0            100              0           3.00         0.0000
          14889       496.9500    136147.0000     23662.0000      6428.0000       973.0000      2290.0000              0              0              0              0              0            100              0           3.00         0.0000
          14890       495.7500    136147.0000     23662.0000      6428.0000       973.0000      2290.0000              0              0              0              0              0            100              0           3.00         0.0000
