#___________________________________________________________________________
~VERSION INFORMATION
 VERS.                                 2.0 : CWLS LOG ASCII STANDARD - VERSION 2.0
 WRAP.                                  NO : ONE LINE PER DEPTH STEP
#___________________________________________________________________________
~WELL INFORMATION
 STRT.F                           10029.00 : START DEPTH
 STOP.F                           19102.00 : STOP DEPTH
 STEP.F                                  1 : STEP VALUE
 NULL.                             -999.25 : NULL VALUE
 COMP.      Magnolia Oil & Gas             : COMPANY
 WELL.      Boone C 1H                     : WELL
  FLD.      Giddings (AC)                  : FIELD
  LOC.      Texas                          : LOCATION
 CNTY.      Washington                     : PARISH/COUNTY
 STAT.      Texas                          : STATE
 CTRY.      USA                            : COUNTRY
" SRVC.      PetroLog International, Inc.   : SERVICE COMPANY"
 DATE.      07/26/2021                     : LOG DATE
  API.      42-477-31153                   : API REFERENCE NUMBER
#___________________________________________________________________________
~CURVE INFORMATION
#MNEM.UNITS                                : DESCRIPTION
DEPTH.F                                    :  1 DEPTH
 TGAS.Units                                :  2 Chromatograph_TotalGas
 MTHX.PPM                                  :  3 Chromatograph_MethanePPMMax
 ETHX.PPM                                  :  4 Chromatograph_EthanePPMMax
 PRPX.PPM                                  :  5 Chromatograph_PropanePPMMax
 IBTX.PPM                                  :  6 Chromatograph_IButanePPMMax
 NBTX.PPM                                  :  7 Chromatograph_NButanePPMMax
CEMNT.%                                    :  8 Lithology_Cement
SHALE.%                                    :  9 Lithology_Shale
SILTST.%                                   : 10 Lithology_Siltstone
 SAND.%                                    : 11 Lithology_Sand
 LIME.%                                    : 12 Lithology_Lime
 CHLK.%                                    : 13 Lithology_Chalk
  ASH.%                                    : 14 Lithology_Tuff
 FRAC.%                                    : 15 Fracture
Kick/Loss.                                 : 16 Kick/Loss
#___________________________________________________________________________
~A        DEPTH           TGAS           MTHX           ETHX           PRPX           IBTX           NBTX          CEMNT          SHALE         SILTST           SAND           LIME           CHLK            ASH           FRAC      Kick/Loss
# ...
          11219       521.3500         0.0000       710.0000       391.0000       208.0000       463.0000              0              0              0              0              0            100              0           0.00         0.0000
          11220       516.5000         0.0000         0.0000         0.0000         0.0000         0.0000              0              0              0              0              0            100              0           0.00         0.0000
          11221       511.6000         0.0000         0.0000         0.0000         0.0000         0.0000              0              0              0              0              0            100              0           0.00         0.0000
          11222       522.6000         0.0000         0.0000         0.0000         0.0000         0.0000              0              0              0              0              0            100              0           0.00         0.0000
          11223       526.8750         0.0000         0.0000         0.0000         0.0000         0.0000              0              0              0              0              0            100              0           0.00         0.0000
          11224       528.7000         0.0000         0.0000         0.0000         0.0000         0.0000              0              0              0              0              0            100              0           0.00         0.0000
          11225       529.9250         0.0000         0.0000         0.0000         0.0000         0.0000              0              0              0              0              0            100              0           0.00         0.0000
          11226       531.7500         0.0000         0.0000         0.0000         0.0000         0.0000              0              0              0              0              0            100              0           0.00         0.0000
          11227       533.6000         0.0000         0.0000         0.0000         0.0000         0.0000              0              0              0              0              0            100              0           0.00         0.0000
          11228       533.6000         0.0000         0.0000         0.0000         0.0000         0.0000              0              0              0              0              0            100              0           0.00         0.0000
          11229       536.0000         0.0000         0.0000         0.0000         0.0000         0.0000              0              0              0              0              0            100              0           0.00         0.0000
          11230       536.0000         0.0000         0.0000         0.0000         0.0000         0.0000              0              0              0              0              0            100              0           0.00         0.0000
          11231       542.1500         0.0000         0.0000         0.0000         0.0000         0.0000              0              0              0              0              0            100              0           0.00         0.0000
          11232       534.8000         0.0000         0.0000         0.0000         0.0000         0.0000              0              0              0              0              0            100              0           0.00         0.0000
          11233       536.0000         0.0000         0.0000         0.0000         0.0000         0.0000              0              0              0              0              0            100              0           0.00         0.0000
          11234       540.9000         0.0000         0.0000         0.0000         0.0000         0.0000              0              0              0              0              0            100              0           0.00         0.0000
          11235       548.2500     10084.0000     10014.0000     10016.0000     10042.0000     10078.0000              0              0              0              0              0            100              0           0.00         0.0000
          11236       561.6500     10084.0000     10014.0000     10016.0000     10042.0000     10078.0000              0              0              0              0              0            100              0           0.00         0.0000
          11237       521.3500     10084.0000     10014.0000     10016.0000     10042.0000     10078.0000              0              0              0              0              0            100              0           0.00         0.0000
          11238       532.3500     10084.0000     10014.0000     10016.0000     10042.0000     10078.0000              0              0              0              0              0            100              0           0.00         0.0000
          11239       532.3750     10084.0000     10014.0000     10016.0000     10042.0000     10078.0000              0              0              0              0              0            100              0           0.00         0.0000
          11240       516.5000     10084.0000     10014.0000     10016.0000     10042.0000     10078.0000              0              0              0              0              0            100              0           0.00         0.0000
          11241       514.0500     10084.0000     10014.0000     10016.0000     10042.0000     10078.0000              0              0              0              0              0            100              0           0.00         0.0000
          11242      4876.7000    518021.0000     10014.0000     10047.0000     10042.0000     10173.0000              0              0              0              0              0            100              0           0.00         0.0000
          11243       781.4500    518021.0000     20261.0000      7637.0000      1515.0000      3220.0000              0              0              0              0              0            100              0           0.00         0.0000
          11244       735.0500    124039.0000     20261.0000      7637.0000      1515.0000      3220.0000              0              0              0              0              0            100              0           0.00         0.0000
          11245       754.6000    124039.0000     20261.0000      7637.0000      1515.0000      3220.0000              0              0              0              0              0            100              0           0.00         0.0000
          11246       757.0000    124039.0000     20261.0000      7637.0000      1515.0000      3220.0000              0              0              0              0              0            100              0           0.00         0.0000
          11247       772.3000    124039.0000     21190.0000      9912.0000      2278.0000      5092.0000              0              0              0              0              0            100              0           0.00         0.0000
          11248       261.3000     75678.0000     21190.0000      9912.0000      2278.0000      5092.0000              0              0              0              0              0            100              0           0.00         0.0000
          11249       203.9000     75678.0000     21190.0000      9912.0000      2278.0000      5092.0000              0              0              0              0              0            100              0           0.00         0.0000
          11250       172.1500     75678.0000     21190.0000      9912.0000      2278.0000      5092.0000              0              0              0              0              0            100              0           0.00         0.0000
          11251       144.1000     75678.0000     21190.0000      9912.0000      2278.0000      5092.0000              0              0              0              0              0            100              0           0.00         0.0000
          11252       159.9500     75678.0000     21190.0000      9912.0000      2278.0000      5092.0000              0              0              0              0              0            100              0           0.00         0.0000
