#___________________________________________________________________________
~VERSION INFORMATION
 VERS.                                 2.0 : CWLS LOG ASCII STANDARD - VERSION 2.0
 WRAP.                                  NO : ONE LINE PER DEPTH STEP
#___________________________________________________________________________
~WELL INFORMATION
 STRT.F                           10029.00 : START DEPTH
 STOP.F                           19102.00 : STOP DEPTH
 STEP.F                                  1 : STEP VALUE
 NULL.                             -999.25 : NULL VALUE
 COMP.      Magnolia Oil & Gas             : COMPANY
 WELL.      Boone C 1H                     : WELL
  FLD.      Giddings (AC)                  : FIELD
  LOC.      Texas                          : LOCATION
 CNTY.      Washington                     : PARISH/COUNTY
 STAT.      Texas                          : STATE
 CTRY.      USA                            : COUNTRY
" SRVC.      PetroLog International, Inc.   : SERVICE COMPANY"
 DATE.      07/26/2021                     : LOG DATE
  API.      42-477-31153                   : API REFERENCE NUMBER
#___________________________________________________________________________
~CURVE INFORMATION
#MNEM.UNITS                                : DESCRIPTION
DEPTH.F                                    :  1 DEPTH
 TGAS.Units                                :  2 Chromatograph_TotalGas
 MTHX.PPM                                  :  3 Chromatograph_MethanePPMMax
 ETHX.PPM                                  :  4 Chromatograph_EthanePPMMax
 PRPX.PPM                                  :  5 Chromatograph_PropanePPMMax
 IBTX.PPM                                  :  6 Chromatograph_IButanePPMMax
 NBTX.PPM                                  :  7 Chromatograph_NButanePPMMax
CEMNT.%                                    :  8 Lithology_Cement
SHALE.%                                    :  9 Lithology_Shale
SILTST.%                                   : 10 Lithology_Siltstone
 SAND.%                                    : 11 Lithology_Sand
 LIME.%                                    : 12 Lithology_Lime
 CHLK.%                                    : 13 Lithology_Chalk
  ASH.%                                    : 14 Lithology_Tuff
 FRAC.%                                    : 15 Fracture
Kick/Loss.                                 : 16 Kick/Loss
#___________________________________________________________________________
~A        DEPTH           TGAS           MTHX           ETHX           PRPX           IBTX           NBTX          CEMNT          SHALE         SILTST           SAND           LIME           CHLK            ASH           FRAC      Kick/Loss
# ...
          15469       606.8500     73580.0000     18984.0000      5666.0000       591.0000      1200.0000              0              0              0              0              0            100              0           0.00         0.0000
          15470       611.1000     73580.0000     18984.0000      5666.0000       591.0000      1200.0000              0              0              0              0              0            100              0           0.00         0.0000
          15471       689.2500     73580.0000     21212.0000      6983.0000       805.0000      1529.0000              0              0              0              0              0            100              0           0.00         0.0000
          15472       702.1000     73218.0000     21212.0000      6983.0000       805.0000      1529.0000              0              0              0              0              0            100              0           0.00         0.0000
          15473       616.0000     73218.0000     21212.0000      6983.0000       805.0000      1529.0000              0              0              0              0              0            100              0           0.00         0.0000
          15474       593.4000     73218.0000     21212.0000      6983.0000       805.0000      1529.0000              0              0              0              0              0            100              0           0.00         0.0000
          15475       614.7750     73218.0000     21212.0000      6983.0000       805.0000      1529.0000              0              0              0              0              0            100              0           0.00         0.0000
          15476       606.8500     73218.0000     21212.0000      6983.0000       805.0000      1529.0000              0              0              0              0              0            100              0           0.00         0.0000
          15477       619.0500     78604.0000     21453.0000      6983.0000       805.0000      1529.0000              0              0              0              0              0            100              0           0.00         0.0000
          15478       602.5750     78604.0000     21453.0000      6603.0000       760.0000      1411.0000              0              0              0              0              0            100              0           0.00         0.0000
          15479       600.7500     78604.0000     21453.0000      6603.0000       760.0000      1411.0000              0              0              0              0              0            100              0           0.00         0.0000
          15480       594.6500     78604.0000     21453.0000      6603.0000       760.0000      1411.0000              0              0              0              0              0            100              0           0.00         0.0000
          15481       586.7000     78604.0000     21453.0000      6603.0000       760.0000      1411.0000              0              0              0              0              0            100              0           0.00         0.0000
          15482       583.0250     78604.0000     21453.0000      6603.0000       760.0000      1411.0000              0              0              0              0              0            100              0           0.00         0.0000
          15483       588.5500     78604.0000     21453.0000      6603.0000       760.0000      1411.0000              0              0              0              0              0            100              0           0.00         0.0000
          15484       580.0000     78604.0000     21453.0000      6603.0000       760.0000      1411.0000              0              0              0              0              0            100              0           0.00         0.0000
          15485       637.9750     78604.0000     21453.0000      6603.0000       762.0000      1501.0000              0              0              0              0              0            100              0           0.00         0.0000
          15486       556.8000     66741.0000     19711.0000      6568.0000       762.0000      1501.0000              0              0              0              0              0            100              0           0.00         0.0000
          15487       449.3500     64895.0000     16303.0000      4517.0000       472.0000       921.0000              0              0              0              0              0            100              0           0.00         0.0000
          15488       432.2500     58778.0000     12733.0000      3010.0000       294.0000       629.0000              0              0              0              0              0            100              0           0.00         0.0000
          15489       431.0000     58778.0000     12733.0000      3010.0000       294.0000       629.0000              0              0              0              0              0            100              0           0.00         0.0000
          15490       445.6500     58955.0000     12733.0000      3010.0000       294.0000       629.0000              0              0              0              0              0            100              0           0.00         0.0000
          15491       426.1500     58955.0000     11798.0000      2775.0000       281.0000       600.0000              0              0              0              0              0            100              0           0.00         0.0000
          15492       433.4500     62014.0000     11901.0000      2922.0000       327.0000       666.0000              0              0              0              0              0            100              0           0.00         0.0000
          15493       438.3500     62014.0000     11901.0000      2922.0000       327.0000       666.0000              0              0              0              0              0            100              0           0.00         0.0000
          15494       440.8000     62014.0000     11901.0000      2922.0000       327.0000       666.0000              0              0              0              0              0            100              0           0.00         0.0000
          15495       456.0500     62014.0000     11901.0000      2922.0000       327.0000       666.0000              0              0              0              0              0            100              0           0.00         0.0000
          15496       455.4500     62045.0000     12240.0000      3222.0000       373.0000       728.0000              0              0              0              0              0            100              0           0.00         0.0000
          15497       366.9000     62045.0000     12240.0000      3222.0000       373.0000       728.0000              0              0              0              0              0            100              0           0.00         0.0000
          15498       421.2500     26931.0000      5784.0000      1659.0000       193.0000       384.0000              0              0              0              0              0            100              0           0.00         0.0000
          15499       423.7000     26931.0000      5784.0000      1659.0000       193.0000       384.0000              0              0              0              0              0            100              0           0.00         0.0000
          15500       460.3000     56286.0000     11743.0000      3281.0000       352.0000       708.0000              0              0              0              0              0            100              0           0.00         0.0000
          15501       416.9750     56286.0000     11743.0000      3281.0000       352.0000       708.0000              0              0              0              0              0            100              0           0.00         0.0000
          15502       423.7000     56286.0000     11743.0000      3281.0000       352.0000       708.0000              0              0              0              0              0            100              0           0.00         0.0000
