#___________________________________________________________________________
~VERSION INFORMATION
 VERS.                                 2.0 : CWLS LOG ASCII STANDARD - VERSION 2.0
 WRAP.                                  NO : ONE LINE PER DEPTH STEP
#___________________________________________________________________________
~WELL INFORMATION
 STRT.F                           10029.00 : START DEPTH
 STOP.F                           19102.00 : STOP DEPTH
 STEP.F                                  1 : STEP VALUE
 NULL.                             -999.25 : NULL VALUE
 COMP.      Magnolia Oil & Gas             : COMPANY
 WELL.      Boone C 1H                     : WELL
  FLD.      Giddings (AC)                  : FIELD
  LOC.      Texas                          : LOCATION
 CNTY.      Washington                     : PARISH/COUNTY
 STAT.      Texas                          : STATE
 CTRY.      USA                            : COUNTRY
" SRVC.      PetroLog International, Inc.   : SERVICE COMPANY"
 DATE.      07/26/2021                     : LOG DATE
  API.      42-477-31153                   : API REFERENCE NUMBER
#___________________________________________________________________________
~CURVE INFORMATION
#MNEM.UNITS                                : DESCRIPTION
DEPTH.F                                    :  1 DEPTH
 TGAS.Units                                :  2 Chromatograph_TotalGas
 MTHX.PPM                                  :  3 Chromatograph_MethanePPMMax
 ETHX.PPM                                  :  4 Chromatograph_EthanePPMMax
 PRPX.PPM                                  :  5 Chromatograph_PropanePPMMax
 IBTX.PPM                                  :  6 Chromatograph_IButanePPMMax
 NBTX.PPM                                  :  7 Chromatograph_NButanePPMMax
CEMNT.%                                    :  8 Lithology_Cement
SHALE.%                                    :  9 Lithology_Shale
SILTST.%                                   : 10 Lithology_Siltstone
 SAND.%                                    : 11 Lithology_Sand
 LIME.%                                    : 12 Lithology_Lime
 CHLK.%                                    : 13 Lithology_Chalk
  ASH.%                                    : 14 Lithology_Tuff
 FRAC.%                                    : 15 Fracture
Kick/Loss.                                 : 16 Kick/Loss
#___________________________________________________________________________
~A        DEPTH           TGAS           MTHX           ETHX           PRPX           IBTX           NBTX          CEMNT          SHALE         SILTST           SAND           LIME           CHLK            ASH           FRAC      Kick/Loss
# ...
          11831       582.4000     88870.0000     21354.0000      7002.0000      1619.0000      2982.0000              0              0              0              0              0            100              0           0.00         0.0000
          11832       555.5500     88870.0000     21354.0000      7002.0000      1619.0000      2982.0000              0              0              0              0              0            100              0           0.00         0.0000
          11833       570.8250     88870.0000     21354.0000      7002.0000      1619.0000      2982.0000              0              0              0              0              0            100              0           0.00         0.0000
          11834       582.4250     88870.0000     21354.0000      7002.0000      1619.0000      2982.0000              0              0              0              0              0            100              0           0.00         0.0000
          11835       605.0000     88870.0000     21354.0000      7002.0000      1619.0000      2982.0000              0              0              0              0              0            100              0           0.00         0.0000
          11836       611.7250     88870.0000     21354.0000      7002.0000      1619.0000      2982.0000              0              0              0              0              0            100              0           0.00         0.0000
          11837       611.7000     88870.0000     21354.0000      7002.0000      1619.0000      2982.0000              0              0              0              0              0            100              0           0.00         0.0000
          11838       615.4000     88870.0000     21354.0000      7002.0000      1619.0000      2982.0000              0              0              0              0              0            100              0           0.00         0.0000
          11839       622.7000     88870.0000     21354.0000      7002.0000      1619.0000      2982.0000              0              0              0              0              0            100              0           0.00         0.0000
          11840       623.9500     88870.0000     21354.0000      7002.0000      1619.0000      2982.0000              0              0              0              0              0            100              0           0.00         0.0000
          11841       841.2750     88870.0000     21354.0000      7135.0000      1626.0000      3014.0000              0              0              0              0              0            100              0           0.00         0.0000
          11842       521.9750     85768.0000     20724.0000      7135.0000      1626.0000      3014.0000              0              0              0              0              0            100              0           0.00         0.0000
          11843       525.0500     85768.0000     20724.0000      7135.0000      1626.0000      3014.0000              0              0              0              0              0            100              0           0.00         0.0000
          11844       526.2500     85768.0000     20724.0000      7135.0000      1626.0000      3014.0000              0              0              0              0              0            100              0           0.00         0.0000
          11845       507.3250     85768.0000     20724.0000      7135.0000      1626.0000      3014.0000              0              0              0              0              0            100              0           0.00         0.0000
          11846       480.4750     85768.0000     20724.0000      7135.0000      1626.0000      3014.0000              0              0              0              0              0            100              0           0.00         0.0000
          11847       422.4750     85768.0000     20724.0000      7135.0000      1626.0000      3014.0000              0              0              0              0              0            100              0           0.00         0.0000
          11848       372.4000     85768.0000     20724.0000      7135.0000      1626.0000      3014.0000              0              0              0              0              0            100              0           0.00         0.0000
          11849       323.5500     85768.0000     20724.0000      7135.0000      1626.0000      3014.0000              0              0              0              0              0            100              0           0.00         0.0000
          11850       294.2500     85768.0000     20724.0000      7135.0000      1626.0000      3014.0000              0              0              0              0              0            100              0           0.00         0.0000
          11851       271.0500     85768.0000     20724.0000      7135.0000      1626.0000      3014.0000              0              0              0              0              0            100              0           0.00         0.0000
          11852       251.5500     85768.0000     20724.0000      7135.0000      1626.0000      3014.0000              0              0              0              0              0            100              0           0.00         0.0000
          11853       223.4500     85768.0000     20724.0000      7135.0000      1626.0000      3014.0000              0              0              0              0              0            100              0           0.00         0.0000
          11854       207.5500     85768.0000     20724.0000      7135.0000      1626.0000      3014.0000              0              0              0              0              0            100              0           0.00         0.0000
          11855       235.6750     85768.0000     20724.0000      7135.0000      1626.0000      3014.0000              0              0              0              0              0            100              0           0.00         0.0000
          11856       304.0500     85768.0000     20724.0000      7135.0000      1626.0000      3014.0000              0              0              0              0              0            100              0           0.00         0.0000
          11857       413.9000     85768.0000     20724.0000      7135.0000      1626.0000      3014.0000              0              0              0              0              0            100              0           0.00         0.0000
          11858       482.9250     85768.0000     20724.0000      7135.0000      1626.0000      3014.0000              0              0              0              0              0            100              0           0.00         0.0000
          11859       521.9750     85768.0000     20724.0000      7135.0000      1626.0000      3014.0000              0              0              0              0              0            100              0           0.00         0.0000
          11860       564.1000     85768.0000     20724.0000      7135.0000      1626.0000      3014.0000              0              0              0              0              0            100              0           0.00         0.0000
          11861       584.8500     85768.0000     20724.0000      7135.0000      1626.0000      3014.0000              0              0              0              0              0            100              0           0.00         0.0000
          11862       601.9500     85768.0000     20724.0000      7135.0000      1626.0000      3014.0000              0              0              0              0              0            100              0           0.00         0.0000
          11863       614.7750     85768.0000     20724.0000      7135.0000      1626.0000      3014.0000              0              0              0              0              0            100              0           0.00         0.0000
          11864       617.8500     85768.0000     20724.0000      7135.0000      1626.0000      3014.0000              0              0              0              0              0            100              0           0.00         0.0000
