#___________________________________________________________________________
~VERSION INFORMATION
 VERS.                                 2.0 : CWLS LOG ASCII STANDARD - VERSION 2.0
 WRAP.                                  NO : ONE LINE PER DEPTH STEP
#___________________________________________________________________________
~WELL INFORMATION
 STRT.F                           10029.00 : START DEPTH
 STOP.F                           19102.00 : STOP DEPTH
 STEP.F                                  1 : STEP VALUE
 NULL.                             -999.25 : NULL VALUE
 COMP.      Magnolia Oil & Gas             : COMPANY
 WELL.      Boone C 1H                     : WELL
  FLD.      Giddings (AC)                  : FIELD
  LOC.      Texas                          : LOCATION
 CNTY.      Washington                     : PARISH/COUNTY
 STAT.      Texas                          : STATE
 CTRY.      USA                            : COUNTRY
" SRVC.      PetroLog International, Inc.   : SERVICE COMPANY"
 DATE.      07/26/2021                     : LOG DATE
  API.      42-477-31153                   : API REFERENCE NUMBER
#___________________________________________________________________________
~CURVE INFORMATION
#MNEM.UNITS                                : DESCRIPTION
DEPTH.F                                    :  1 DEPTH
 TGAS.Units                                :  2 Chromatograph_TotalGas
 MTHX.PPM                                  :  3 Chromatograph_MethanePPMMax
 ETHX.PPM                                  :  4 Chromatograph_EthanePPMMax
 PRPX.PPM                                  :  5 Chromatograph_PropanePPMMax
 IBTX.PPM                                  :  6 Chromatograph_IButanePPMMax
 NBTX.PPM                                  :  7 Chromatograph_NButanePPMMax
CEMNT.%                                    :  8 Lithology_Cement
SHALE.%                                    :  9 Lithology_Shale
SILTST.%                                   : 10 Lithology_Siltstone
 SAND.%                                    : 11 Lithology_Sand
 LIME.%                                    : 12 Lithology_Lime
 CHLK.%                                    : 13 Lithology_Chalk
  ASH.%                                    : 14 Lithology_Tuff
 FRAC.%                                    : 15 Fracture
Kick/Loss.                                 : 16 Kick/Loss
#___________________________________________________________________________
~A        DEPTH           TGAS           MTHX           ETHX           PRPX           IBTX           NBTX          CEMNT          SHALE         SILTST           SAND           LIME           CHLK            ASH           FRAC      Kick/Loss
# ...
          13633      1105.0000    121836.0000     38327.0000     14114.0000      1842.0000      3790.0000              0             15              0              0              0             85              0           2.00         0.0000
          13634      1097.7000    121836.0000     38327.0000     14114.0000      1842.0000      3790.0000              0             15              0              0              0             85              0           2.00         0.0000
          13635      1066.5500    121836.0000     38327.0000     14114.0000      1842.0000      3790.0000              0             15              0              0              0             85              0           2.00         0.0000
          13636      1047.6000    121836.0000     38327.0000     14114.0000      1842.0000      3790.0000              0             15              0              0              0             85              0           2.00         0.0000
          13637      1034.1750    121836.0000     38327.0000     14114.0000      1842.0000      3790.0000              0             15              0              0              0             85              0           2.00         0.0000
          13638      1018.9250    121836.0000     38327.0000     14114.0000      1842.0000      3790.0000              0             15              0              0              0             85              0           2.00         0.0000
          13639      1007.3500    121836.0000     38327.0000     14114.0000      1842.0000      3790.0000              0             15              0              0              0             85              0           2.00         0.0000
          13640       996.3500    121836.0000     38327.0000     14114.0000      1842.0000      3790.0000              0             15              0              0              0             85              0           2.00         0.0000
          13641       985.3500    121836.0000     38327.0000     14114.0000      1842.0000      3790.0000              0             15              0              0              0             85              0           2.00         0.0000
          13642       980.4500    121836.0000     38327.0000     14114.0000      1842.0000      3790.0000              0             15              0              0              0             85              0           2.00         0.0000
          13643       974.3500    121836.0000     38327.0000     14114.0000      1842.0000      3790.0000              0             15              0              0              0             85              0           2.00         0.0000
          13644       978.6250    121836.0000     38327.0000     14114.0000      1842.0000      3790.0000              0             15              0              0              0             85              0           2.00         0.0000
          13645       969.5000    116166.0000     30211.0000     10325.0000      1361.0000      2932.0000              0             15              0              0              0             85              0           2.00         0.0000
          13646       937.7500    116166.0000     30211.0000     10325.0000      1361.0000      2932.0000              0             15              0              0              0             85              0           2.00         0.0000
          13647       929.2000    116166.0000     30211.0000     10325.0000      1361.0000      2932.0000              0             15              0              0              0             85              0           2.00         0.0000
          13648       927.3500    116166.0000     30211.0000     10325.0000      1361.0000      2932.0000              0             15              0              0              0             85              0           2.00         0.0000
          13649       925.5000    116166.0000     30211.0000     10325.0000      1361.0000      2932.0000              0             15              0              0              0             85              0           2.00         0.0000
          13650       924.3000    116166.0000     30211.0000     10325.0000      1361.0000      2932.0000              0             15              0              0              0             85              0           2.00         0.0000
          13651       918.2000    116166.0000     30211.0000     10325.0000      1361.0000      2932.0000              0             15              0              0              0             85              0           2.00         0.0000
          13652       894.4000    116166.0000     30211.0000     10325.0000      1361.0000      2932.0000              0             15              0              0              0             85              0           2.00         0.0000
          13653       877.9000    116166.0000     30211.0000     10325.0000      1361.0000      2932.0000              0             15              0              0              0             85              0           2.00         0.0000
          13654       868.1500    116166.0000     30211.0000     10325.0000      1361.0000      2932.0000              0             15              0              0              0             85              0           2.00         0.0000
          13655       866.9000    116166.0000     30211.0000     10325.0000      1361.0000      2932.0000              0             15              0              0              0             85              0           2.00         0.0000
          13656       870.6000    116166.0000     30211.0000     10325.0000      1361.0000      2932.0000              0             15              0              0              0             85              0           2.00         0.0000
          13657       870.6000    116166.0000     30211.0000     10325.0000      1361.0000      2932.0000              0             15              0              0              0             85              0           2.00         0.0000
          13658       876.0750    116166.0000     30211.0000     10325.0000      1361.0000      2932.0000              0             15              0              0              0             85              0           2.00         0.0000
          13659       879.1000    116166.0000     30211.0000     10325.0000      1361.0000      2932.0000              0             15              0              0              0             85              0           2.00         0.0000
          13660       880.9500    116166.0000     30211.0000     10325.0000      1361.0000      2932.0000              0             15              0              0              0             85              0           2.00         0.0000
          13661       881.5500    116166.0000     30211.0000     10325.0000      1361.0000      2932.0000              0             15              0              0              0             85              0           2.00         0.0000
          13662       958.4750    116166.0000     30211.0000     10325.0000      1361.0000      2932.0000              0             15              0              0              0             85              0           2.00         0.0000
          13663       788.7500    116166.0000     30211.0000     10325.0000      1361.0000      2932.0000              0             15              0              0              0             85              0           2.00         0.0000
          13664       837.6250    116166.0000     30211.0000     10325.0000      1361.0000      2932.0000              0             15              0              0              0             85              0           2.00         0.0000
          13665       876.7000    116166.0000     30211.0000     10325.0000      1361.0000      2932.0000              0             15              0              0              0             85              0           2.00         0.0000
          13666       886.4500    116166.0000     30211.0000     10325.0000      1361.0000      2932.0000              0             15              0              0              0             85              0           2.00         0.0000
