#___________________________________________________________________________
~VERSION INFORMATION
 VERS.                                 2.0 : CWLS LOG ASCII STANDARD - VERSION 2.0
 WRAP.                                  NO : ONE LINE PER DEPTH STEP
#___________________________________________________________________________
~WELL INFORMATION
 STRT.F                           10029.00 : START DEPTH
 STOP.F                           19102.00 : STOP DEPTH
 STEP.F                                  1 : STEP VALUE
 NULL.                             -999.25 : NULL VALUE
 COMP.      Magnolia Oil & Gas             : COMPANY
 WELL.      Boone C 1H                     : WELL
  FLD.      Giddings (AC)                  : FIELD
  LOC.      Texas                          : LOCATION
 CNTY.      Washington                     : PARISH/COUNTY
 STAT.      Texas                          : STATE
 CTRY.      USA                            : COUNTRY
" SRVC.      PetroLog International, Inc.   : SERVICE COMPANY"
 DATE.      07/26/2021                     : LOG DATE
  API.      42-477-31153                   : API REFERENCE NUMBER
#___________________________________________________________________________
~CURVE INFORMATION
#MNEM.UNITS                                : DESCRIPTION
DEPTH.F                                    :  1 DEPTH
 TGAS.Units                                :  2 Chromatograph_TotalGas
 MTHX.PPM                                  :  3 Chromatograph_MethanePPMMax
 ETHX.PPM                                  :  4 Chromatograph_EthanePPMMax
 PRPX.PPM                                  :  5 Chromatograph_PropanePPMMax
 IBTX.PPM                                  :  6 Chromatograph_IButanePPMMax
 NBTX.PPM                                  :  7 Chromatograph_NButanePPMMax
CEMNT.%                                    :  8 Lithology_Cement
SHALE.%                                    :  9 Lithology_Shale
SILTST.%                                   : 10 Lithology_Siltstone
 SAND.%                                    : 11 Lithology_Sand
 LIME.%                                    : 12 Lithology_Lime
 CHLK.%                                    : 13 Lithology_Chalk
  ASH.%                                    : 14 Lithology_Tuff
 FRAC.%                                    : 15 Fracture
Kick/Loss.                                 : 16 Kick/Loss
#___________________________________________________________________________
~A        DEPTH           TGAS           MTHX           ETHX           PRPX           IBTX           NBTX          CEMNT          SHALE         SILTST           SAND           LIME           CHLK            ASH           FRAC      Kick/Loss
          10029       227.1000       291.0000       195.0000       100.0000         0.0000         0.0000              0              0              0              0              0            100              0           0.00         0.0000
          10030       269.8500       140.0000       195.0000       100.0000         0.0000         0.0000              0              0              0              0              0            100              0           0.00         0.0000
          10031       288.1500     24140.0000      3780.0000       788.0000         0.0000         0.0000              0              0              0              0              0            100              0           0.00         0.0000
          10032       127.6000     24140.0000      3780.0000       788.0000         0.0000         0.0000              0              0              0              0              0            100              0           0.00         0.0000
          10033       109.9000     24140.0000      3780.0000       788.0000         0.0000         0.0000              0              0              0              0              0            100              0           0.00         0.0000
          10034        65.9500     24140.0000      3780.0000       788.0000         0.0000         0.0000              0              0              0              0              0            100              0           0.00         0.0000
          10035        63.5000      4964.0000       581.0000        54.0000         0.0000         0.0000              0              0              0              0              0            100              0           0.00         0.0000
          10036        58.6250      4964.0000       581.0000        54.0000         0.0000         0.0000              0              0              0              0              0            100              0           0.00         0.0000
          10037        52.5000      4964.0000       581.0000        54.0000         0.0000         0.0000              0              0              0              0              0            100              0           0.00         0.0000
          10038        50.6750      4964.0000       581.0000        54.0000         0.0000         0.0000              0              0              0              0              0            100              0           0.00         0.0000
          10039       416.9750     33338.0000      2782.0000       223.0000         0.0000        46.0000              0              0              0              0              0            100              0           0.00         0.0000
          10040       101.9500      2174.0000       190.0000        26.0000        27.0000        46.0000              0              0              0              0              0            100              0           0.00         0.0000
          10041        71.4500      1381.0000       190.0000        26.0000        27.0000         0.0000              0              0              0              0              0            100              0           0.00         0.0000
          10042        83.6500      2500.0000       190.0000        26.0000        27.0000         0.0000              0              0              0              0              0            100              0           0.00         0.0000
          10043        81.8000      2500.0000       167.0000         0.0000         0.0000         0.0000              0              0              0              0              0            100              0           0.00         0.0000
          10044        91.6000      2500.0000       167.0000         0.0000         0.0000         0.0000              0              0              0              0              0            100              0           0.00         0.0000
          10045        89.1500      2500.0000       167.0000         0.0000         0.0000         0.0000              0              0              0              0              0            100              0           0.00         0.0000
          10046       123.3000      2500.0000       167.0000         0.0000         0.0000         0.0000              0              0              0              0              0            100              0           0.00         0.0000
          10047       147.7500      2500.0000       167.0000         0.0000         0.0000         0.0000              0              0              0              0              0            100              0           0.00         0.0000
          10048       153.2500     14657.0000      1157.0000       144.0000         0.0000        61.0000              0              0              0              0              0            100              0           0.00         0.0000
          10049       157.5250     14657.0000      1157.0000       144.0000         0.0000        61.0000              0              0              0              0              0            100              0           0.00         0.0000
          10050       169.7000     14657.0000      1157.0000       144.0000         0.0000        61.0000              0              0              0              0              0            100              0           0.00         0.0000
          10051       195.9750     14657.0000      1157.0000       144.0000         0.0000        61.0000              0              0              0              0              0            100              0           0.00         0.0000
          10052       197.8000     14657.0000      1157.0000       144.0000         0.0000        61.0000              0              0              0              0              0            100              0           0.00         0.0000
          10053       184.3500     14657.0000      1157.0000       144.0000         0.0000        61.0000              0              0              0              0              0            100              0           0.00         0.0000
          10054       134.9250     14657.0000      1157.0000       144.0000         0.0000        61.0000              0              0              0              0              0            100              0           0.00         0.0000
          10055       153.8500     11075.0000       852.0000        73.0000         0.0000         0.0000              0              0              0              0              0            100              0           0.00         0.0000
          10056        53.7500         0.0000         0.0000        56.0000         0.0000         0.0000              0              0              0              0              0            100              0           0.00         0.0000
          10057        51.3000         0.0000         0.0000        56.0000         0.0000         0.0000              0              0              0              0              0            100              0           0.00         0.0000
          10058        50.0500         0.0000         0.0000        56.0000         0.0000         0.0000              0              0              0              0              0            100              0           0.00         0.0000
          10059       202.6750         0.0000         0.0000        56.0000         0.0000         0.0000              0              0              0              0              0            100              0           0.00         0.0000
          10060       294.2750         0.0000         0.0000        56.0000         0.0000         0.0000              0              0              0              0              0            100              0           0.00         0.0000
          10061       344.9250         0.0000         0.0000        56.0000         0.0000         0.0000              0              0              0              0              0            100              0           0.00         0.0000
          10062       380.9500         0.0000         0.0000        56.0000         0.0000         0.0000              0              0              0              0              0            100              0           0.00         0.0000
