#___________________________________________________________________________
~VERSION INFORMATION
 VERS.                                 2.0 : CWLS LOG ASCII STANDARD - VERSION 2.0
 WRAP.                                  NO : ONE LINE PER DEPTH STEP
#___________________________________________________________________________
~WELL INFORMATION
 STRT.F                           10029.00 : START DEPTH
 STOP.F                           19102.00 : STOP DEPTH
 STEP.F                                  1 : STEP VALUE
 NULL.                             -999.25 : NULL VALUE
 COMP.      Magnolia Oil & Gas             : COMPANY
 WELL.      Boone C 1H                     : WELL
  FLD.      Giddings (AC)                  : FIELD
  LOC.      Texas                          : LOCATION
 CNTY.      Washington                     : PARISH/COUNTY
 STAT.      Texas                          : STATE
 CTRY.      USA                            : COUNTRY
" SRVC.      PetroLog International, Inc.   : SERVICE COMPANY"
 DATE.      07/26/2021                     : LOG DATE
  API.      42-477-31153                   : API REFERENCE NUMBER
#___________________________________________________________________________
~CURVE INFORMATION
#MNEM.UNITS                                : DESCRIPTION
DEPTH.F                                    :  1 DEPTH
 TGAS.Units                                :  2 Chromatograph_TotalGas
 MTHX.PPM                                  :  3 Chromatograph_MethanePPMMax
 ETHX.PPM                                  :  4 Chromatograph_EthanePPMMax
 PRPX.PPM                                  :  5 Chromatograph_PropanePPMMax
 IBTX.PPM                                  :  6 Chromatograph_IButanePPMMax
 NBTX.PPM                                  :  7 Chromatograph_NButanePPMMax
CEMNT.%                                    :  8 Lithology_Cement
SHALE.%                                    :  9 Lithology_Shale
SILTST.%                                   : 10 Lithology_Siltstone
 SAND.%                                    : 11 Lithology_Sand
 LIME.%                                    : 12 Lithology_Lime
 CHLK.%                                    : 13 Lithology_Chalk
  ASH.%                                    : 14 Lithology_Tuff
 FRAC.%                                    : 15 Fracture
Kick/Loss.                                 : 16 Kick/Loss
#___________________________________________________________________________
~A        DEPTH           TGAS           MTHX           ETHX           PRPX           IBTX           NBTX          CEMNT          SHALE         SILTST           SAND           LIME           CHLK            ASH           FRAC      Kick/Loss
# ...
          19073      2098.9000    165740.0000     67114.0000     54734.0000      7901.0000     22477.0000              0              0              0              0              0            100              0           0.00        -1.0000
          19074      2112.3250    165740.0000     67114.0000     54734.0000      7901.0000     22477.0000              0              0              0              0              0            100              0           0.00        -1.0000
          19075      2139.8000    165740.0000     67114.0000     54734.0000      7901.0000     22477.0000              0              0              0              0              0            100              0           0.00        -1.0000
          19076      2169.7000    165740.0000     67114.0000     54734.0000      7901.0000     22477.0000              0              0              0              0              0            100              0           0.00        -1.0000
          19077      2175.8500    165740.0000     67114.0000     54734.0000      7901.0000     22477.0000              0              0              0              0              0            100              0           0.00        -1.0000
          19078      2169.7000    165740.0000     67114.0000     54734.0000      7901.0000     22477.0000              0              0              0              0              0            100              0           0.00        -1.0000
          19079      2150.8000    175510.0000     67114.0000     54734.0000      7901.0000     22477.0000              0              0              0              0              0            100              0           0.00        -1.0000
          19080      2137.3750    175510.0000     67114.0000     54734.0000      7901.0000     22477.0000              0              0              0              0              0            100              0           0.00        -1.0000
          19081      2123.3000    175510.0000     67114.0000     54734.0000      7901.0000     22477.0000              0              0              0              0              0            100              0           0.00        -1.0000
          19082      2105.0000    175510.0000     67114.0000     54734.0000      7901.0000     22477.0000              0              0              0              0              0            100              0           0.00        -1.0000
          19083      2078.7500    175510.0000     67114.0000     54734.0000      7901.0000     22477.0000              0              0              0              0              0            100              0           0.00        -1.0000
          19084      2040.3000    175510.0000     67114.0000     54734.0000      7901.0000     22477.0000              0              0              0              0              0            100              0           0.00        -1.0000
          19085      2039.0500    175510.0000     67114.0000     54734.0000      7901.0000     22477.0000              0              0              0              0              0            100              0           0.00        -1.0000
          19086      2063.5000    175510.0000     67114.0000     54734.0000      7901.0000     22477.0000              0              0              0              0              0            100              0           0.00        -1.0000
          19087      2084.2500    175510.0000     67114.0000     54734.0000      7901.0000     22477.0000              0              0              0              0              0            100              0           0.00        -1.0000
          19088      2089.7500    175510.0000     67114.0000     54734.0000      7901.0000     22477.0000              0              0              0              0              0            100              0           0.00        -1.0000
          19089      2089.1500    175510.0000     67114.0000     54734.0000      7901.0000     22477.0000              0              0              0              0              0            100              0           0.00        -1.0000
          19090      2080.6000    158863.0000     67114.0000     54734.0000      7901.0000     22477.0000              0              0              0              0              0            100              0           0.00        -1.0000
          19091      2069.0000    158863.0000     67114.0000     54734.0000      7901.0000     22477.0000              0              0              0              0              0            100              0           0.00        -1.0000
          19092      2057.4000    158863.0000     67114.0000     54734.0000      7901.0000     22477.0000              0              0              0              0              0            100              0           0.00        -1.0000
          19093      2122.1000    158863.0000     70662.0000     56298.0000      7901.0000     22477.0000              0              0              0              0              0            100              0           0.00        -1.0000
          19094      2081.8000    158863.0000     70662.0000     56298.0000      7817.0000     22164.0000              0              0              0              0              0            100              0           0.00        -1.0000
          19095      2084.2500    158863.0000     70662.0000     56298.0000      7817.0000     22164.0000              0              0              0              0              0            100              0           0.00        -1.0000
          19096      2121.4750    158863.0000     70662.0000     56298.0000      7817.0000     22164.0000              0              0              0              0              0            100              0           0.00        -1.0000
          19097      2152.6500    158863.0000     70662.0000     56298.0000      7817.0000     22164.0000              0              0              0              0              0            100              0           0.00        -1.0000
          19098      2194.1500    158863.0000     70662.0000     56298.0000      7817.0000     22164.0000              0              0              0              0              0            100              0           0.00        -1.0000
          19099      2221.0000    158863.0000     70662.0000     56298.0000      7817.0000     22164.0000              0              0              0              0              0            100              0           0.00        -1.0000
          19100      2244.2000    158863.0000     70662.0000     56298.0000      7817.0000     22164.0000              0              0              0              0              0            100              0           0.00        -1.0000
          19101      2263.7500    158863.0000     70662.0000     56298.0000      7817.0000     22164.0000              0              0              0              0              0            100              0           0.00        -1.0000
          19102      2262.5500    158863.0000     70662.0000     56298.0000      7817.0000     22164.0000              0              0              0              0              0            100              0           0.00        -1.0000
