#___________________________________________________________________________
~VERSION INFORMATION
 VERS.                                 2.0 : CWLS LOG ASCII STANDARD - VERSION 2.0
 WRAP.                                  NO : ONE LINE PER DEPTH STEP
#___________________________________________________________________________
~WELL INFORMATION
 STRT.F                            9906.00 : START DEPTH
 STOP.F                           18092.00 : STOP DEPTH
 STEP.F                                  1 : STEP VALUE
 NULL.                             -999.25 : NULL VALUE
 COMP.      Magnolia Oil & Gas             : COMPANY
 WELL.      Borgstedt OL 2H                : WELL
  FLD.      Giddings (AC)                  : FIELD
  LOC.      Texas                          : LOCATION
 CNTY.      Washington                     : PARISH/COUNTY
 STAT.      Texas                          : STATE
 CTRY.      USA                            : COUNTRY
" SRVC.      PetroLog International, Inc.   : SERVICE COMPANY"
 DATE.      08/07/2021                     : LOG DATE
  API.      42-477-31158                   : API REFERENCE NUMBER
#___________________________________________________________________________
~CURVE INFORMATION
#MNEM.UNITS                                : DESCRIPTION
DEPTH.F                                    :  1 DEPTH
 TGAS.Units                                :  2 Chromatograph_TotalGas
 MTHX.PPM                                  :  3 Chromatograph_MethanePPMMax
 ETHX.PPM                                  :  4 Chromatograph_EthanePPMMax
 PRPX.PPM                                  :  5 Chromatograph_PropanePPMMax
 IBTX.PPM                                  :  6 Chromatograph_IButanePPMMax
 NBTX.PPM                                  :  7 Chromatograph_NButanePPMMax
CEMNT.%                                    :  8 Lithology_Cement
SHALE.%                                    :  9 Lithology_Shale
SILTST.%                                   : 10 Lithology_Siltstone
 SAND.%                                    : 11 Lithology_Sand
 LIME.%                                    : 12 Lithology_Lime
 CHLK.%                                    : 13 Lithology_Chalk
  ASH.%                                    : 14 Lithology_Ash
 FRAC.%                                    : 15 Fracture
Kick/Loss.                                 : 16 Kick/Loss
#___________________________________________________________________________
~A        DEPTH           TGAS           MTHX           ETHX           PRPX           IBTX           NBTX          CEMNT          SHALE         SILTST           SAND           LIME           CHLK            ASH           FRAC      Kick/Loss
# ...
          10450       539.7000     48766.0000      5409.0000      1084.0000         0.0000        70.0000              0              0              0              0              0            100              0           0.00         0.0000
          10451       545.8000     48766.0000      5409.0000      1084.0000         0.0000        70.0000              0              0              0              0              0            100              0           0.00         0.0000
          10452       548.2500     48766.0000      5409.0000      1084.0000         0.0000        70.0000              0              0              0              0              0            100              0           0.00         0.0000
          10453       539.0750     48766.0000      5409.0000      1084.0000         0.0000        70.0000              0              0              0              0              0            100              0           0.00         0.0000
          10454       548.2500     59634.0000      6531.0000      1299.0000        23.0000        70.0000              0              0              0              0              0            100              0           0.00         0.0000
          10455       543.3500     59634.0000      6531.0000      1299.0000        23.0000        49.0000              0              0              0              0              0            100              0           0.00         0.0000
          10456       540.9250     59634.0000      6531.0000      1299.0000        23.0000        49.0000              0              0              0              0              0            100              0           0.00         0.0000
          10457       537.2250     59634.0000      6531.0000      1299.0000        23.0000        49.0000              0              0              0              0              0            100              0           0.00         0.0000
          10458       536.6250     59634.0000      6531.0000      1299.0000        23.0000        49.0000              0              0              0              0              0            100              0           0.00         0.0000
          10459       534.2000     59634.0000      6531.0000      1299.0000        23.0000        49.0000              0              0              0              0              0            100              0           0.00         0.0000
          10460       529.9000     59634.0000      6531.0000      1299.0000        23.0000        49.0000              0              0              0              0              0            100              0           0.00         0.0000
          10461       543.3500     59634.0000      6531.0000      1299.0000        23.0000        49.0000              0              0              0              0              0            100              0           0.00         0.0000
          10462       558.6000     59634.0000      6531.0000      1299.0000        23.0000        49.0000              0              0              0              0              0            100              0           0.00         0.0000
          10463       562.9000     59634.0000      6531.0000      1299.0000        23.0000        49.0000              0              0              0              0              0            100              0           0.00         0.0000
          10464       562.9000     59634.0000      6531.0000      1299.0000        23.0000        49.0000              0              0              0              0              0            100              0           0.00         0.0000
          10465       558.0000     59634.0000      6531.0000      1299.0000        23.0000        49.0000              0              0              0              0              0            100              0           0.00         0.0000
          10466       561.0500     59634.0000      6531.0000      1299.0000        23.0000        49.0000              0              0              0              0              0            100              0           0.00         0.0000
          10467       577.5500     59634.0000      6531.0000      1299.0000        23.0000        49.0000              0              0              0              0              0            100              0           0.00         0.0000
          10468       576.9250     62825.0000      6880.0000      1373.0000        23.0000        64.0000              0              0              0              0              0            100              0           0.00         0.0000
          10469       578.7500     62825.0000      6880.0000      1373.0000         0.0000        64.0000              0              0              0              0              0            100              0           0.00         0.0000
          10470       592.2000     62825.0000      6880.0000      1373.0000         0.0000        64.0000              0              0              0              0              0            100              0           0.00         0.0000
          10471       680.1000     75109.0000      8473.0000      1755.0000        32.0000        93.0000              0              0              0              0              0            100              0           0.00         0.0000
          10472       624.5500     75109.0000      8473.0000      1755.0000        32.0000        93.0000              0              0              0              0              0            100              0           0.00         0.0000
          10473       608.0500     75109.0000      8473.0000      1755.0000        32.0000        93.0000              0              0              0              0              0            100              0           0.00         0.0000
          10474       590.9500     75109.0000      8473.0000      1755.0000        32.0000        93.0000              0              0              0              0              0            100              0           0.00         0.0000
          10475       582.4000     75109.0000      8473.0000      1755.0000        32.0000        93.0000              0              0              0              0              0            100              0           0.00         0.0000
          10476       571.4500     75109.0000      8473.0000      1755.0000        32.0000        93.0000              0              0              0              0              0            100              0           0.00         0.0000
          10477       556.8000     75109.0000      8473.0000      1755.0000        32.0000        93.0000              0              0              0              0              0            100              0           0.00         0.0000
          10478       538.4500     75109.0000      8473.0000      1755.0000        32.0000        93.0000              0              0              0              0              0            100              0           0.00         0.0000
          10479       504.9000     75109.0000      8473.0000      1755.0000        32.0000        93.0000              0              0              0              0              0            100              0           0.00         0.0000
          10480       468.2500     75109.0000      8473.0000      1755.0000        32.0000        93.0000              0              0              0              0              0            100              0           0.00         0.0000
          10481       455.4500     75109.0000      8473.0000      1755.0000        32.0000        93.0000              0              0              0              0              0            100              0           0.00         0.0000
          10482       459.1000     75109.0000      8473.0000      1755.0000        32.0000        93.0000              0              0              0              0              0            100              0           0.00         0.0000
          10483       465.2000     75109.0000      8473.0000      1755.0000        32.0000        93.0000              0              0              0              0              0            100              0           0.00         0.0000
