#___________________________________________________________________________
~VERSION INFORMATION
 VERS.                                 2.0 : CWLS LOG ASCII STANDARD - VERSION 2.0
 WRAP.                                  NO : ONE LINE PER DEPTH STEP
#___________________________________________________________________________
~WELL INFORMATION
 STRT.F                            9906.00 : START DEPTH
 STOP.F                           18092.00 : STOP DEPTH
 STEP.F                                  1 : STEP VALUE
 NULL.                             -999.25 : NULL VALUE
 COMP.      Magnolia Oil & Gas             : COMPANY
 WELL.      Borgstedt OL 2H                : WELL
  FLD.      Giddings (AC)                  : FIELD
  LOC.      Texas                          : LOCATION
 CNTY.      Washington                     : PARISH/COUNTY
 STAT.      Texas                          : STATE
 CTRY.      USA                            : COUNTRY
" SRVC.      PetroLog International, Inc.   : SERVICE COMPANY"
 DATE.      08/07/2021                     : LOG DATE
  API.      42-477-31158                   : API REFERENCE NUMBER
#___________________________________________________________________________
~CURVE INFORMATION
#MNEM.UNITS                                : DESCRIPTION
DEPTH.F                                    :  1 DEPTH
 TGAS.Units                                :  2 Chromatograph_TotalGas
 MTHX.PPM                                  :  3 Chromatograph_MethanePPMMax
 ETHX.PPM                                  :  4 Chromatograph_EthanePPMMax
 PRPX.PPM                                  :  5 Chromatograph_PropanePPMMax
 IBTX.PPM                                  :  6 Chromatograph_IButanePPMMax
 NBTX.PPM                                  :  7 Chromatograph_NButanePPMMax
CEMNT.%                                    :  8 Lithology_Cement
SHALE.%                                    :  9 Lithology_Shale
SILTST.%                                   : 10 Lithology_Siltstone
 SAND.%                                    : 11 Lithology_Sand
 LIME.%                                    : 12 Lithology_Lime
 CHLK.%                                    : 13 Lithology_Chalk
  ASH.%                                    : 14 Lithology_Ash
 FRAC.%                                    : 15 Fracture
Kick/Loss.                                 : 16 Kick/Loss
#___________________________________________________________________________
~A        DEPTH           TGAS           MTHX           ETHX           PRPX           IBTX           NBTX          CEMNT          SHALE         SILTST           SAND           LIME           CHLK            ASH           FRAC      Kick/Loss
# ...
          12626      1065.9500    120416.0000     15674.0000      5109.0000       511.0000      3550.0000              0             10              0              0              0             90              0           0.00         0.0000
          12627      1100.1000    120416.0000     15674.0000      5109.0000       511.0000      3550.0000              0             10              0              0              0             90              0           0.00         0.0000
          12628      1130.6500    120416.0000     15674.0000      5109.0000       511.0000      3550.0000              0             10              0              0              0             90              0           0.00         0.0000
          12629      1145.3000    120416.0000     15674.0000      5109.0000       511.0000      3550.0000              0             10              0              0              0             90              0           0.00         0.0000
          12630      1177.6500    120416.0000     15674.0000      5109.0000       511.0000      3550.0000              0             10              0              0              0             90              0           0.00         0.0000
          12631      1168.5000    120416.0000     15674.0000      5109.0000       511.0000      3550.0000              0             10              0              0              0             90              0           0.00         0.0000
          12632      1185.6000    120416.0000     15674.0000      5109.0000       511.0000      3550.0000              0             10              0              0              0             90              0           0.00         0.0000
          12633      1409.0500    120416.0000     15674.0000      5109.0000       511.0000      3550.0000              0             10              0              0              0             90              0           0.00         0.0000
          12634      1404.1500    120416.0000     15674.0000      5109.0000       511.0000      3550.0000              0             10              0              0              0             90              0           0.00         0.0000
          12635      1218.5500    120416.0000     15674.0000      5109.0000       511.0000      3550.0000              0             10              0              0              0             90              0           0.00         0.0000
          12636      1216.1000    120416.0000     15674.0000      5109.0000       511.0000      3550.0000              0             10              0              0              0             90              0           0.00         0.0000
          12637      1224.6500    120416.0000     15674.0000      5109.0000       511.0000      3550.0000              0             10              0              0              0             90              0           0.00         0.0000
          12638      1236.2750    120416.0000     15674.0000      5109.0000       511.0000      3550.0000              0             10              0              0              0             90              0           0.00         0.0000
          12639      1478.6500    150410.0000     45637.0000     22105.0000      2681.0000      3550.0000              0             10              0              0              0             90              0           0.00         0.0000
          12640      1512.8000    150410.0000     45637.0000     22105.0000      2681.0000      5806.0000              0             10              0              0              0             90              0           0.00         0.0000
          12641      1547.0000    150410.0000     45637.0000     22105.0000      2681.0000      5806.0000              0             10              0              0              0             90              0           0.00         0.0000
          12642      1554.9500    150410.0000     45637.0000     22105.0000      2681.0000      5806.0000              0             10              0              0              0             90              0           0.00         0.0000
          12643      1560.4500    150410.0000     45637.0000     22105.0000      2681.0000      5806.0000              0             10              0              0              0             90              0           0.00         0.0000
          12644      1562.2750    150410.0000     45637.0000     22105.0000      2681.0000      5806.0000              0             10              0              0              0             90              0           0.00         0.0000
          12645      1569.0000    150410.0000     45637.0000     22105.0000      2681.0000      5806.0000              0             10              0              0              0             90              0           0.00         0.0000
          12646      1572.6500    150410.0000     45637.0000     22105.0000      2681.0000      5806.0000              0             10              0              0              0             90              0           0.00         0.0000
          12647      1570.2000    150410.0000     45637.0000     22105.0000      2681.0000      5806.0000              0             10              0              0              0             90              0           0.00         0.0000
          12648      1562.2750    150410.0000     45637.0000     22105.0000      2681.0000      5806.0000              0             10              0              0              0             90              0           0.00         0.0000
          12649      1525.0500    150410.0000     45637.0000     22105.0000      2681.0000      5806.0000              0             10              0              0              0             90              0           0.00         0.0000
          12650      1509.1500    150410.0000     45637.0000     22105.0000      2681.0000      5806.0000              0             10              0              0              0             90              0           0.00         0.0000
          12651      1792.4500    168428.0000     55555.0000     29884.0000      3755.0000      8226.0000              0             10              0              0              0             90              0           0.00         0.0000
          12652      1654.4500    168428.0000     53414.0000     24910.0000      2893.0000      6526.0000              0             10              0              0              0             90              0           0.00         0.0000
          12653      1641.0500    168428.0000     53414.0000     24910.0000      2893.0000      6526.0000              0             10              0              0              0             90              0           0.00         0.0000
          12654      1592.2000    168428.0000     53414.0000     24910.0000      2893.0000      6526.0000              0             10              0              0              0             90              0           0.00         0.0000
          12655      1539.7000    168428.0000     53414.0000     24910.0000      2893.0000      6526.0000              0             10              0              0              0             90              0           0.00         0.0000
          12656      1440.8000    168428.0000     53414.0000     24910.0000      2893.0000      6526.0000              0             10              0              0              0             90              0           0.00         0.0000
          12657      1438.3500    168428.0000     53414.0000     24910.0000      2893.0000      6526.0000              0             10              0              0              0             90              0           0.00         0.0000
          12658      1412.7000    168428.0000     53414.0000     24910.0000      2893.0000      6526.0000              0             10              0              0              0             90              0           0.00         0.0000
          12659      1343.1000    139682.0000     32666.0000     11529.0000      1078.0000      2435.0000              0             10              0              0              0             90              0           0.00         0.0000
