#___________________________________________________________________________
~VERSION INFORMATION
 VERS.                                 2.0 : CWLS LOG ASCII STANDARD - VERSION 2.0
 WRAP.                                  NO : ONE LINE PER DEPTH STEP
#___________________________________________________________________________
~WELL INFORMATION
 STRT.F                            9906.00 : START DEPTH
 STOP.F                           18092.00 : STOP DEPTH
 STEP.F                                  1 : STEP VALUE
 NULL.                             -999.25 : NULL VALUE
 COMP.      Magnolia Oil & Gas             : COMPANY
 WELL.      Borgstedt OL 2H                : WELL
  FLD.      Giddings (AC)                  : FIELD
  LOC.      Texas                          : LOCATION
 CNTY.      Washington                     : PARISH/COUNTY
 STAT.      Texas                          : STATE
 CTRY.      USA                            : COUNTRY
" SRVC.      PetroLog International, Inc.   : SERVICE COMPANY"
 DATE.      08/07/2021                     : LOG DATE
  API.      42-477-31158                   : API REFERENCE NUMBER
#___________________________________________________________________________
~CURVE INFORMATION
#MNEM.UNITS                                : DESCRIPTION
DEPTH.F                                    :  1 DEPTH
 TGAS.Units                                :  2 Chromatograph_TotalGas
 MTHX.PPM                                  :  3 Chromatograph_MethanePPMMax
 ETHX.PPM                                  :  4 Chromatograph_EthanePPMMax
 PRPX.PPM                                  :  5 Chromatograph_PropanePPMMax
 IBTX.PPM                                  :  6 Chromatograph_IButanePPMMax
 NBTX.PPM                                  :  7 Chromatograph_NButanePPMMax
CEMNT.%                                    :  8 Lithology_Cement
SHALE.%                                    :  9 Lithology_Shale
SILTST.%                                   : 10 Lithology_Siltstone
 SAND.%                                    : 11 Lithology_Sand
 LIME.%                                    : 12 Lithology_Lime
 CHLK.%                                    : 13 Lithology_Chalk
  ASH.%                                    : 14 Lithology_Ash
 FRAC.%                                    : 15 Fracture
Kick/Loss.                                 : 16 Kick/Loss
#___________________________________________________________________________
~A        DEPTH           TGAS           MTHX           ETHX           PRPX           IBTX           NBTX          CEMNT          SHALE         SILTST           SAND           LIME           CHLK            ASH           FRAC      Kick/Loss
# ...
          11538       451.7500     82704.0000     11940.0000      3324.0000       275.0000       670.0000              0              0              0              0              0            100              0           0.00         0.0000
          11539       385.8250     82704.0000     11940.0000      3324.0000       275.0000       670.0000              0              0              0              0              0            100              0           0.00         0.0000
          11540       389.5000     82704.0000     11940.0000      3324.0000       275.0000       670.0000              0              0              0              0              0            100              0           0.00         0.0000
          11541       434.7000     82704.0000     11940.0000      3324.0000       275.0000       670.0000              0              0              0              0              0            100              0           0.00         0.0000
          11542       500.6000     82704.0000     11940.0000      3324.0000       275.0000       670.0000              0              0              0              0              0            100              0           0.00         0.0000
          11543       581.2000     82704.0000     11940.0000      3324.0000       275.0000       670.0000              0              0              0              0              0            100              0           0.00         0.0000
          11544       680.7000     82704.0000     11940.0000      3324.0000       275.0000       670.0000              0              0              0              0              0            100              0           0.00         0.0000
          11545       780.2250     82704.0000     11940.0000      3324.0000       275.0000       670.0000              0              0              0              0              0            100              0           0.00         0.0000
          11546       890.1000     82704.0000     11940.0000      3324.0000       275.0000       670.0000              0              0              0              0              0            100              0           0.00         0.0000
          11547      1004.9000     82704.0000     11940.0000      3324.0000       275.0000       670.0000              0              0              0              0              0            100              0           0.00         0.0000
          11548      1065.9500     82704.0000     11940.0000      3324.0000       275.0000       670.0000              0              0              0              0              0            100              0           0.00         0.0000
          11549      1090.9750     82704.0000     11940.0000      3324.0000       275.0000       670.0000              0              0              0              0              0            100              0           0.00         0.0000
          11550      1091.6000     82704.0000     11940.0000      3324.0000       275.0000       670.0000              0              0              0              0              0            100              0           0.00         0.0000
          11551      1074.5000     82704.0000     11940.0000      3324.0000       275.0000       670.0000              0              0              0              0              0            100              0           0.00         0.0000
          11552      1042.1250     82704.0000     11940.0000      3324.0000       275.0000       670.0000              0              0              0              0              0            100              0           0.00         0.0000
          11553      1013.4500     82704.0000     11940.0000      3324.0000       275.0000       670.0000              0              0              0              0              0            100              0           0.00         0.0000
          11554       999.4000     82704.0000     11940.0000      3324.0000       275.0000       670.0000              0              0              0              0              0            100              0           0.00         0.0000
          11555      1014.6750     82704.0000     11940.0000      3324.0000       275.0000       670.0000              0              0              0              0              0            100              0           0.00         0.0000
          11556      1040.2750     82704.0000     11940.0000      3324.0000       275.0000       670.0000              0              0              0              0              0            100              0           0.00         0.0000
          11557      1067.7750     82704.0000     11940.0000      3324.0000       275.0000       670.0000              0              0              0              0              0            100              0           0.00         0.0000
          11558      1090.3500     82704.0000     11940.0000      3324.0000       275.0000       670.0000              0              0              0              0              0            100              0           0.00         0.0000
          11559      1097.0750     82704.0000     11940.0000      3324.0000       275.0000       670.0000              0              0              0              0              0            100              0           0.00         0.0000
          11560      1096.4500     82704.0000     11940.0000      3324.0000       275.0000       670.0000              0              0              0              0              0            100              0           0.00         0.0000
          11561      1088.5250     82704.0000     11940.0000      3324.0000       275.0000       670.0000              0              0              0              0              0            100              0           0.00         0.0000
          11562      1070.8250     82704.0000     11940.0000      3324.0000       275.0000       670.0000              0              0              0              0              0            100              0           0.00         0.0000
          11563      1043.3500     82704.0000     11940.0000      3324.0000       275.0000       670.0000              0              0              0              0              0            100              0           0.00         0.0000
          11564      1022.0000     82704.0000     11940.0000      3324.0000       275.0000       670.0000              0              0              0              0              0            100              0           0.00         0.0000
          11565      1031.1500     82704.0000     11940.0000      3324.0000       275.0000       670.0000              0              0              0              0              0            100              0           0.00         0.0000
          11566      1052.5000     82704.0000     11940.0000      3324.0000       275.0000       670.0000              0              0              0              0              0            100              0           0.00         0.0000
          11567      1075.1000     82704.0000     11940.0000      3324.0000       275.0000       670.0000              0              0              0              0              0            100              0           0.00         0.0000
          11568      1086.7000     82704.0000     11940.0000      3324.0000       275.0000       670.0000              0              0              0              0              0            100              0           0.00         0.0000
          11569      1097.0750     82704.0000     11940.0000      3324.0000       275.0000       670.0000              0              0              0              0              0            100              0           0.00         0.0000
          11570      1111.1000     82704.0000     11940.0000      3324.0000       275.0000       670.0000              0              0              0              0              0            100              0           0.00         0.0000
          11571      1130.6500     82704.0000     11940.0000      3324.0000       275.0000       670.0000              0              0              0              0              0            100              0           0.00         0.0000
