#___________________________________________________________________________
~VERSION INFORMATION
 VERS.                                 2.0 : CWLS LOG ASCII STANDARD - VERSION 2.0
 WRAP.                                  NO : ONE LINE PER DEPTH STEP
#___________________________________________________________________________
~WELL INFORMATION
 STRT.F                            9906.00 : START DEPTH
 STOP.F                           18092.00 : STOP DEPTH
 STEP.F                                  1 : STEP VALUE
 NULL.                             -999.25 : NULL VALUE
 COMP.      Magnolia Oil & Gas             : COMPANY
 WELL.      Borgstedt OL 2H                : WELL
  FLD.      Giddings (AC)                  : FIELD
  LOC.      Texas                          : LOCATION
 CNTY.      Washington                     : PARISH/COUNTY
 STAT.      Texas                          : STATE
 CTRY.      USA                            : COUNTRY
" SRVC.      PetroLog International, Inc.   : SERVICE COMPANY"
 DATE.      08/07/2021                     : LOG DATE
  API.      42-477-31158                   : API REFERENCE NUMBER
#___________________________________________________________________________
~CURVE INFORMATION
#MNEM.UNITS                                : DESCRIPTION
DEPTH.F                                    :  1 DEPTH
 TGAS.Units                                :  2 Chromatograph_TotalGas
 MTHX.PPM                                  :  3 Chromatograph_MethanePPMMax
 ETHX.PPM                                  :  4 Chromatograph_EthanePPMMax
 PRPX.PPM                                  :  5 Chromatograph_PropanePPMMax
 IBTX.PPM                                  :  6 Chromatograph_IButanePPMMax
 NBTX.PPM                                  :  7 Chromatograph_NButanePPMMax
CEMNT.%                                    :  8 Lithology_Cement
SHALE.%                                    :  9 Lithology_Shale
SILTST.%                                   : 10 Lithology_Siltstone
 SAND.%                                    : 11 Lithology_Sand
 LIME.%                                    : 12 Lithology_Lime
 CHLK.%                                    : 13 Lithology_Chalk
  ASH.%                                    : 14 Lithology_Ash
 FRAC.%                                    : 15 Fracture
Kick/Loss.                                 : 16 Kick/Loss
#___________________________________________________________________________
~A        DEPTH           TGAS           MTHX           ETHX           PRPX           IBTX           NBTX          CEMNT          SHALE         SILTST           SAND           LIME           CHLK            ASH           FRAC      Kick/Loss
# ...
          13170       938.9500    121375.0000     17983.0000      6192.0000       926.0000      2010.0000              0              0              0              0              0            100              0           0.00         0.0000
          13171       891.9500    121375.0000     17983.0000      6192.0000       926.0000      2010.0000              0              0              0              0              0            100              0           0.00         0.0000
          13172       885.2500    121375.0000     17983.0000      6192.0000       926.0000      2010.0000              0              0              0              0              0            100              0           0.00         0.0000
          13173       904.7500    121375.0000     17983.0000      6192.0000       926.0000      2010.0000              0              0              0              0              0            100              0           0.00         0.0000
          13174       936.5000    121375.0000     17983.0000      6192.0000       926.0000      2010.0000              0              0              0              0              0            100              0           0.00         0.0000
          13175       959.7000    121375.0000     17983.0000      6192.0000       926.0000      2010.0000              0              0              0              0              0            100              0           0.00         0.0000
          13176       989.0000    121375.0000     17983.0000      6192.0000       926.0000      2010.0000              0              0              0              0              0            100              0           0.00         0.0000
          13177      1008.5500    121375.0000     17983.0000      6192.0000       926.0000      2010.0000              0              0              0              0              0            100              0           0.00         0.0000
          13178      1015.9000    121375.0000     17983.0000      6192.0000       926.0000      2010.0000              0              0              0              0              0            100              0           0.00         0.0000
          13179      1035.4250    121375.0000     17983.0000      6192.0000       926.0000      2010.0000              0              0              0              0              0            100              0           0.00         0.0000
          13180      1047.0000    121375.0000     17983.0000      6192.0000       926.0000      2010.0000              0              0              0              0              0            100              0           0.00         0.0000
          13181       998.8000    121375.0000     17983.0000      6192.0000       926.0000      2010.0000              0              0              0              0              0            100              0           0.00         0.0000
          13182      1016.5000    121375.0000     17983.0000      6192.0000       926.0000      2010.0000              0              0              0              0              0            100              0           0.00         0.0000
          13183      1040.3000    121375.0000     17983.0000      6192.0000       926.0000      2010.0000              0              0              0              0              0            100              0           0.00         0.0000
          13184      1053.7500    121375.0000     17983.0000      6192.0000       926.0000      2010.0000              0              0              0              0              0            100              0           0.00         0.0000
          13185      1058.6250    121375.0000     17983.0000      6192.0000       926.0000      2010.0000              0              0              0              0              0            100              0           0.00         0.0000
          13186      1057.4000    121375.0000     17983.0000      6192.0000       926.0000      2010.0000              0              0              0              0              0            100              0           0.00         0.0000
          13187      1067.1500    121375.0000     17983.0000      6192.0000       926.0000      2010.0000              0              0              0              0              0            100              0           0.00         0.0000
          13188      1076.9500    121375.0000     17983.0000      6192.0000       926.0000      2010.0000              0              0              0              0              0            100              0           0.00         0.0000
          13189      1083.0500    121375.0000     17983.0000      6192.0000       926.0000      2010.0000              0              0              0              0              0            100              0           0.00         0.0000
          13190      1090.3500    121375.0000     17983.0000      6192.0000       926.0000      2010.0000              0              0              0              0              0            100              0           0.00         0.0000
          13191      1093.4250    121375.0000     17983.0000      6192.0000       926.0000      2010.0000              0              0              0              0              0            100              0           0.00         0.0000
          13192      1095.2500    121375.0000     17983.0000      6192.0000       926.0000      2010.0000              0              0              0              0              0            100              0           0.00         0.0000
          13193      1095.2500    121375.0000     17983.0000      6192.0000       926.0000      2010.0000              0              0              0              0              0            100              0           0.00         0.0000
          13194      1087.9000    121375.0000     17983.0000      6192.0000       926.0000      2010.0000              0              0              0              0              0            100              0           0.00         0.0000
          13195      1064.7000    121375.0000     17983.0000      6192.0000       926.0000      2010.0000              0              0              0              0              0            100              0           0.00         0.0000
          13196      1045.1750    153550.0000     21941.0000      7865.0000      1110.0000      2452.0000              0              0              0              0              0            100              0           0.00         0.0000
          13197      1037.8500    153550.0000     21941.0000      7865.0000      1110.0000      2452.0000              0              0              0              0              0            100              0           0.00         0.0000
          13198      1036.6500    153550.0000     21941.0000      7865.0000      1110.0000      2452.0000              0              0              0              0              0            100              0           0.00         0.0000
          13199      1050.0500    153550.0000     21941.0000      7865.0000      1110.0000      2452.0000              0              0              0              0              0            100              0           0.00         0.0000
          13200      1070.8000    153550.0000     21941.0000      7865.0000      1110.0000      2452.0000              0              0              0              0              0            100              0           0.00         0.0000
          13201      1096.4500    153550.0000     21941.0000      7865.0000      1110.0000      2452.0000              0              0              0              0              0            100              0           0.00         0.0000
          13202      1122.1000    153550.0000     21941.0000      7865.0000      1110.0000      2452.0000              0              0              0              0              0            100              0           0.00         0.0000
          13203      1310.1500    153550.0000     21941.0000      7865.0000      1110.0000      2452.0000              0              0              0              0              0            100              0           0.00         0.0000
