#___________________________________________________________________________
~VERSION INFORMATION
 VERS.                                 2.0 : CWLS LOG ASCII STANDARD - VERSION 2.0
 WRAP.                                  NO : ONE LINE PER DEPTH STEP
#___________________________________________________________________________
~WELL INFORMATION
 STRT.F                            9906.00 : START DEPTH
 STOP.F                           18092.00 : STOP DEPTH
 STEP.F                                  1 : STEP VALUE
 NULL.                             -999.25 : NULL VALUE
 COMP.      Magnolia Oil & Gas             : COMPANY
 WELL.      Borgstedt OL 2H                : WELL
  FLD.      Giddings (AC)                  : FIELD
  LOC.      Texas                          : LOCATION
 CNTY.      Washington                     : PARISH/COUNTY
 STAT.      Texas                          : STATE
 CTRY.      USA                            : COUNTRY
" SRVC.      PetroLog International, Inc.   : SERVICE COMPANY"
 DATE.      08/07/2021                     : LOG DATE
  API.      42-477-31158                   : API REFERENCE NUMBER
#___________________________________________________________________________
~CURVE INFORMATION
#MNEM.UNITS                                : DESCRIPTION
DEPTH.F                                    :  1 DEPTH
 TGAS.Units                                :  2 Chromatograph_TotalGas
 MTHX.PPM                                  :  3 Chromatograph_MethanePPMMax
 ETHX.PPM                                  :  4 Chromatograph_EthanePPMMax
 PRPX.PPM                                  :  5 Chromatograph_PropanePPMMax
 IBTX.PPM                                  :  6 Chromatograph_IButanePPMMax
 NBTX.PPM                                  :  7 Chromatograph_NButanePPMMax
CEMNT.%                                    :  8 Lithology_Cement
SHALE.%                                    :  9 Lithology_Shale
SILTST.%                                   : 10 Lithology_Siltstone
 SAND.%                                    : 11 Lithology_Sand
 LIME.%                                    : 12 Lithology_Lime
 CHLK.%                                    : 13 Lithology_Chalk
  ASH.%                                    : 14 Lithology_Ash
 FRAC.%                                    : 15 Fracture
Kick/Loss.                                 : 16 Kick/Loss
#___________________________________________________________________________
~A        DEPTH           TGAS           MTHX           ETHX           PRPX           IBTX           NBTX          CEMNT          SHALE         SILTST           SAND           LIME           CHLK            ASH           FRAC      Kick/Loss
# ...
          13714      1841.2750    171351.0000     37693.0000     12936.0000      1335.0000      2477.0000              0              0              0              0              0            100              0           0.00         0.0000
          13715      1878.5000    171351.0000     37693.0000     12936.0000      1335.0000      2477.0000              0              0              0              0              0            100              0           0.00         0.0000
          13716      1943.8500    171351.0000     37693.0000     12936.0000      1335.0000      2477.0000              0              0              0              0              0            100              0           0.00         0.0000
          13717      1943.2250    171351.0000     37693.0000     12936.0000      1335.0000      2477.0000              0              0              0              0              0            100              0           0.00         0.0000
          13718      1925.5000    171351.0000     37693.0000     12936.0000      1335.0000      2477.0000              0              0              0              0              0            100              0           0.00         0.0000
          13719      1913.3250    171351.0000     37693.0000     12936.0000      1335.0000      2477.0000              0              0              0              0              0            100              0           0.00         0.0000
          13720      1866.9000    171351.0000     37693.0000     12936.0000      1335.0000      2477.0000              0              0              0              0              0            100              0           0.00         0.0000
          13721      1747.2500    171351.0000     37693.0000     12936.0000      1335.0000      2477.0000              0              0              0              0              0            100              0           0.00         0.0000
          13722      1597.0500    171351.0000     37693.0000     12936.0000      1335.0000      2477.0000              0              0              0              0              0            100              0           0.00         0.0000
          13723      1413.3000    171351.0000     37693.0000     12936.0000      1335.0000      2477.0000              0              0              0              0              0            100              0           0.00         0.0000
          13724      1198.4250     95996.0000     21974.0000      8263.0000      1022.0000      1853.0000              0              0              0              0              0            100              0           0.00         0.0000
          13725      1036.6500     95996.0000     21974.0000      8263.0000      1022.0000      1853.0000              0              0              0              0              0            100              0           0.00         0.0000
          13726       856.5250     95996.0000     21974.0000      8263.0000      1022.0000      1853.0000              0              0              0              0              0            100              0           0.00         0.0000
          13727       670.3250     95996.0000     21974.0000      8263.0000      1022.0000      1853.0000              0              0              0              0              0            100              0           0.00         0.0000
          13728       569.0000     95996.0000     21974.0000      8263.0000      1022.0000      1853.0000              0              0              0              0              0            100              0           0.00         0.0000
          13729       471.9000     95996.0000     21974.0000      8263.0000      1022.0000      1853.0000              0              0              0              0              0            100              0           0.00         0.0000
          13730       409.6500     95996.0000     21974.0000      8263.0000      1022.0000      1853.0000              0              0              0              0              0            100              0           0.00         0.0000
          13731       363.8500     95996.0000     21974.0000      8263.0000      1022.0000      1853.0000              0              0              0              0              0            100              0           0.00         0.0000
          13732       317.4750     95996.0000     21974.0000      8263.0000      1022.0000      1853.0000              0              0              0              0              0            100              0           0.00         0.0000
          13733       295.5000     95996.0000     21974.0000      8263.0000      1022.0000      1853.0000              0              0              0              0              0            100              0           0.00         0.0000
          13734       332.1000     95996.0000     21974.0000      8263.0000      1022.0000      1853.0000              0              0              0              0              0            100              0           0.00         0.0000
          13735       392.5500     95996.0000     21974.0000      8263.0000      1022.0000      1853.0000              0              0              0              0              0            100              0           0.00         0.0000
          13736       462.7500     95996.0000     21974.0000      8263.0000      1022.0000      1853.0000              0              0              0              0              0            100              0           0.00         0.0000
          13737       478.6500     95996.0000     21974.0000      8263.0000      1022.0000      1853.0000              0              0              0              0              0            100              0           0.00         0.0000
          13738       473.7500     95996.0000     21974.0000      8263.0000      1022.0000      1853.0000              0              0              0              0              0            100              0           0.00         0.0000
          13739       611.7000     95996.0000     21974.0000      8263.0000      1022.0000      1853.0000              0              0              0              0              0            100              0           0.00         0.0000
          13740       776.5500     95996.0000     21974.0000      8263.0000      1022.0000      1853.0000              0              0              0              0              0            100              0           0.00         0.0000
          13741      1012.2000     95996.0000     21974.0000      8263.0000      1022.0000      1853.0000              0              0              0              0              0            100              0           0.00         0.0000
          13742      1239.3250     95996.0000     21974.0000      8263.0000      1022.0000      1853.0000              0              0              0              0              0            100              0           0.00         0.0000
          13743      1423.7000     95996.0000     21974.0000      8263.0000      1022.0000      1853.0000              0              0              0              0              0            100              0           0.00         0.0000
          13744      1559.2000     95996.0000     21974.0000      8263.0000      1022.0000      1853.0000              0              0              0              0              0            100              0           0.00         0.0000
          13745      1692.9250     95996.0000     21974.0000      8263.0000      1022.0000      1853.0000              0              0              0              0              0            100              0           0.00         0.0000
          13746      1760.7000     95996.0000     21974.0000      8263.0000      1022.0000      1853.0000              0              0              0              0              0            100              0           0.00         0.0000
          13747      1802.2000     95996.0000     21974.0000      8263.0000      1022.0000      1853.0000              0              0              0              0              0            100              0           0.00         0.0000
