#___________________________________________________________________________
~VERSION INFORMATION
 VERS.                                 2.0 : CWLS LOG ASCII STANDARD - VERSION 2.0
 WRAP.                                  NO : ONE LINE PER DEPTH STEP
#___________________________________________________________________________
~WELL INFORMATION
 STRT.F                            9906.00 : START DEPTH
 STOP.F                           18092.00 : STOP DEPTH
 STEP.F                                  1 : STEP VALUE
 NULL.                             -999.25 : NULL VALUE
 COMP.      Magnolia Oil & Gas             : COMPANY
 WELL.      Borgstedt OL 2H                : WELL
  FLD.      Giddings (AC)                  : FIELD
  LOC.      Texas                          : LOCATION
 CNTY.      Washington                     : PARISH/COUNTY
 STAT.      Texas                          : STATE
 CTRY.      USA                            : COUNTRY
" SRVC.      PetroLog International, Inc.   : SERVICE COMPANY"
 DATE.      08/07/2021                     : LOG DATE
  API.      42-477-31158                   : API REFERENCE NUMBER
#___________________________________________________________________________
~CURVE INFORMATION
#MNEM.UNITS                                : DESCRIPTION
DEPTH.F                                    :  1 DEPTH
 TGAS.Units                                :  2 Chromatograph_TotalGas
 MTHX.PPM                                  :  3 Chromatograph_MethanePPMMax
 ETHX.PPM                                  :  4 Chromatograph_EthanePPMMax
 PRPX.PPM                                  :  5 Chromatograph_PropanePPMMax
 IBTX.PPM                                  :  6 Chromatograph_IButanePPMMax
 NBTX.PPM                                  :  7 Chromatograph_NButanePPMMax
CEMNT.%                                    :  8 Lithology_Cement
SHALE.%                                    :  9 Lithology_Shale
SILTST.%                                   : 10 Lithology_Siltstone
 SAND.%                                    : 11 Lithology_Sand
 LIME.%                                    : 12 Lithology_Lime
 CHLK.%                                    : 13 Lithology_Chalk
  ASH.%                                    : 14 Lithology_Ash
 FRAC.%                                    : 15 Fracture
Kick/Loss.                                 : 16 Kick/Loss
#___________________________________________________________________________
~A        DEPTH           TGAS           MTHX           ETHX           PRPX           IBTX           NBTX          CEMNT          SHALE         SILTST           SAND           LIME           CHLK            ASH           FRAC      Kick/Loss
# ...
          12082      1017.1000    117987.0000     18151.0000      5484.0000       469.0000      1095.0000              0              0              0              0              0            100              0           0.00         0.0000
          12083      1068.4000    117987.0000     18151.0000      5484.0000       469.0000      1095.0000              0              0              0              0              0            100              0           0.00         0.0000
          12084      1089.1500    117987.0000     18151.0000      5484.0000       469.0000      1095.0000              0              0              0              0              0            100              0           0.00         0.0000
          12085      1078.1500    117987.0000     18151.0000      5484.0000       469.0000      1095.0000              0              0              0              0              0            100              0           0.00         0.0000
          12086       891.3250    117987.0000     18151.0000      5484.0000       469.0000      1095.0000              0              0              0              0              0            100              0           0.00         0.0000
          12087      1023.2000    117987.0000     18151.0000      5484.0000       469.0000      1095.0000              0              0              0              0              0            100              0           0.00         0.0000
          12088      1068.4000    122840.0000     15334.0000      4001.0000       228.0000       905.0000              0              0              0              0              0            100              0           0.00         0.0000
          12089      1084.8750    122840.0000     15334.0000      4001.0000       228.0000       905.0000              0              0              0              0              0            100              0           0.00         0.0000
          12090      1048.8250    122840.0000     15334.0000      4001.0000       228.0000       905.0000              0              0              0              0              0            100              0           0.00         0.0000
          12091       923.1000    122840.0000     15334.0000      4001.0000       228.0000       905.0000              0              0              0              0              0            100              0           0.00         0.0000
          12092      1017.1000    122840.0000     15334.0000      4001.0000       228.0000       905.0000              0              0              0              0              0            100              0           0.00         0.0000
          12093      1051.3000    122840.0000     15334.0000      4001.0000       228.0000       905.0000              0              0              0              0              0            100              0           0.00         0.0000
          12094      1074.5000    122840.0000     15334.0000      4001.0000       228.0000       905.0000              0              0              0              0              0            100              0           0.00         0.0000
          12095      1062.2500    122840.0000     15334.0000      4001.0000       228.0000       905.0000              0              0              0              0              0            100              0           0.00         0.0000
          12096       941.3750    122840.0000     15334.0000      4001.0000       228.0000       905.0000              0              0              0              0              0            100              0           0.00         0.0000
          12097      1089.1500    122840.0000     15334.0000      4001.0000       237.0000       704.0000              0              0              0              0              0            100              0           0.00         0.0000
          12098      1097.7000    118965.0000     14045.0000      3813.0000       237.0000       704.0000              0              0              0              0              0            100              0           0.00         0.0000
          12099      1091.6000    118965.0000     14045.0000      3813.0000       237.0000       704.0000              0              0              0              0              0            100              0           0.00         0.0000
          12100      1017.7250    118965.0000     14045.0000      3813.0000       237.0000       704.0000              0              0              0              0              0            100              0           0.00         0.0000
          12101       925.5000    118965.0000     14045.0000      3813.0000       237.0000       704.0000              0              0              0              0              0            100              0           0.00         0.0000
          12102       975.6000    118965.0000     14045.0000      3813.0000       237.0000       704.0000              0              0              0              0              0            100              0           0.00         0.0000
          12103      1035.4000    118965.0000     14045.0000      3813.0000       237.0000       704.0000              0              0              0              0              0            100              0           0.00         0.0000
          12104      1086.0750    118965.0000     14045.0000      3813.0000       237.0000       704.0000              0              0              0              0              0            100              0           0.00         0.0000
          12105      1123.3000    138638.0000     15984.0000      4602.0000       275.0000       705.0000              0              0              0              0              0            100              0           0.00         0.0000
          12106       247.8500    138638.0000     15984.0000      4602.0000       275.0000       705.0000              0              0              0              0              0            100              0           0.00         0.0000
          12107       197.2000    138638.0000     15984.0000      4602.0000       275.0000       705.0000              0              0              0              0              0            100              0           0.00         0.0000
          12108       177.0500    138638.0000     15984.0000      4602.0000       275.0000       705.0000              0              0              0              0              0            100              0           0.00         0.0000
          12109       156.3000    138638.0000     15984.0000      4602.0000       275.0000       705.0000              0              0              0              0              0            100              0           0.00         0.0000
          12110       142.2500    138638.0000     15984.0000      4602.0000       275.0000       705.0000              0              0              0              0              0            100              0           0.00         0.0000
          12111       130.0500    138638.0000     15984.0000      4602.0000       275.0000       705.0000              0              0              0              0              0            100              0           0.00         0.0000
          12112       123.3000    138638.0000     15984.0000      4602.0000       275.0000       705.0000              0              0              0              0              0            100              0           0.00         0.0000
          12113       119.6500    138638.0000     15984.0000      4602.0000       275.0000       705.0000              0              0              0              0              0            100              0           0.00         0.0000
          12114       114.1750    138638.0000     15984.0000      4602.0000       275.0000       705.0000              0              0              0              0              0            100              0           0.00         0.0000
          12115       112.3500    138638.0000     15984.0000      4602.0000       275.0000       705.0000              0              0              0              0              0            100              0           0.00         0.0000
