#___________________________________________________________________________
~VERSION INFORMATION
 VERS.                                 2.0 : CWLS LOG ASCII STANDARD - VERSION 2.0
 WRAP.                                  NO : ONE LINE PER DEPTH STEP
#___________________________________________________________________________
~WELL INFORMATION
 STRT.F                            9906.00 : START DEPTH
 STOP.F                           18092.00 : STOP DEPTH
 STEP.F                                  1 : STEP VALUE
 NULL.                             -999.25 : NULL VALUE
 COMP.      Magnolia Oil & Gas             : COMPANY
 WELL.      Borgstedt OL 2H                : WELL
  FLD.      Giddings (AC)                  : FIELD
  LOC.      Texas                          : LOCATION
 CNTY.      Washington                     : PARISH/COUNTY
 STAT.      Texas                          : STATE
 CTRY.      USA                            : COUNTRY
" SRVC.      PetroLog International, Inc.   : SERVICE COMPANY"
 DATE.      08/07/2021                     : LOG DATE
  API.      42-477-31158                   : API REFERENCE NUMBER
#___________________________________________________________________________
~CURVE INFORMATION
#MNEM.UNITS                                : DESCRIPTION
DEPTH.F                                    :  1 DEPTH
 TGAS.Units                                :  2 Chromatograph_TotalGas
 MTHX.PPM                                  :  3 Chromatograph_MethanePPMMax
 ETHX.PPM                                  :  4 Chromatograph_EthanePPMMax
 PRPX.PPM                                  :  5 Chromatograph_PropanePPMMax
 IBTX.PPM                                  :  6 Chromatograph_IButanePPMMax
 NBTX.PPM                                  :  7 Chromatograph_NButanePPMMax
CEMNT.%                                    :  8 Lithology_Cement
SHALE.%                                    :  9 Lithology_Shale
SILTST.%                                   : 10 Lithology_Siltstone
 SAND.%                                    : 11 Lithology_Sand
 LIME.%                                    : 12 Lithology_Lime
 CHLK.%                                    : 13 Lithology_Chalk
  ASH.%                                    : 14 Lithology_Ash
 FRAC.%                                    : 15 Fracture
Kick/Loss.                                 : 16 Kick/Loss
#___________________________________________________________________________
~A        DEPTH           TGAS           MTHX           ETHX           PRPX           IBTX           NBTX          CEMNT          SHALE         SILTST           SAND           LIME           CHLK            ASH           FRAC      Kick/Loss
# ...
          10994      1835.1500    217533.0000     39294.0000     11020.0000      1177.0000      1911.0000              0              0              0              0              0            100              0           0.00         0.0000
          10995      1456.3200     70914.0000     19886.0000      7570.0000       870.0000      1655.0000              0              0              0              0              0            100              0           0.00         0.0000
          10996      1323.3300     70914.0000     19886.0000      7570.0000       870.0000      1655.0000              0              0              0              0              0            100              0           0.00         0.0000
          10997      1356.3200     70914.0000     19886.0000      7570.0000       870.0000      1655.0000              0              0              0              0              0            100              0           0.00         0.0000
          10998      1293.8500     70914.0000     19886.0000      7570.0000       870.0000      1655.0000              0              0              0              0              0            100              0           0.00         0.0000
          10999      1359.6900     70914.0000     19886.0000      7570.0000       870.0000      1655.0000              0              0              0              0              0            100              0           0.00         0.0000
          11000       985.3500     70914.0000     19886.0000      7570.0000       870.0000      1655.0000              0              0              0              0              0            100              0           0.00         0.0000
          11001      1341.9000     70914.0000     19886.0000      7570.0000       870.0000      1655.0000              0              0              0              0              0            100              0           0.00         0.0000
          11002      1633.7000     70914.0000     19886.0000      7570.0000       870.0000      1655.0000              0              0              0              0              0            100              0           0.00         0.0000
          11003      1756.4250     70914.0000     19886.0000      7570.0000       870.0000      1655.0000              0              0              0              0              0            100              0           0.00         0.0000
          11004      1823.5750     70914.0000     19886.0000      7570.0000       870.0000      1655.0000              0              0              0              0              0            100              0           0.00         0.0000
          11005      1850.4250     70914.0000     19886.0000      7570.0000       870.0000      1655.0000              0              0              0              0              0            100              0           0.00         0.0000
          11006      1869.9750    192512.0000     47184.0000     15946.0000      1967.0000      3028.0000              0              0              0              0              0            100              0           0.00         0.0000
          11007      1871.8000    192512.0000     47184.0000     15946.0000      1967.0000      3028.0000              0              0              0              0              0            100              0           0.00         0.0000
          11008      1887.6500    192512.0000     47184.0000     15946.0000      1967.0000      3028.0000              0              0              0              0              0            100              0           0.00         0.0000
          11009      1887.0500    192512.0000     47184.0000     15946.0000      1967.0000      3028.0000              0              0              0              0              0            100              0           0.00         0.0000
          11010      1858.3500    192512.0000     47184.0000     15946.0000      1967.0000      3028.0000              0              0              0              0              0            100              0           0.00         0.0000
          11011      1841.8750    192512.0000     47184.0000     15946.0000      1967.0000      3028.0000              0              0              0              0              0            100              0           0.00         0.0000
          11012      1820.5000    192512.0000     47184.0000     15946.0000      1967.0000      3028.0000              0              0              0              0              0            100              0           0.00         0.0000
          11013      1818.6750    192512.0000     47184.0000     15946.0000      1967.0000      3028.0000              0              0              0              0              0            100              0           0.00         0.0000
          11014      1799.7500    192512.0000     47184.0000     15946.0000      1967.0000      3028.0000              0              0              0              0              0            100              0           0.00         0.0000
          11015      1779.0000    192512.0000     47184.0000     15946.0000      1967.0000      3028.0000              0              0              0              0              0            100              0           0.00         0.0000
          11016      1742.3750    192512.0000     47184.0000     15946.0000      1967.0000      3028.0000              0              0              0              0              0            100              0           0.00         0.0000
          11017      1695.9500    192512.0000     47184.0000     15946.0000      1967.0000      3028.0000              0              0              0              0              0            100              0           0.00         0.0000
          11018      1641.0250    192512.0000     47184.0000     15946.0000      1967.0000      3028.0000              0              0              0              0              0            100              0           0.00         0.0000
          11019      1591.5750    192512.0000     47184.0000     15946.0000      1967.0000      3028.0000              0              0              0              0              0            100              0           0.00         0.0000
          11020      1536.0000    192512.0000     47184.0000     15946.0000      1967.0000      3028.0000              0              0              0              0              0            100              0           0.00         0.0000
          11021      1493.9000    192512.0000     47184.0000     15946.0000      1967.0000      3028.0000              0              0              0              0              0            100              0           0.00         0.0000
          11022      1435.9000    192512.0000     47184.0000     15946.0000      1967.0000      3028.0000              0              0              0              0              0            100              0           0.00         0.0000
          11023      1395.6000    192512.0000     47184.0000     15946.0000      1967.0000      3028.0000              0              0              0              0              0            100              0           0.00         0.0000
          11024      1382.2000    192512.0000     47184.0000     15946.0000      1967.0000      3028.0000              0              0              0              0              0            100              0           0.00         0.0000
          11025      1141.0250    151184.0000     30374.0000      8287.0000       734.0000      1240.0000              0              0              0              0              0            100              0           0.00         0.0000
          11026       932.8500    151184.0000     30374.0000      8287.0000       734.0000      1240.0000              0              0              0              0              0            100              0           0.00         0.0000
          11027       757.6500    151184.0000     30374.0000      8287.0000       734.0000      1240.0000              0              0              0              0              0            100              0           0.00         0.0000
