#___________________________________________________________________________
~VERSION INFORMATION
 VERS.                                 2.0 : CWLS LOG ASCII STANDARD - VERSION 2.0
 WRAP.                                  NO : ONE LINE PER DEPTH STEP
#___________________________________________________________________________
~WELL INFORMATION
 STRT.F                            9906.00 : START DEPTH
 STOP.F                           18092.00 : STOP DEPTH
 STEP.F                                  1 : STEP VALUE
 NULL.                             -999.25 : NULL VALUE
 COMP.      Magnolia Oil & Gas             : COMPANY
 WELL.      Borgstedt OL 2H                : WELL
  FLD.      Giddings (AC)                  : FIELD
  LOC.      Texas                          : LOCATION
 CNTY.      Washington                     : PARISH/COUNTY
 STAT.      Texas                          : STATE
 CTRY.      USA                            : COUNTRY
" SRVC.      PetroLog International, Inc.   : SERVICE COMPANY"
 DATE.      08/07/2021                     : LOG DATE
  API.      42-477-31158                   : API REFERENCE NUMBER
#___________________________________________________________________________
~CURVE INFORMATION
#MNEM.UNITS                                : DESCRIPTION
DEPTH.F                                    :  1 DEPTH
 TGAS.Units                                :  2 Chromatograph_TotalGas
 MTHX.PPM                                  :  3 Chromatograph_MethanePPMMax
 ETHX.PPM                                  :  4 Chromatograph_EthanePPMMax
 PRPX.PPM                                  :  5 Chromatograph_PropanePPMMax
 IBTX.PPM                                  :  6 Chromatograph_IButanePPMMax
 NBTX.PPM                                  :  7 Chromatograph_NButanePPMMax
CEMNT.%                                    :  8 Lithology_Cement
SHALE.%                                    :  9 Lithology_Shale
SILTST.%                                   : 10 Lithology_Siltstone
 SAND.%                                    : 11 Lithology_Sand
 LIME.%                                    : 12 Lithology_Lime
 CHLK.%                                    : 13 Lithology_Chalk
  ASH.%                                    : 14 Lithology_Ash
 FRAC.%                                    : 15 Fracture
Kick/Loss.                                 : 16 Kick/Loss
#___________________________________________________________________________
~A        DEPTH           TGAS           MTHX           ETHX           PRPX           IBTX           NBTX          CEMNT          SHALE         SILTST           SAND           LIME           CHLK            ASH           FRAC      Kick/Loss
           9906       449.3500       234.0000         0.0000         0.0000         0.0000         0.0000              0              0              0              0              0            100              0           0.00         0.0000
           9907       484.7250       234.0000         0.0000         0.0000         0.0000         0.0000              0              0              0              0              0            100              0           0.00         0.0000
           9908       604.4000       234.0000         0.0000         0.0000         0.0000         0.0000              0              0              0              0              0            100              0           0.00         0.0000
           9909       637.3500       234.0000         0.0000         0.0000         0.0000         0.0000              0              0              0              0              0            100              0           0.00         0.0000
           9910       661.1750       234.0000         0.0000         0.0000         0.0000         0.0000              0              0              0              0              0            100              0           0.00         0.0000
           9911       670.9500       234.0000         0.0000         0.0000         0.0000         0.0000              0              0              0              0              0            100              0           0.00         0.0000
           9912       669.1000       234.0000         0.0000         0.0000         0.0000         0.0000              0              0              0              0              0            100              0           0.00         0.0000
           9913       668.5000       234.0000         0.0000         0.0000         0.0000         0.0000              0              0              0              0              0            100              0           0.00         0.0000
           9914       625.1400       234.0000         0.0000         0.0000         0.0000         0.0000              0              0              0              0              0            100              0           0.00         0.0000
           9915       600.2500       234.0000         0.0000         0.0000         0.0000         0.0000              0              0              0              0              0            100              0           0.00         0.0000
           9916       523.4500      8236.0000       736.0000       119.0000         0.0000         0.0000              0              0              0              0              0            100              0           0.00         0.0000
           9917       489.4700      8236.0000       736.0000       119.0000         0.0000         0.0000              0              0              0              0              0            100              0           0.00         0.0000
           9918       430.2900      8236.0000       736.0000       119.0000         0.0000         0.0000              0              0              0              0              0            100              0           0.00         0.0000
           9919       355.4600      8236.0000       736.0000       119.0000         0.0000         0.0000              0              0              0              0              0            100              0           0.00         0.0000
           9920       300.4900      8236.0000       736.0000       119.0000         0.0000         0.0000              0              0              0              0              0            100              0           0.00         0.0000
           9921       246.7500      8236.0000       736.0000       119.0000         0.0000         0.0000              0              0              0              0              0            100              0           0.00         0.0000
           9922       200.3300      8236.0000       736.0000       119.0000         0.0000         0.0000              0              0              0              0              0            100              0           0.00         0.0000
           9923       150.2000     11224.0000      1022.0000       119.0000         0.0000         0.0000              0              0              0              0              0            100              0           0.00         0.0000
           9924       160.5750     11224.0000      1022.0000       119.0000         0.0000         0.0000              0              0              0              0              0            100              0           0.00         0.0000
           9925       161.7750     11224.0000      1022.0000       119.0000         0.0000         0.0000              0              0              0              0              0            100              0           0.00         0.0000
           9926       162.4000     11224.0000      1022.0000       119.0000         0.0000         0.0000              0              0              0              0              0            100              0           0.00         0.0000
           9927       153.8500     11224.0000      1022.0000       119.0000         0.0000         0.0000              0              0              0              0              0            100              0           0.00         0.0000
           9928       144.1000     11224.0000      1022.0000       119.0000         0.0000         0.0000              0              0              0              0              0            100              0           0.00         0.0000
           9929       157.5000     11224.0000      1022.0000       119.0000         0.0000         0.0000              0              0              0              0              0            100              0           0.00         0.0000
           9930       181.9500     11224.0000      1022.0000       119.0000         0.0000         0.0000              0              0              0              0              0            100              0           0.00         0.0000
           9931       208.1750     11224.0000      1022.0000       119.0000         0.0000         0.0000              0              0              0              0              0            100              0           0.00         0.0000
           9932       225.9000     11224.0000      1022.0000       119.0000         0.0000         0.0000              0              0              0              0              0            100              0           0.00         0.0000
           9933       246.6500     11224.0000      1022.0000       119.0000         0.0000         0.0000              0              0              0              0              0            100              0           0.00         0.0000
           9934       253.9750     27363.0000      2777.0000       447.0000         0.0000         0.0000              0              0              0              0              0            100              0           0.00         0.0000
           9935       246.0250     27363.0000      2777.0000       447.0000         0.0000         0.0000              0              0              0              0              0            100              0           0.00         0.0000
           9936       243.5750     27363.0000      2777.0000       447.0000         0.0000         0.0000              0              0              0              0              0            100              0           0.00         0.0000
           9937       240.5500     27363.0000      2777.0000       447.0000         0.0000         0.0000              0              0              0              0              0            100              0           0.00         0.0000
           9938       247.8500     27363.0000      2777.0000       447.0000         0.0000         0.0000              0              0              0              0              0            100              0           0.00         0.0000
           9939       250.3000     27363.0000      2777.0000       447.0000         0.0000         0.0000              0              0              0              0              0            100              0           0.00         0.0000
