#___________________________________________________________________________
~VERSION INFORMATION
 VERS.                                 2.0 : CWLS LOG ASCII STANDARD - VERSION 2.0
 WRAP.                                  NO : ONE LINE PER DEPTH STEP
#___________________________________________________________________________
~WELL INFORMATION
 STRT.F                            9336.00 : START DEPTH
 STOP.F                           10104.00 : STOP DEPTH
 STEP.F                                  1 : STEP VALUE
 NULL.                             -999.25 : NULL VALUE
 COMP.      Magnolia Oil & Gas             : COMPANY
 WELL.      Bucky Badgers H02 BB           : WELL
  FLD.      Giddings Austin Chalk          : FIELD
  LOC.      Texas                          : LOCATION
 CNTY.      Lee                            : PARISH/COUNTY
 STAT.      Texas                          : STATE
 CTRY.      USA                            : COUNTRY
" SRVC.      PetroLog International, Inc.   : SERVICE COMPANY"
 DATE.      03/15/2022                     : LOG DATE
  API.      42-287-32761                   : API REFERENCE NUMBER
#___________________________________________________________________________
~CURVE INFORMATION
#MNEM.UNITS                                : DESCRIPTION
DEPTH.F                                    :  1 DEPTH
 TGAS.Units                                :  2 Chromatograph_TotalGas
 MTHX.PPM                                  :  3 Chromatograph_MethanePPMMax
 ETHX.PPM                                  :  4 Chromatograph_EthanePPMMax
 PRPX.PPM                                  :  5 Chromatograph_PropanePPMMax
 IBTX.PPM                                  :  6 Chromatograph_IButanePPMMax
 NBTX.PPM                                  :  7 Chromatograph_NButanePPMMax
CEMNT.%                                    :  8 Lithology_Cement
SHALE.%                                    :  9 Lithology_Shale
SILTST.%                                   : 10 Lithology_Siltstone
 SAND.%                                    : 11 Lithology_Sand
 LIME.%                                    : 12 Lithology_Lime
 CHLK.%                                    : 13 Lithology_Chalk
  ASH.%                                    : 14 Lithology_Ash
 FRAC.%                                    : 15 Fracture
Kick/Loss.                                 : 16 Kick/Loss
#___________________________________________________________________________
~A        DEPTH           TGAS           MTHX           ETHX           PRPX           IBTX           NBTX          CEMNT          SHALE         SILTST           SAND           LIME           CHLK            ASH           FRAC      Kick/Loss
# ...
           9472        45.7750       916.0000        41.0000         0.0000         0.0000        32.0000              0              0              0              0              0            100              0           0.00         0.0000
           9473        45.2000       916.0000        41.0000         0.0000         0.0000        32.0000              0              0              0              0              0            100              0           0.00         0.0000
           9474        46.4000       916.0000        41.0000         0.0000         0.0000        32.0000              0              0              0              0              0            100              0           0.00         0.0000
           9475        45.7750       916.0000        41.0000         0.0000         0.0000        32.0000              0              0              0              0              0            100              0           0.00         0.0000
           9476        46.4000       916.0000        41.0000         0.0000         0.0000        32.0000              0              0              0              0              0            100              0           0.00         0.0000
           9477        46.4000      1049.0000        72.0000         0.0000         0.0000        43.0000              0              0              0              0              0            100              0           0.00         0.0000
           9478        45.7750      1049.0000        72.0000         0.0000         0.0000        43.0000              0              0              0              0              0            100              0           0.00         0.0000
           9479        48.2250      1049.0000        72.0000         0.0000         0.0000        43.0000              0              0              0              0              0            100              0           0.00         0.0000
           9480        47.0250      1049.0000        72.0000         0.0000         0.0000        43.0000              0              0              0              0              0            100              0           0.00         0.0000
           9481        48.2250      1049.0000        72.0000         0.0000         0.0000        43.0000              0              0              0              0              0            100              0           0.00         0.0000
           9482        50.0500      1049.0000        72.0000         0.0000         0.0000        43.0000              0              0              0              0              0            100              0           0.00         0.0000
           9483        51.3000      1049.0000        72.0000         0.0000         0.0000        43.0000              0              0              0              0              0            100              0           0.00         0.0000
           9484        48.8500      2332.0000       146.0000         0.0000         0.0000        43.0000              0              0              0              0              0            100              0           0.00         0.0000
           9485        51.3000      2332.0000       146.0000         0.0000         0.0000        28.0000              0              0              0              0              0            100              0           0.00         0.0000
           9486        52.5000      2332.0000       146.0000         0.0000         0.0000        28.0000              0              0              0              0              0            100              0           0.00         0.0000
           9487        53.7500      2332.0000       146.0000         0.0000         0.0000        28.0000              0              0              0              0              0            100              0           0.00         0.0000
           9488        53.7500      2332.0000       146.0000         0.0000         0.0000        28.0000              0              0              0              0              0            100              0           0.00         0.0000
           9489        53.7500      2332.0000       146.0000         0.0000         0.0000        28.0000              0              0              0              0              0            100              0           0.00         0.0000
           9490        51.3000      2332.0000       146.0000         0.0000         0.0000        28.0000              0              0              0              0              0            100              0           0.00         0.0000
           9491        51.9000      2332.0000       146.0000         0.0000         0.0000        28.0000              0              0              0              0              0            100              0           0.00         0.0000
           9492        53.7500      2332.0000       146.0000         0.0000         0.0000        28.0000              0              0              0              0              0            100              0           0.00         0.0000
           9493        53.7500      2332.0000       146.0000         0.0000         0.0000        28.0000              0              0              0              0              0            100              0           0.00         0.0000
           9494        51.3000      2981.0000       184.0000         0.0000         0.0000        33.0000              0              0              0              0              0            100              0           0.00         0.0000
           9495        52.5250      2981.0000       184.0000         0.0000         0.0000        33.0000              0              0              0              0              0            100              0           0.00         0.0000
           9496        51.3000      2981.0000       184.0000         0.0000         0.0000        33.0000              0              0              0              0              0            100              0           0.00         0.0000
           9497        51.3000      2981.0000       184.0000         0.0000         0.0000        33.0000              0              0              0              0              0            100              0           0.00         0.0000
           9498        50.6750      2981.0000       184.0000         0.0000         0.0000        33.0000              0              0              0              0              0            100              0           0.00         0.0000
           9499        52.5000      2981.0000       184.0000         0.0000         0.0000        33.0000              0              0              0              0              0            100              0           0.00         0.0000
           9500        53.7500      2981.0000       184.0000         0.0000         0.0000        33.0000              0              0              0              0              0            100              0           0.00         0.0000
           9501        53.7500      2981.0000       184.0000         0.0000         0.0000        33.0000              0              0              0              0              0            100              0           0.00         0.0000
           9502        54.9500      2981.0000       184.0000         0.0000         0.0000        33.0000              0              0              0              0              0            100              0           0.00         0.0000
           9503        52.5250      2981.0000       209.0000         0.0000         0.0000        33.0000              0              0              0              0              0            100              0           0.00         0.0000
           9504        56.1500      2768.0000       209.0000         0.0000         0.0000        13.0000              0              0              0              0              0            100              0           0.00         0.0000
           9505        56.1500      2768.0000       209.0000         0.0000         0.0000        13.0000              0              0              0              0              0            100              0           0.00         0.0000
