#___________________________________________________________________________
~VERSION INFORMATION
 VERS.                                 2.0 : CWLS LOG ASCII STANDARD - VERSION 2.0
 WRAP.                                  NO : ONE LINE PER DEPTH STEP
#___________________________________________________________________________
~WELL INFORMATION
 STRT.F                            9336.00 : START DEPTH
 STOP.F                           10104.00 : STOP DEPTH
 STEP.F                                  1 : STEP VALUE
 NULL.                             -999.25 : NULL VALUE
 COMP.      Magnolia Oil & Gas             : COMPANY
 WELL.      Bucky Badgers H02 BB           : WELL
  FLD.      Giddings Austin Chalk          : FIELD
  LOC.      Texas                          : LOCATION
 CNTY.      Lee                            : PARISH/COUNTY
 STAT.      Texas                          : STATE
 CTRY.      USA                            : COUNTRY
" SRVC.      PetroLog International, Inc.   : SERVICE COMPANY"
 DATE.      03/15/2022                     : LOG DATE
  API.      42-287-32761                   : API REFERENCE NUMBER
#___________________________________________________________________________
~CURVE INFORMATION
#MNEM.UNITS                                : DESCRIPTION
DEPTH.F                                    :  1 DEPTH
 TGAS.Units                                :  2 Chromatograph_TotalGas
 MTHX.PPM                                  :  3 Chromatograph_MethanePPMMax
 ETHX.PPM                                  :  4 Chromatograph_EthanePPMMax
 PRPX.PPM                                  :  5 Chromatograph_PropanePPMMax
 IBTX.PPM                                  :  6 Chromatograph_IButanePPMMax
 NBTX.PPM                                  :  7 Chromatograph_NButanePPMMax
CEMNT.%                                    :  8 Lithology_Cement
SHALE.%                                    :  9 Lithology_Shale
SILTST.%                                   : 10 Lithology_Siltstone
 SAND.%                                    : 11 Lithology_Sand
 LIME.%                                    : 12 Lithology_Lime
 CHLK.%                                    : 13 Lithology_Chalk
  ASH.%                                    : 14 Lithology_Ash
 FRAC.%                                    : 15 Fracture
Kick/Loss.                                 : 16 Kick/Loss
#___________________________________________________________________________
~A        DEPTH           TGAS           MTHX           ETHX           PRPX           IBTX           NBTX          CEMNT          SHALE         SILTST           SAND           LIME           CHLK            ASH           FRAC      Kick/Loss
# ...
          10084         0.0000         0.0000         0.0000         0.0000         0.0000         0.0000              0              0              0              0              0              0              0           0.00        -4.0000
          10085         0.0000         0.0000         0.0000         0.0000         0.0000         0.0000              0              0              0              0              0              0              0           0.00        -4.0000
          10086         0.0000         0.0000         0.0000         0.0000         0.0000         0.0000              0              0              0              0              0              0              0           0.00        -4.0000
          10087         0.0000         0.0000         0.0000         0.0000         0.0000         0.0000              0              0              0              0              0              0              0           0.00        -4.0000
          10088         0.0000         0.0000         0.0000         0.0000         0.0000         0.0000              0              0              0              0              0              0              0           0.00        -4.0000
          10089         0.0000         0.0000         0.0000         0.0000         0.0000         0.0000              0              0              0              0              0              0              0           0.00        -4.0000
          10090         0.0000         0.0000         0.0000         0.0000         0.0000         0.0000              0              0              0              0              0              0              0           0.00        -4.0000
          10091         0.0000         0.0000         0.0000         0.0000         0.0000         0.0000              0              0              0              0              0              0              0           0.00        -4.0000
          10092         0.0000         0.0000         0.0000         0.0000         0.0000         0.0000              0              0              0              0              0              0              0           0.00        -4.0000
          10093         0.0000         0.0000         0.0000         0.0000         0.0000         0.0000              0              0              0              0              0              0              0           0.00        -4.0000
          10094         0.0000         0.0000         0.0000         0.0000         0.0000         0.0000              0              0              0              0              0              0              0           0.00        -4.0000
          10095         0.0000         0.0000         0.0000         0.0000         0.0000         0.0000              0              0              0              0              0              0              0           0.00        -4.0000
          10096         0.0000         0.0000         0.0000         0.0000         0.0000         0.0000              0              0              0              0              0              0              0           0.00        -4.0000
          10097         0.0000         0.0000         0.0000         0.0000         0.0000         0.0000              0              0              0              0              0              0              0           0.00        -4.0000
          10098         0.0000         0.0000         0.0000         0.0000         0.0000         0.0000              0              0              0              0              0              0              0           0.00        -4.0000
          10099         0.0000         0.0000         0.0000         0.0000         0.0000         0.0000              0              0              0              0              0              0              0           0.00        -4.0000
          10100         0.0000         0.0000         0.0000         0.0000         0.0000         0.0000              0              0              0              0              0              0              0           0.00        -4.0000
          10101         0.0000         0.0000         0.0000         0.0000         0.0000         0.0000              0              0              0              0              0              0              0           0.00        -4.0000
          10102         0.0000         0.0000         0.0000         0.0000         0.0000         0.0000              0              0              0              0              0              0              0           0.00        -4.0000
          10103         0.0000         0.0000         0.0000         0.0000         0.0000         0.0000              0              0              0              0              0              0              0           0.00        -4.0000
          10104         0.0000         0.0000         0.0000         0.0000         0.0000         0.0000              0              0              0              0              0              0              0           0.00        -4.0000
