#___________________________________________________________________________
~VERSION INFORMATION
 VERS.                                 2.0 : CWLS LOG ASCII STANDARD - VERSION 2.0
 WRAP.                                  NO : ONE LINE PER DEPTH STEP
#___________________________________________________________________________
~WELL INFORMATION
 STRT.F                            9336.00 : START DEPTH
 STOP.F                           10104.00 : STOP DEPTH
 STEP.F                                  1 : STEP VALUE
 NULL.                             -999.25 : NULL VALUE
 COMP.      Magnolia Oil & Gas             : COMPANY
 WELL.      Bucky Badgers H02 BB           : WELL
  FLD.      Giddings Austin Chalk          : FIELD
  LOC.      Texas                          : LOCATION
 CNTY.      Lee                            : PARISH/COUNTY
 STAT.      Texas                          : STATE
 CTRY.      USA                            : COUNTRY
" SRVC.      PetroLog International, Inc.   : SERVICE COMPANY"
 DATE.      03/15/2022                     : LOG DATE
  API.      42-287-32761                   : API REFERENCE NUMBER
#___________________________________________________________________________
~CURVE INFORMATION
#MNEM.UNITS                                : DESCRIPTION
DEPTH.F                                    :  1 DEPTH
 TGAS.Units                                :  2 Chromatograph_TotalGas
 MTHX.PPM                                  :  3 Chromatograph_MethanePPMMax
 ETHX.PPM                                  :  4 Chromatograph_EthanePPMMax
 PRPX.PPM                                  :  5 Chromatograph_PropanePPMMax
 IBTX.PPM                                  :  6 Chromatograph_IButanePPMMax
 NBTX.PPM                                  :  7 Chromatograph_NButanePPMMax
CEMNT.%                                    :  8 Lithology_Cement
SHALE.%                                    :  9 Lithology_Shale
SILTST.%                                   : 10 Lithology_Siltstone
 SAND.%                                    : 11 Lithology_Sand
 LIME.%                                    : 12 Lithology_Lime
 CHLK.%                                    : 13 Lithology_Chalk
  ASH.%                                    : 14 Lithology_Ash
 FRAC.%                                    : 15 Fracture
Kick/Loss.                                 : 16 Kick/Loss
#___________________________________________________________________________
~A        DEPTH           TGAS           MTHX           ETHX           PRPX           IBTX           NBTX          CEMNT          SHALE         SILTST           SAND           LIME           CHLK            ASH           FRAC      Kick/Loss
# ...
           9676        94.0000      7903.0000       987.0000        66.0000         0.0000         0.0000              0              0              0              0              0            100              0           1.00        -1.0000
           9677        95.2500      7903.0000       987.0000        66.0000         0.0000         0.0000              0              0              0              0              0            100              0           1.00        -1.0000
           9678       100.1000      7903.0000       987.0000        66.0000         0.0000         0.0000              0              0              0              0              0            100              0           1.00        -1.0000
           9679       100.1250      7903.0000       987.0000        66.0000         0.0000         0.0000              0              0              0              0              0            100              0           1.00        -1.0000
           9680        99.5250      7903.0000       987.0000        66.0000         0.0000         0.0000              0              0              0              0              0            100              0           1.00        -1.0000
           9681        98.9000      7903.0000       987.0000        66.0000         0.0000         0.0000              0              0              0              0              0            100              0           1.00        -1.0000
           9682        96.4500      7903.0000       987.0000        66.0000         0.0000         0.0000              0              0              0              0              0            100              0           1.00        -1.0000
           9683        90.3500      7903.0000       987.0000        66.0000         0.0000         0.0000              0              0              0              0              0            100              0           1.00        -1.0000
           9684        83.0500      7903.0000       987.0000        66.0000         0.0000         0.0000              0              0              0              0              0            100              0           1.00        -1.0000
           9685        76.9500      7903.0000       987.0000        66.0000         0.0000         0.0000              0              0              0              0              0            100              0           1.00        -1.0000
           9686        72.0500      7903.0000       987.0000        66.0000         0.0000         0.0000              0              0              0              0              0            100              0           1.00        -1.0000
           9687        70.8000      7903.0000       987.0000        66.0000         0.0000         0.0000              0              0              0              0              0            100              0           1.00        -1.0000
           9688        65.9500      7903.0000       987.0000        66.0000         0.0000         0.0000              0              0              0              0              0            100              0           1.00        -1.0000
           9689        66.5500      7903.0000       987.0000        66.0000         0.0000         0.0000              0              0              0              0              0            100              0           1.00        -1.0000
           9690        67.7750       862.0000       138.0000         0.0000         0.0000         0.0000              0              0              0              0              0            100              0           1.00        -1.0000
           9691        70.8000       862.0000       138.0000         0.0000         0.0000         0.0000              0              0              0              0              0            100              0           1.00        -1.0000
           9692        72.0250       862.0000       138.0000         0.0000         0.0000         0.0000              0              0              0              0              0            100              0           1.00        -1.0000
           9693        73.2500       862.0000       138.0000         0.0000         0.0000         0.0000              0              0              0              0              0            100              0           1.00        -1.0000
           9694        91.6000      5943.0000       742.0000        57.0000         0.0000         0.0000              0              0              0              0              0            100              0           1.00        -1.0000
           9695        90.3500      5943.0000       742.0000        57.0000         0.0000         0.0000              0              0              0              0              0            100              0           1.00        -1.0000
           9696        80.0000      5943.0000       742.0000        58.0000         0.0000         0.0000              0              0              0              0              0            100              0           1.00        -1.0000
           9697        83.0500      4323.0000       580.0000        58.0000         0.0000         0.0000              0              0              0              0              0            100              0           1.00        -1.0000
           9698        84.2500      4323.0000       580.0000        58.0000         0.0000         0.0000              0              0              0              0              0            100              0           1.00        -1.0000
           9699        87.9000      4323.0000       580.0000        58.0000         0.0000         0.0000              0              0              0              0              0            100              0           1.00        -1.0000
           9700        85.4500      4323.0000       580.0000        58.0000         0.0000         0.0000              0              0              0              0              0            100              0           1.00        -1.0000
           9701        83.6250      5324.0000       703.0000        58.0000         0.0000         0.0000              0              0              0              0              0            100              0           0.00        -1.0000
           9702        84.2500      5324.0000       703.0000        47.0000         0.0000         0.0000              0              0              0              0              0            100              0           0.00        -1.0000
           9703        83.0500      5324.0000       703.0000        47.0000         0.0000         0.0000              0              0              0              0              0            100              0           0.00        -1.0000
           9704        84.2500      5324.0000       703.0000        47.0000         0.0000         0.0000              0              0              0              0              0            100              0           0.00        -1.0000
           9705        81.8000      5324.0000       703.0000        47.0000         0.0000         0.0000              0              0              0              0              0            100              0           0.00        -1.0000
           9706        78.7500      3773.0000       505.0000         0.0000         0.0000         0.0000              0              0              0              0              0            100              0           0.00        -1.0000
           9707        79.3500      3773.0000       505.0000         0.0000         0.0000         0.0000              0              0              0              0              0            100              0           0.00        -1.0000
           9708        69.6000      3205.0000       397.0000         0.0000         0.0000         0.0000              0              0              0              0              0            100              0           0.00        -1.0000
           9709        67.1500      3205.0000       397.0000         0.0000         0.0000         0.0000              0              0              0              0              0            100              0           0.00        -1.0000
