#___________________________________________________________________________
~VERSION INFORMATION
 VERS.                                 2.0 : CWLS LOG ASCII STANDARD - VERSION 2.0
 WRAP.                                  NO : ONE LINE PER DEPTH STEP
#___________________________________________________________________________
~WELL INFORMATION
 STRT.F                            9336.00 : START DEPTH
 STOP.F                           10104.00 : STOP DEPTH
 STEP.F                                  1 : STEP VALUE
 NULL.                             -999.25 : NULL VALUE
 COMP.      Magnolia Oil & Gas             : COMPANY
 WELL.      Bucky Badgers H02 BB           : WELL
  FLD.      Giddings Austin Chalk          : FIELD
  LOC.      Texas                          : LOCATION
 CNTY.      Lee                            : PARISH/COUNTY
 STAT.      Texas                          : STATE
 CTRY.      USA                            : COUNTRY
" SRVC.      PetroLog International, Inc.   : SERVICE COMPANY"
 DATE.      03/15/2022                     : LOG DATE
  API.      42-287-32761                   : API REFERENCE NUMBER
#___________________________________________________________________________
~CURVE INFORMATION
#MNEM.UNITS                                : DESCRIPTION
DEPTH.F                                    :  1 DEPTH
 TGAS.Units                                :  2 Chromatograph_TotalGas
 MTHX.PPM                                  :  3 Chromatograph_MethanePPMMax
 ETHX.PPM                                  :  4 Chromatograph_EthanePPMMax
 PRPX.PPM                                  :  5 Chromatograph_PropanePPMMax
 IBTX.PPM                                  :  6 Chromatograph_IButanePPMMax
 NBTX.PPM                                  :  7 Chromatograph_NButanePPMMax
CEMNT.%                                    :  8 Lithology_Cement
SHALE.%                                    :  9 Lithology_Shale
SILTST.%                                   : 10 Lithology_Siltstone
 SAND.%                                    : 11 Lithology_Sand
 LIME.%                                    : 12 Lithology_Lime
 CHLK.%                                    : 13 Lithology_Chalk
  ASH.%                                    : 14 Lithology_Ash
 FRAC.%                                    : 15 Fracture
Kick/Loss.                                 : 16 Kick/Loss
#___________________________________________________________________________
~A        DEPTH           TGAS           MTHX           ETHX           PRPX           IBTX           NBTX          CEMNT          SHALE         SILTST           SAND           LIME           CHLK            ASH           FRAC      Kick/Loss
# ...
           9642        87.9000      4680.0000       570.0000        44.0000         0.0000        21.0000              0              0              0              0              0            100              0           0.00         0.0000
           9643        84.2500      4680.0000       570.0000        44.0000         0.0000        21.0000              0              0              0              0              0            100              0           0.00         0.0000
           9644        84.2500      4680.0000       570.0000        44.0000         0.0000        21.0000              0              0              0              0              0            100              0           0.00         0.0000
           9645        84.2500      5419.0000       747.0000        44.0000         0.0000        21.0000              0              0              0              0              0            100              0           0.00         0.0000
           9646        85.4500      5419.0000       747.0000        20.0000         0.0000         0.0000              0              0              0              0              0            100              0           0.00         0.0000
           9647        86.7000      5419.0000       747.0000        20.0000         0.0000         0.0000              0              0              0              0              0            100              0           0.00         0.0000
           9648        90.3500      5419.0000       747.0000        20.0000         0.0000         0.0000              0              0              0              0              0            100              0           0.00         0.0000
           9649        87.9000      5419.0000       747.0000        20.0000         0.0000         0.0000              0              0              0              0              0            100              0           0.00         0.0000
           9650        87.9000      5419.0000       747.0000        20.0000         0.0000         0.0000              0              0              0              0              0            100              0           0.00         0.0000
           9651        90.3500      5419.0000       747.0000        20.0000         0.0000         0.0000              0              0              0              0              0            100              0           1.00         0.0000
           9652       116.0000      8101.0000      1126.0000       139.0000         0.0000        14.0000              0              0              0              0              0            100              0           1.00         0.0000
           9653        92.8000      8077.0000      1126.0000       139.0000         0.0000        14.0000              0              0              0              0              0            100              0           1.00         0.0000
           9654        89.1500      8077.0000      1126.0000       139.0000         0.0000        14.0000              0              0              0              0              0            100              0           1.00         0.0000
           9655        84.2500      8077.0000      1126.0000       139.0000         0.0000        14.0000              0              0              0              0              0            100              0           1.00         0.0000
           9656        84.2500      8077.0000      1126.0000       139.0000         0.0000        14.0000              0              0              0              0              0            100              0           1.00         0.0000
           9657        81.8000      8077.0000      1126.0000       139.0000         0.0000        14.0000              0              0              0              0              0            100              0           1.00         0.0000
           9658        85.4500      8077.0000      1126.0000       139.0000         0.0000        14.0000              0              0              0              0              0            100              0           1.00         0.0000
           9659        85.4500      8077.0000      1126.0000       139.0000         0.0000        14.0000              0              0              0              0              0            100              0           1.00         0.0000
           9660        86.7000      8077.0000      1126.0000       139.0000         0.0000        18.0000              0              0              0              0              0            100              0           1.00         0.0000
           9661        88.5250      6231.0000       746.0000        39.0000         0.0000        18.0000              0              0              0              0              0            100              0           1.00         0.0000
           9662        89.1500      6231.0000       746.0000        39.0000         0.0000        18.0000              0              0              0              0              0            100              0           1.00         0.0000
           9663        87.9000      6231.0000       746.0000        39.0000         0.0000        18.0000              0              0              0              0              0            100              0           1.00         0.0000
           9664        89.1500      6231.0000       746.0000        39.0000         0.0000        18.0000              0              0              0              0              0            100              0           1.00         0.0000
           9665        91.6000      6231.0000       746.0000        39.0000         0.0000        18.0000              0              0              0              0              0            100              0           1.00         0.0000
           9666        89.1500      6231.0000       746.0000        39.0000         0.0000        18.0000              0              0              0              0              0            100              0           1.00         0.0000
           9667        90.3500      6231.0000       746.0000        39.0000         0.0000        18.0000              0              0              0              0              0            100              0           1.00         0.0000
           9668        94.0000      6231.0000       746.0000        39.0000         0.0000        18.0000              0              0              0              0              0            100              0           1.00         0.0000
           9669        93.4250      6231.0000       746.0000        39.0000         0.0000        18.0000              0              0              0              0              0            100              0           1.00         0.0000
           9670        93.4250      6231.0000       746.0000        39.0000         0.0000        18.0000              0              0              0              0              0            100              0           1.00         0.0000
           9671        93.4000      6231.0000       746.0000        39.0000         0.0000        18.0000              0              0              0              0              0            100              0           1.00         0.0000
           9672        94.6250      7903.0000       987.0000        66.0000         0.0000        18.0000              0              0              0              0              0            100              0           1.00         0.0000
           9673        94.0000      7903.0000       987.0000        66.0000         0.0000         0.0000              0              0              0              0              0            100              0           1.00         0.0000
           9674        94.0000      7903.0000       987.0000        66.0000         0.0000         0.0000              0              0              0              0              0            100              0           1.00         0.0000
           9675        94.0000      7903.0000       987.0000        66.0000         0.0000         0.0000              0              0              0              0              0            100              0           1.00        -1.0000
