#___________________________________________________________________________
~VERSION INFORMATION
 VERS.                                 2.0 : CWLS LOG ASCII STANDARD - VERSION 2.0
 WRAP.                                  NO : ONE LINE PER DEPTH STEP
#___________________________________________________________________________
~WELL INFORMATION
 STRT.F                            9336.00 : START DEPTH
 STOP.F                           10104.00 : STOP DEPTH
 STEP.F                                  1 : STEP VALUE
 NULL.                             -999.25 : NULL VALUE
 COMP.      Magnolia Oil & Gas             : COMPANY
 WELL.      Bucky Badgers H02 BB           : WELL
  FLD.      Giddings Austin Chalk          : FIELD
  LOC.      Texas                          : LOCATION
 CNTY.      Lee                            : PARISH/COUNTY
 STAT.      Texas                          : STATE
 CTRY.      USA                            : COUNTRY
" SRVC.      PetroLog International, Inc.   : SERVICE COMPANY"
 DATE.      03/15/2022                     : LOG DATE
  API.      42-287-32761                   : API REFERENCE NUMBER
#___________________________________________________________________________
~CURVE INFORMATION
#MNEM.UNITS                                : DESCRIPTION
DEPTH.F                                    :  1 DEPTH
 TGAS.Units                                :  2 Chromatograph_TotalGas
 MTHX.PPM                                  :  3 Chromatograph_MethanePPMMax
 ETHX.PPM                                  :  4 Chromatograph_EthanePPMMax
 PRPX.PPM                                  :  5 Chromatograph_PropanePPMMax
 IBTX.PPM                                  :  6 Chromatograph_IButanePPMMax
 NBTX.PPM                                  :  7 Chromatograph_NButanePPMMax
CEMNT.%                                    :  8 Lithology_Cement
SHALE.%                                    :  9 Lithology_Shale
SILTST.%                                   : 10 Lithology_Siltstone
 SAND.%                                    : 11 Lithology_Sand
 LIME.%                                    : 12 Lithology_Lime
 CHLK.%                                    : 13 Lithology_Chalk
  ASH.%                                    : 14 Lithology_Ash
 FRAC.%                                    : 15 Fracture
Kick/Loss.                                 : 16 Kick/Loss
#___________________________________________________________________________
~A        DEPTH           TGAS           MTHX           ETHX           PRPX           IBTX           NBTX          CEMNT          SHALE         SILTST           SAND           LIME           CHLK            ASH           FRAC      Kick/Loss
           9336         0.0000         0.0000         0.0000         0.0000         0.0000         0.0000              0              0              0              0              0            100              0           0.00         0.0000
           9337        21.3750         0.0000         0.0000         0.0000         0.0000         0.0000              0              0              0              0              0            100              0           0.00         0.0000
           9338        22.0000         0.0000         0.0000         0.0000         0.0000         0.0000              0              0              0              0              0            100              0           0.00         0.0000
           9339        22.0000         0.0000         0.0000         0.0000         0.0000         0.0000              0              0              0              0              0            100              0           0.00         0.0000
           9340        22.0000         0.0000         0.0000         0.0000         0.0000         0.0000              0              0              0              0              0            100              0           0.00         0.0000
           9341        22.0000         0.0000         0.0000         0.0000         0.0000         0.0000              0              0              0              0              0            100              0           0.00         0.0000
           9342        22.0000         0.0000         0.0000         0.0000         0.0000         0.0000              0              0              0              0              0            100              0           0.00         0.0000
           9343        22.0000         0.0000         0.0000         0.0000         0.0000         0.0000              0              0              0              0              0            100              0           0.00         0.0000
           9344        22.0000         0.0000         0.0000         0.0000         0.0000         0.0000              0              0              0              0              0            100              0           0.00         0.0000
           9345         0.0000         0.0000         0.0000         0.0000         0.0000         0.0000              0              0              0              0              0            100              0           0.00         0.0000
           9346         0.0000      9829.0000      9837.0000     10079.0000      9964.0000     10088.0000              0              0              0              0              0            100              0           0.00         0.0000
           9347       377.3000      9829.0000      9837.0000     10079.0000      9964.0000     10088.0000              0              0              0              0              0            100              0           0.00         0.0000
           9348       377.3000      9829.0000      9837.0000     10079.0000      9964.0000     10088.0000              0              0              0              0              0            100              0           0.00         0.0000
           9349       377.3000      9829.0000      9837.0000     10079.0000      9964.0000     10088.0000              0              0              0              0              0            100              0           0.00         0.0000
           9350       380.9500      9829.0000      9837.0000     10079.0000      9964.0000     10088.0000              0              0              0              0              0            100              0           0.00         0.0000
           9351       380.9500      9829.0000      9837.0000     10079.0000      9964.0000     10088.0000              0              0              0              0              0            100              0           0.00         0.0000
           9352       378.5000      9829.0000      9837.0000     10079.0000      9964.0000     10088.0000              0              0              0              0              0            100              0           0.00         0.0000
           9353       378.5000      9829.0000      9837.0000     10079.0000      9964.0000     10088.0000              0              0              0              0              0            100              0           0.00         0.0000
           9354       394.4000      9892.0000      9837.0000     10079.0000      9984.0000     10088.0000              0              0              0              0              0            100              0           0.00         0.0000
           9355        11.0000      9892.0000      9802.0000      9998.0000      9984.0000      9983.0000              0              0              0              0              0            100              0           0.00         0.0000
           9356       164.8500      9892.0000      9802.0000      9998.0000      9984.0000      9983.0000              0              0              0              0              0            100              0           0.00         0.0000
           9357      2522.6000      9892.0000      9802.0000      9998.0000      9984.0000      9983.0000              0              0              0              0              0            100              0           0.00         0.0000
           9358      2544.5500      9892.0000      9802.0000      9998.0000      9984.0000      9983.0000              0              0              0              0              0            100              0           0.00         0.0000
           9359        28.0750      9892.0000      9802.0000      9998.0000      9984.0000      9983.0000              0              0              0              0              0            100              0           0.00         0.0000
           9360        31.7500      9892.0000      9802.0000      9998.0000      9984.0000      9983.0000              0              0              0              0              0            100              0           0.00         0.0000
           9361        28.0750      9892.0000      9802.0000      9998.0000      9984.0000      9983.0000              0              0              0              0              0            100              0           0.00         0.0000
           9362        31.7500      9892.0000      9802.0000      9998.0000      9984.0000      9983.0000              0              0              0              0              0            100              0           0.00         0.0000
           9363        29.3000      9892.0000      9802.0000      9998.0000      9984.0000      9983.0000              0              0              0              0              0            100              0           0.00         0.0000
           9364        30.5250      9892.0000      9802.0000      9998.0000      9984.0000      9983.0000              0              0              0              0              0            100              0           0.00         0.0000
           9365        28.7000      9892.0000      9802.0000      9998.0000      9984.0000      9983.0000              0              0              0              0              0            100              0           0.00         0.0000
           9366        28.7000      9892.0000      9802.0000      9998.0000      9984.0000      9983.0000              0              0              0              0              0            100              0           0.00         0.0000
           9367        28.7000       427.0000         0.0000         0.0000         0.0000         0.0000              0              0              0              0              0            100              0           0.00         0.0000
           9368        29.3000       427.0000         0.0000         0.0000         0.0000         0.0000              0              0              0              0              0            100              0           0.00         0.0000
           9369        34.2000       427.0000         0.0000         0.0000         0.0000         0.0000              0              0              0              0              0            100              0           0.00         0.0000
