#___________________________________________________________________________
~VERSION INFORMATION
 VERS.                                 2.0 : CWLS LOG ASCII STANDARD - VERSION 2.0
 WRAP.                                  NO : ONE LINE PER DEPTH STEP
#___________________________________________________________________________
~WELL INFORMATION
 STRT.F                            9336.00 : START DEPTH
 STOP.F                           10104.00 : STOP DEPTH
 STEP.F                                  1 : STEP VALUE
 NULL.                             -999.25 : NULL VALUE
 COMP.      Magnolia Oil & Gas             : COMPANY
 WELL.      Bucky Badgers H02 BB           : WELL
  FLD.      Giddings Austin Chalk          : FIELD
  LOC.      Texas                          : LOCATION
 CNTY.      Lee                            : PARISH/COUNTY
 STAT.      Texas                          : STATE
 CTRY.      USA                            : COUNTRY
" SRVC.      PetroLog International, Inc.   : SERVICE COMPANY"
 DATE.      03/15/2022                     : LOG DATE
  API.      42-287-32761                   : API REFERENCE NUMBER
#___________________________________________________________________________
~CURVE INFORMATION
#MNEM.UNITS                                : DESCRIPTION
DEPTH.F                                    :  1 DEPTH
 TGAS.Units                                :  2 Chromatograph_TotalGas
 MTHX.PPM                                  :  3 Chromatograph_MethanePPMMax
 ETHX.PPM                                  :  4 Chromatograph_EthanePPMMax
 PRPX.PPM                                  :  5 Chromatograph_PropanePPMMax
 IBTX.PPM                                  :  6 Chromatograph_IButanePPMMax
 NBTX.PPM                                  :  7 Chromatograph_NButanePPMMax
CEMNT.%                                    :  8 Lithology_Cement
SHALE.%                                    :  9 Lithology_Shale
SILTST.%                                   : 10 Lithology_Siltstone
 SAND.%                                    : 11 Lithology_Sand
 LIME.%                                    : 12 Lithology_Lime
 CHLK.%                                    : 13 Lithology_Chalk
  ASH.%                                    : 14 Lithology_Ash
 FRAC.%                                    : 15 Fracture
Kick/Loss.                                 : 16 Kick/Loss
#___________________________________________________________________________
~A        DEPTH           TGAS           MTHX           ETHX           PRPX           IBTX           NBTX          CEMNT          SHALE         SILTST           SAND           LIME           CHLK            ASH           FRAC      Kick/Loss
# ...
           9574       300.3750      6985.0000       502.0000         0.0000         0.0000         0.0000              0              0              0              0              0            100              0           0.00         0.0000
           9575       150.2000      6985.0000       502.0000         0.0000         0.0000         0.0000              0              0              0              0              0            100              0           0.00         0.0000
           9576       107.4500      6985.0000       502.0000         0.0000         0.0000         0.0000              0              0              0              0              0            100              0           0.00         0.0000
           9577        95.2500      6985.0000       502.0000         0.0000         0.0000         0.0000              0              0              0              0              0            100              0           0.00         0.0000
           9578        92.8000      6985.0000       502.0000         0.0000         0.0000         0.0000              0              0              0              0              0            100              0           0.00         0.0000
           9579        94.0250      6985.0000       502.0000         0.0000         0.0000         0.0000              0              0              0              0              0            100              0           0.00         0.0000
           9580        97.7000      6985.0000       502.0000         0.0000         0.0000         0.0000              0              0              0              0              0            100              0           0.00         0.0000
           9581        95.8500      8430.0000       643.0000         0.0000         0.0000         0.0000              0              0              0              0              0            100              0           0.00         0.0000
           9582        64.7000      8430.0000       643.0000         0.0000         0.0000         0.0000              0              0              0              0              0            100              0           0.00         0.0000
           9583        62.2750      8430.0000       643.0000         0.0000         0.0000         0.0000              0              0              0              0              0            100              0           0.00         0.0000
           9584        62.2750      8430.0000       643.0000         0.0000         0.0000         0.0000              0              0              0              0              0            100              0           0.00         0.0000
           9585        60.4500      8430.0000       643.0000         0.0000         0.0000         0.0000              0              0              0              0              0            100              0           0.00         0.0000
           9586        62.2750         0.0000         0.0000         0.0000         0.0000         0.0000              0              0              0              0              0            100              0           0.00         0.0000
           9587        59.8500         0.0000         0.0000         0.0000         0.0000         0.0000              0              0              0              0              0            100              0           0.00         0.0000
           9588        62.2750         0.0000         0.0000         0.0000         0.0000         0.0000              0              0              0              0              0            100              0           0.00         0.0000
           9589        64.7000         0.0000         0.0000         0.0000         0.0000         0.0000              0              0              0              0              0            100              0           0.00         0.0000
           9590        60.4500         0.0000         0.0000         0.0000         0.0000         0.0000              0              0              0              0              0            100              0           0.00         0.0000
           9591        59.8500         0.0000         0.0000         0.0000         0.0000         0.0000              0              0              0              0              0            100              0           0.00         0.0000
           9592        63.5000         0.0000         0.0000         0.0000         0.0000         0.0000              0              0              0              0              0            100              0           0.00         0.0000
           9593        61.0500         0.0000         0.0000         0.0000         0.0000         0.0000              0              0              0              0              0            100              0           0.00         0.0000
           9594        61.6750         0.0000         0.0000         0.0000         0.0000         0.0000              0              0              0              0              0            100              0           0.00         0.0000
           9595        61.0500         0.0000         0.0000         0.0000         0.0000         0.0000              0              0              0              0              0            100              0           0.00         0.0000
           9596        61.6750         0.0000         0.0000         0.0000         0.0000         0.0000              0              0              0              0              0            100              0           0.00         0.0000
           9597        62.2500         0.0000         0.0000         0.0000         0.0000         0.0000              0              0              0              0              0            100              0           0.00         0.0000
           9598        64.7000       565.0000         0.0000         0.0000         0.0000         0.0000              0              0              0              0              0            100              0           0.00         0.0000
           9599        64.7000       565.0000         0.0000         0.0000         0.0000         0.0000              0              0              0              0              0            100              0           0.00         0.0000
           9600        62.9000       565.0000         0.0000         0.0000         0.0000         0.0000              0              0              0              0              0            100              0           0.00         0.0000
           9601        62.2750       565.0000         0.0000         0.0000         0.0000         0.0000              0              0              0              0              0            100              0           0.00         0.0000
           9602        61.6500       565.0000         0.0000         0.0000         0.0000         0.0000              0              0              0              0              0            100              0           0.00         0.0000
           9603        64.7000       565.0000         0.0000         0.0000         0.0000         0.0000              0              0              0              0              0            100              0           0.00         0.0000
           9604        62.8750       565.0000         0.0000         0.0000         0.0000         0.0000              0              0              0              0              0            100              0           0.00         0.0000
           9605        65.9500       565.0000         0.0000         0.0000         0.0000         0.0000              0              0              0              0              0            100              0           0.00         0.0000
           9606        65.9250       565.0000         0.0000         0.0000         0.0000         0.0000              0              0              0              0              0            100              0           0.00         0.0000
           9607        67.7750       565.0000         0.0000         0.0000         0.0000         0.0000              0              0              0              0              0            100              0           0.00         0.0000
