#___________________________________________________________________________
~VERSION INFORMATION
 VERS.                                 2.0 : CWLS LOG ASCII STANDARD - VERSION 2.0
 WRAP.                                  NO : ONE LINE PER DEPTH STEP
#___________________________________________________________________________
~WELL INFORMATION
 STRT.F                            9336.00 : START DEPTH
 STOP.F                           10104.00 : STOP DEPTH
 STEP.F                                  1 : STEP VALUE
 NULL.                             -999.25 : NULL VALUE
 COMP.      Magnolia Oil & Gas             : COMPANY
 WELL.      Bucky Badgers H02 BB           : WELL
  FLD.      Giddings Austin Chalk          : FIELD
  LOC.      Texas                          : LOCATION
 CNTY.      Lee                            : PARISH/COUNTY
 STAT.      Texas                          : STATE
 CTRY.      USA                            : COUNTRY
" SRVC.      PetroLog International, Inc.   : SERVICE COMPANY"
 DATE.      03/15/2022                     : LOG DATE
  API.      42-287-32761                   : API REFERENCE NUMBER
#___________________________________________________________________________
~CURVE INFORMATION
#MNEM.UNITS                                : DESCRIPTION
DEPTH.F                                    :  1 DEPTH
 TGAS.Units                                :  2 Chromatograph_TotalGas
 MTHX.PPM                                  :  3 Chromatograph_MethanePPMMax
 ETHX.PPM                                  :  4 Chromatograph_EthanePPMMax
 PRPX.PPM                                  :  5 Chromatograph_PropanePPMMax
 IBTX.PPM                                  :  6 Chromatograph_IButanePPMMax
 NBTX.PPM                                  :  7 Chromatograph_NButanePPMMax
CEMNT.%                                    :  8 Lithology_Cement
SHALE.%                                    :  9 Lithology_Shale
SILTST.%                                   : 10 Lithology_Siltstone
 SAND.%                                    : 11 Lithology_Sand
 LIME.%                                    : 12 Lithology_Lime
 CHLK.%                                    : 13 Lithology_Chalk
  ASH.%                                    : 14 Lithology_Ash
 FRAC.%                                    : 15 Fracture
Kick/Loss.                                 : 16 Kick/Loss
#___________________________________________________________________________
~A        DEPTH           TGAS           MTHX           ETHX           PRPX           IBTX           NBTX          CEMNT          SHALE         SILTST           SAND           LIME           CHLK            ASH           FRAC      Kick/Loss
# ...
           9744       111.1000      9673.0000       992.0000        45.0000         0.0000         0.0000              0              0              0              0              0            100              0           0.00        -1.0000
           9745       114.8000     14258.0000      1519.0000        52.0000         0.0000         0.0000              0              0              0              0              0            100              0           0.00        -1.0000
           9746       117.2000     14258.0000      1519.0000        52.0000         0.0000         0.0000              0              0              0              0              0            100              0           0.00        -1.0000
           9747       141.6500     20393.0000      2212.0000       162.0000         0.0000         0.0000              0              0              0              0              0            100              0           0.00        -1.0000
           9748       127.0000     20393.0000      2212.0000       162.0000         0.0000         0.0000              0              0              0              0              0            100              0           0.00        -1.0000
           9749       138.6000     20393.0000      2360.0000       192.0000         0.0000         0.0000              0              0              0              0              0            100              0           0.00        -1.0000
           9750       134.9250     19561.0000      2360.0000       192.0000         0.0000         0.0000              0              0              0              0              0            100              0           0.00        -1.0000
           9751       131.8500     19561.0000      2360.0000       192.0000         0.0000         0.0000              0              0              0              0              0            100              0           0.00        -1.0000
           9752       130.6500     19561.0000      2360.0000       192.0000         0.0000         0.0000              0              0              0              0              0            100              0           0.00        -1.0000
           9753       127.0000     19561.0000      2360.0000       192.0000         0.0000         0.0000              0              0              0              0              0            100              0           0.00        -1.0000
           9754       123.3000     19561.0000      2360.0000       192.0000         0.0000         0.0000              0              0              0              0              0            100              0           0.00        -1.0000
           9755       122.1000     19561.0000      2360.0000       192.0000         0.0000         0.0000              0              0              0              0              0            100              0           0.00        -1.0000
           9756       117.2000     19561.0000      2360.0000       192.0000         0.0000         0.0000              0              0              0              0              0            100              0           0.00        -1.0000
           9757        98.3000     13887.0000      1356.0000        63.0000         0.0000         0.0000              0              0              0              0              0            100              0           0.00        -1.0000
           9758        87.9000     13887.0000      1356.0000        63.0000         0.0000         0.0000              0              0              0              0              0            100              0           0.00        -1.0000
           9759        83.6500     13887.0000      1356.0000        63.0000         0.0000         0.0000              0              0              0              0              0            100              0           0.00        -1.0000
           9760        86.7000     13887.0000      1356.0000        63.0000         0.0000         0.0000              0              0              0              0              0            100              0           0.00        -1.0000
           9761        87.9000     13887.0000      1356.0000        63.0000         0.0000         0.0000              0              0              0              0              0            100              0           0.00        -1.0000
           9762        94.0250     13887.0000      1356.0000        63.0000         0.0000         0.0000              0              0              0              0              0            100              0           0.00        -1.0000
           9763        98.9000     13887.0000      1356.0000        63.0000         0.0000         0.0000              0              0              0              0              0            100              0           0.00        -1.0000
           9764       105.6250     13887.0000      1356.0000        63.0000         0.0000         0.0000              0              0              0              0              0            100              0           0.00        -1.0000
           9765       114.8000     13887.0000      1356.0000        63.0000         0.0000         0.0000              0              0              0              0              0            100              0           0.00        -1.0000
           9766       120.9000     14437.0000      1356.0000        63.0000         0.0000        20.0000              0              0              0              0              0            100              0           0.00        -1.0000
           9767       127.0000     14437.0000      1300.0000        26.0000         0.0000        20.0000              0              0              0              0              0            100              0           0.00        -1.0000
           9768       134.3000     14437.0000      1300.0000        26.0000         0.0000        20.0000              0              0              0              0              0            100              0           0.00        -1.0000
           9769       139.8250     14437.0000      1300.0000        26.0000         0.0000        20.0000              0              0              0              0              0            100              0           0.00        -1.0000
           9770       148.3500     14437.0000      1300.0000        26.0000         0.0000        20.0000              0              0              0              0              0            100              0           0.00        -1.0000
           9771       166.0500     14437.0000      1300.0000        26.0000         0.0000        20.0000              0              0              0              0              0            100              0           0.00        -1.0000
           9772       192.3000     14437.0000      1300.0000        26.0000         0.0000        20.0000              0              0              0              0              0            100              0           0.00        -1.0000
           9773       203.9000     34584.0000      3171.0000       198.0000         0.0000       114.0000              0              0              0              0              0            100              0           0.00        -1.0000
           9774       202.7000     34584.0000      3171.0000       198.0000         0.0000       230.0000              0              0              0              0              0            100              0           0.00        -1.0000
           9775       337.0000     60862.0000      4789.0000       237.0000         0.0000       320.0000              0              0              0              0              0            100              0           0.00        -1.0000
           9776       190.5000      8121.0000       732.0000        20.0000         0.0000       167.0000              0              0              0              0              0              0              0           0.00        -1.0000
           9777       208.8000     28674.0000      2340.0000       100.0000         0.0000       152.0000              0              0              0              0              0              0              0           0.00        -1.0000
