#___________________________________________________________________________
~VERSION INFORMATION
 VERS.                                 2.0 : CWLS LOG ASCII STANDARD - VERSION 2.0
 WRAP.                                  NO : ONE LINE PER DEPTH STEP
#___________________________________________________________________________
~WELL INFORMATION
 STRT.F                           10250.00 : START DEPTH
 STOP.F                           17841.00 : STOP DEPTH
 STEP.F                                  1 : STEP VALUE
 NULL.                             -999.25 : NULL VALUE
 COMP.      Magnolia Oil & Gas             : COMPANY
 WELL.      Dietz OL Unit 3H               : WELL
  FLD.      Giddings                       : FIELD
  LOC.      Washington County              : LOCATION
 CNTY.      Washington County              : PARISH/COUNTY
 STAT.      Texas                          : STATE
 CTRY.      USA                            : COUNTRY
" SRVC.      PetroLog International, Inc.   : SERVICE COMPANY"
 DATE.      07/23/2020                     : LOG DATE
  API.      42-477-31131                   : API REFERENCE NUMBER
#___________________________________________________________________________
~CURVE INFORMATION
#MNEM.UNITS                                : DESCRIPTION
DEPTH.F                                    :  1 DEPTH
 TGAS.Units                                :  2 Chromatograph_TotalGas
 MTHX.PPM                                  :  3 Chromatograph_MethanePPMMax
 ETHX.PPM                                  :  4 Chromatograph_EthanePPMMax
 PRPX.PPM                                  :  5 Chromatograph_PropanePPMMax
 IBTX.PPM                                  :  6 Chromatograph_IButanePPMMax
 NBTX.PPM                                  :  7 Chromatograph_NButanePPMMax
CEMNT.%                                    :  8 Lithology_Cement
SHALE.%                                    :  9 Lithology_Shale
SILTST.%                                   : 10 Lithology_Siltstone
 SAND.%                                    : 11 Lithology_Sand
 LIME.%                                    : 12 Lithology_Lime
 CHLK.%                                    : 13 Lithology_Chalk
  ASH.%                                    : 14 Lithology_Ash
 FRAC.%                                    : 15 Fracture
Kick/Loss.----                             : 16 Kick/Loss
#___________________________________________________________________________
~A        DEPTH           TGAS           MTHX           ETHX           PRPX           IBTX           NBTX          CEMNT          SHALE         SILTST           SAND           LIME           CHLK            ASH           FRAC      Kick/Loss
# ...
          15282        15.9000         0.0000         0.0000         0.0000         0.0000         0.0000              0              0              0              0              0              0              0           0.00        -4.0000
          15283        15.9000         0.0000         0.0000         0.0000         0.0000         0.0000              0              0              0              0              0              0              0           0.00        -4.0000
          15284        15.9000         0.0000         0.0000         0.0000         0.0000         0.0000              0              0              0              0              0              0              0           0.00        -4.0000
          15285        15.9000         0.0000         0.0000         0.0000         0.0000         0.0000              0              0              0              0              0              0              0           0.00        -4.0000
          15286        15.9000         0.0000         0.0000         0.0000         0.0000         0.0000              0              0              0              0              0              0              0           0.00        -4.0000
          15287        15.9000         0.0000         0.0000         0.0000         0.0000         0.0000              0              0              0              0              0              0              0           0.00        -4.0000
          15288        15.9000         0.0000         0.0000         0.0000         0.0000         0.0000              0              0              0              0              0              0              0           0.00        -4.0000
          15289        15.9000         0.0000         0.0000         0.0000         0.0000         0.0000              0              0              0              0              0              0              0           0.00        -4.0000
          15290        15.9000         0.0000         0.0000         0.0000         0.0000         0.0000              0              0              0              0              0              0              0           0.00        -4.0000
          15291        15.9000         0.0000         0.0000         0.0000         0.0000         0.0000              0              0              0              0              0              0              0           0.00        -4.0000
          15292        15.9000         0.0000         0.0000         0.0000         0.0000         0.0000              0              0              0              0              0              0              0           0.00        -4.0000
          15293        15.9000         0.0000         0.0000         0.0000         0.0000         0.0000              0              0              0              0              0              0              0           0.00        -4.0000
          15294        15.9000         0.0000         0.0000         0.0000         0.0000         0.0000              0              0              0              0              0              0              0           0.00        -4.0000
          15295        14.6500         0.0000         0.0000         0.0000         0.0000         0.0000              0              0              0              0              0              0              0           0.00        -4.0000
          15296        15.9000         0.0000         0.0000         0.0000         0.0000         0.0000              0              0              0              0              0              0              0           0.00        -4.0000
          15297        15.9000         0.0000         0.0000         0.0000         0.0000         0.0000              0              0              0              0              0              0              0           0.00        -4.0000
          15298        14.6500         0.0000         0.0000         0.0000         0.0000         0.0000              0              0              0              0              0              0              0           0.00        -4.0000
          15299        15.9000         0.0000         0.0000         0.0000         0.0000         0.0000              0              0              0              0              0              0              0           0.00        -4.0000
          15300        14.6500         0.0000         0.0000         0.0000         0.0000         0.0000              0              0              0              0              0              0              0           0.00        -4.0000
          15301        15.2750         0.0000         0.0000         0.0000         0.0000         0.0000              0              0              0              0              0              0              0           0.00        -4.0000
          15302        14.6500         0.0000         0.0000         0.0000         0.0000         0.0000              0              0              0              0              0              0              0           0.00        -4.0000
          15303        14.6500         0.0000         0.0000         0.0000         0.0000         0.0000              0              0              0              0              0              0              0           0.00        -4.0000
          15304        14.6500         0.0000         0.0000         0.0000         0.0000         0.0000              0              0              0              0              0              0              0           0.00        -4.0000
          15305        15.9000         0.0000         0.0000         0.0000         0.0000         0.0000              0              0              0              0              0              0              0           0.00        -4.0000
          15306        15.9000         0.0000         0.0000         0.0000         0.0000         0.0000              0              0              0              0              0              0              0           0.00        -4.0000
          15307        15.2750         0.0000         0.0000         0.0000         0.0000         0.0000              0              0              0              0              0              0              0           0.00        -4.0000
          15308        15.2750         0.0000         0.0000         0.0000         0.0000         0.0000              0              0              0              0              0              0              0           0.00        -4.0000
          15309        15.2750         0.0000         0.0000         0.0000         0.0000         0.0000              0              0              0              0              0              0              0           0.00        -4.0000
          15310        15.9000         0.0000         0.0000         0.0000         0.0000         0.0000              0              0              0              0              0              0              0           0.00        -4.0000
          15311        15.9000         0.0000         0.0000         0.0000         0.0000         0.0000              0              0              0              0              0              0              0           0.00        -4.0000
          15312        15.2750         0.0000         0.0000         0.0000         0.0000         0.0000              0              0              0              0              0              0              0           0.00        -4.0000
          15313        15.9000         0.0000         0.0000         0.0000         0.0000         0.0000              0              0              0              0              0              0              0           0.00        -4.0000
          15314        15.2750         0.0000         0.0000         0.0000         0.0000         0.0000              0              0              0              0              0              0              0           0.00        -4.0000
          15315        15.9000         0.0000         0.0000         0.0000         0.0000         0.0000              0              0              0              0              0              0              0           0.00        -4.0000
