#___________________________________________________________________________
~VERSION INFORMATION
 VERS.                                 2.0 : CWLS LOG ASCII STANDARD - VERSION 2.0
 WRAP.                                  NO : ONE LINE PER DEPTH STEP
#___________________________________________________________________________
~WELL INFORMATION
 STRT.F                           10250.00 : START DEPTH
 STOP.F                           17841.00 : STOP DEPTH
 STEP.F                                  1 : STEP VALUE
 NULL.                             -999.25 : NULL VALUE
 COMP.      Magnolia Oil & Gas             : COMPANY
 WELL.      Dietz OL Unit 3H               : WELL
  FLD.      Giddings                       : FIELD
  LOC.      Washington County              : LOCATION
 CNTY.      Washington County              : PARISH/COUNTY
 STAT.      Texas                          : STATE
 CTRY.      USA                            : COUNTRY
" SRVC.      PetroLog International, Inc.   : SERVICE COMPANY"
 DATE.      07/23/2020                     : LOG DATE
  API.      42-477-31131                   : API REFERENCE NUMBER
#___________________________________________________________________________
~CURVE INFORMATION
#MNEM.UNITS                                : DESCRIPTION
DEPTH.F                                    :  1 DEPTH
 TGAS.Units                                :  2 Chromatograph_TotalGas
 MTHX.PPM                                  :  3 Chromatograph_MethanePPMMax
 ETHX.PPM                                  :  4 Chromatograph_EthanePPMMax
 PRPX.PPM                                  :  5 Chromatograph_PropanePPMMax
 IBTX.PPM                                  :  6 Chromatograph_IButanePPMMax
 NBTX.PPM                                  :  7 Chromatograph_NButanePPMMax
CEMNT.%                                    :  8 Lithology_Cement
SHALE.%                                    :  9 Lithology_Shale
SILTST.%                                   : 10 Lithology_Siltstone
 SAND.%                                    : 11 Lithology_Sand
 LIME.%                                    : 12 Lithology_Lime
 CHLK.%                                    : 13 Lithology_Chalk
  ASH.%                                    : 14 Lithology_Ash
 FRAC.%                                    : 15 Fracture
Kick/Loss.----                             : 16 Kick/Loss
#___________________________________________________________________________
~A        DEPTH           TGAS           MTHX           ETHX           PRPX           IBTX           NBTX          CEMNT          SHALE         SILTST           SAND           LIME           CHLK            ASH           FRAC      Kick/Loss
# ...
          11270       472.5500     66520.0000      8238.0000      1796.0000       205.0000        66.0000              0              0              0              0              0            100              0           0.00         0.0000
          11271       459.1000     66520.0000      8238.0000      1796.0000       205.0000        66.0000              0              0              0              0              0            100              0           0.00         0.0000
          11272       443.8500     66520.0000      8238.0000      1796.0000       205.0000        66.0000              0              0              0              0              0            100              0           0.00         0.0000
          11273       433.4500     66520.0000      8238.0000      1796.0000       205.0000        66.0000              0              0              0              0              0            100              0           0.00         0.0000
          11274       431.0000     66520.0000      8238.0000      1796.0000       205.0000        66.0000              0              0              0              0              0            100              0           0.00         0.0000
          11275       429.8000     66520.0000      8238.0000      1796.0000       205.0000        66.0000              0              0              0              0              0            100              0           0.00         0.0000
          11276       425.5250     66520.0000      8238.0000      1796.0000       205.0000        66.0000              0              0              0              0              0            100              0           0.00         0.0000
          11277       473.7500     66520.0000      8238.0000      1796.0000       205.0000        74.0000              0              0              0              0              0            100              0           0.00         0.0000
          11278       446.9000     46432.0000      6985.0000      1622.0000        89.0000        74.0000              0              0              0              0              0            100              0           0.00         0.0000
          11279       484.7500     46432.0000      6985.0000      1622.0000        89.0000        74.0000              0              0              0              0              0            100              0           0.00         0.0000
          11280       499.4000     46432.0000      6985.0000      1622.0000        89.0000        74.0000              0              0              0              0              0            100              0           0.00         0.0000
          11281       511.6000     46432.0000      6985.0000      1622.0000        89.0000        74.0000              0              0              0              0              0            100              0           0.00         0.0000
          11282       515.8750     46432.0000      6985.0000      1622.0000        89.0000        74.0000              0              0              0              0              0            100              0           0.00         0.0000
          11283       514.0500     46432.0000      6985.0000      1622.0000        89.0000        74.0000              0              0              0              0              0            100              0           0.00         0.0000
          11284       498.1750     46432.0000      6985.0000      1622.0000        89.0000        74.0000              0              0              0              0              0            100              0           0.00         0.0000
          11285       471.9250     46432.0000      6985.0000      1622.0000        89.0000        74.0000              0              0              0              0              0            100              0           0.00         0.0000
          11286       448.1250     46432.0000      6985.0000      1622.0000        89.0000        74.0000              0              0              0              0              0            100              0           0.00         0.0000
          11287       431.0000     46432.0000      6985.0000      1622.0000        89.0000        74.0000              0              0              0              0              0            100              0           0.00         0.0000
          11288       417.6000     46432.0000      6985.0000      1622.0000        89.0000        74.0000              0              0              0              0              0            100              0           0.00         0.0000
          11289       406.6000     46432.0000      6985.0000      1622.0000        89.0000        74.0000              0              0              0              0              0            100              0           0.00         0.0000
          11290       402.9500     46432.0000      7964.0000      2031.0000       227.0000       314.0000              0              0              0              0              0            100              0           0.00         0.0000
          11291       395.6000     42075.0000      7964.0000      2031.0000       227.0000       314.0000              0              0              0              0              0            100              0           0.00         0.0000
          11292       405.3750     42075.0000      7964.0000      2031.0000       227.0000       314.0000              0              0              0              0              0            100              0           0.00         0.0000
          11293       416.3500     42075.0000      7964.0000      2031.0000       227.0000       314.0000              0              0              0              0              0            100              0           0.00         0.0000
          11294       457.2750     42075.0000      7964.0000      2031.0000       227.0000       314.0000              0              0              0              0              0            100              0           0.00         0.0000
          11295       475.5750     42075.0000      7964.0000      2031.0000       227.0000       314.0000              0              0              0              0              0            100              0           0.00         0.0000
          11296       482.3000     42075.0000      7964.0000      2031.0000       227.0000       314.0000              0              0              0              0              0            100              0           0.00         0.0000
          11297       479.8500     42075.0000      7964.0000      2031.0000       227.0000       314.0000              0              0              0              0              0            100              0           0.00         0.0000
          11298       453.0000     42075.0000      7964.0000      2031.0000       227.0000       314.0000              0              0              0              0              0            100              0           0.00         0.0000
          11299       420.0500     42075.0000      7964.0000      2031.0000       227.0000       314.0000              0              0              0              0              0            100              0           0.00         0.0000
          11300       396.8500     42075.0000      7964.0000      2031.0000       227.0000       314.0000              0              0              0              0              0            100              0           0.00         0.0000
          11301       387.0500     42075.0000      7964.0000      2031.0000       227.0000       314.0000              0              0              0              0              0            100              0           0.00         0.0000
          11302       377.3000     42075.0000      7964.0000      2031.0000       227.0000       314.0000              0              0              0              0              0            100              0           0.00         0.0000
          11303       384.6000     42075.0000      7964.0000      2031.0000       227.0000       314.0000              0              0              0              0              0            100              0           0.00         0.0000
