#___________________________________________________________________________
~VERSION INFORMATION
 VERS.                                 2.0 : CWLS LOG ASCII STANDARD - VERSION 2.0
 WRAP.                                  NO : ONE LINE PER DEPTH STEP
#___________________________________________________________________________
~WELL INFORMATION
 STRT.F                           10250.00 : START DEPTH
 STOP.F                           17841.00 : STOP DEPTH
 STEP.F                                  1 : STEP VALUE
 NULL.                             -999.25 : NULL VALUE
 COMP.      Magnolia Oil & Gas             : COMPANY
 WELL.      Dietz OL Unit 3H               : WELL
  FLD.      Giddings                       : FIELD
  LOC.      Washington County              : LOCATION
 CNTY.      Washington County              : PARISH/COUNTY
 STAT.      Texas                          : STATE
 CTRY.      USA                            : COUNTRY
" SRVC.      PetroLog International, Inc.   : SERVICE COMPANY"
 DATE.      07/23/2020                     : LOG DATE
  API.      42-477-31131                   : API REFERENCE NUMBER
#___________________________________________________________________________
~CURVE INFORMATION
#MNEM.UNITS                                : DESCRIPTION
DEPTH.F                                    :  1 DEPTH
 TGAS.Units                                :  2 Chromatograph_TotalGas
 MTHX.PPM                                  :  3 Chromatograph_MethanePPMMax
 ETHX.PPM                                  :  4 Chromatograph_EthanePPMMax
 PRPX.PPM                                  :  5 Chromatograph_PropanePPMMax
 IBTX.PPM                                  :  6 Chromatograph_IButanePPMMax
 NBTX.PPM                                  :  7 Chromatograph_NButanePPMMax
CEMNT.%                                    :  8 Lithology_Cement
SHALE.%                                    :  9 Lithology_Shale
SILTST.%                                   : 10 Lithology_Siltstone
 SAND.%                                    : 11 Lithology_Sand
 LIME.%                                    : 12 Lithology_Lime
 CHLK.%                                    : 13 Lithology_Chalk
  ASH.%                                    : 14 Lithology_Ash
 FRAC.%                                    : 15 Fracture
Kick/Loss.----                             : 16 Kick/Loss
#___________________________________________________________________________
~A        DEPTH           TGAS           MTHX           ETHX           PRPX           IBTX           NBTX          CEMNT          SHALE         SILTST           SAND           LIME           CHLK            ASH           FRAC      Kick/Loss
# ...
          10760       224.6500     29523.0000      2653.0000       438.0000         0.0000         0.0000              0              0              0              0              0            100              0           0.00         0.0000
          10761       241.7500     29523.0000      2653.0000       438.0000         0.0000         0.0000              0              0              0              0              0            100              0           0.00         0.0000
          10762       239.3000     29523.0000      2653.0000       438.0000         0.0000         0.0000              0              0              0              0              0            100              0           0.00         0.0000
          10763       241.1500     29523.0000      2653.0000       438.0000         0.0000         0.0000              0              0              0              0              0            100              0           0.00         0.0000
          10764       243.0000     29523.0000      2653.0000       438.0000         0.0000         0.0000              0              0              0              0              0            100              0           0.00         0.0000
          10765       256.4000     33923.0000      3031.0000       498.0000         0.0000         0.0000              0              0              0              0              0            100              0           0.00         0.0000
          10766       279.6000     33923.0000      3031.0000       498.0000         0.0000         0.0000              0              0              0              0              0            100              0           0.00         0.0000
          10767        62.2500     33923.0000      3031.0000       498.0000         0.0000         0.0000              0              0              0              0              0            100              0           0.00         0.0000
          10768        29.3000     33923.0000      3031.0000       498.0000         0.0000         0.0000              0              0              0              0              0            100              0           0.00         0.0000
          10769        26.8500         0.0000         0.0000         0.0000         0.0000         0.0000              0              0              0              0              0            100              0           0.00         0.0000
          10770        26.8500         0.0000         0.0000         0.0000         0.0000         0.0000              0              0              0              0              0            100              0           0.00         0.0000
          10771       136.7500         0.0000         0.0000         0.0000         0.0000         0.0000              0              0              0              0              0            100              0           0.00         0.0000
          10772       211.2500         0.0000         0.0000         0.0000         0.0000         0.0000              0              0              0              0              0            100              0           0.00         0.0000
          10773       247.8500         0.0000         0.0000         0.0000         0.0000         0.0000              0              0              0              0              0            100              0           0.00         0.0000
          10774       256.4000         0.0000         0.0000         0.0000         0.0000         0.0000              0              0              0              0              0            100              0           0.00         0.0000
          10775       255.2000         0.0000         0.0000         0.0000         0.0000         0.0000              0              0              0              0              0            100              0           0.00         0.0000
          10776       255.2000         0.0000         0.0000         0.0000         0.0000         0.0000              0              0              0              0              0            100              0           0.00         0.0000
          10777       257.6500     34441.0000      3157.0000       557.0000         0.0000         0.0000              0              0              0              0              0            100              0           0.00         0.0000
          10778       269.2250     34441.0000      3157.0000       557.0000         0.0000         0.0000              0              0              0              0              0            100              0           0.00         0.0000
          10779       267.4000     34441.0000      3157.0000       557.0000         0.0000         0.0000              0              0              0              0              0            100              0           0.00         0.0000
          10780       261.3000     34441.0000      3157.0000       557.0000         0.0000         0.0000              0              0              0              0              0            100              0           0.00         0.0000
          10781       275.3500     34441.0000      3157.0000       557.0000         0.0000         0.0000              0              0              0              0              0            100              0           0.00         0.0000
          10782       289.4000     34441.0000      3157.0000       557.0000         0.0000         0.0000              0              0              0              0              0            100              0           0.00         0.0000
          10783       277.7750     34441.0000      3157.0000       557.0000         0.0000         0.0000              0              0              0              0              0            100              0           0.00         0.0000
          10784       278.4000     34441.0000      3157.0000       557.0000         0.0000         0.0000              0              0              0              0              0            100              0           0.00         0.0000
          10785       282.0500     38469.0000      3582.0000       646.0000         0.0000         0.0000              0              0              0              0              0            100              0           0.00         0.0000
          10786       283.2500     38469.0000      3582.0000       646.0000         0.0000         0.0000              0              0              0              0              0            100              0           0.00         0.0000
          10787       276.5500     38469.0000      3582.0000       646.0000         0.0000         0.0000              0              0              0              0              0            100              0           0.00         0.0000
          10788       290.6000     38469.0000      3582.0000       646.0000         0.0000         0.0000              0              0              0              0              0            100              0           0.00         0.0000
          10789       290.6000     38469.0000      3582.0000       646.0000         0.0000         0.0000              0              0              0              0              0            100              0           0.00         0.0000
          10790       295.5000     38469.0000      3582.0000       646.0000         0.0000         0.0000              0              0              0              0              0            100              0           0.00         0.0000
          10791       286.9500     38469.0000      3582.0000       646.0000         0.0000         0.0000              0              0              0              0              0            100              0           0.00         0.0000
          10792       275.9500     38469.0000      3582.0000       646.0000         0.0000         0.0000              0              0              0              0              0            100              0           0.00         0.0000
          10793       282.6500     38469.0000      3582.0000       646.0000         0.0000         0.0000              0              0              0              0              0            100              0           0.00         0.0000
