#___________________________________________________________________________
~VERSION INFORMATION
 VERS.                                 2.0 : CWLS LOG ASCII STANDARD - VERSION 2.0
 WRAP.                                  NO : ONE LINE PER DEPTH STEP
#___________________________________________________________________________
~WELL INFORMATION
 STRT.F                           10250.00 : START DEPTH
 STOP.F                           17841.00 : STOP DEPTH
 STEP.F                                  1 : STEP VALUE
 NULL.                             -999.25 : NULL VALUE
 COMP.      Magnolia Oil & Gas             : COMPANY
 WELL.      Dietz OL Unit 3H               : WELL
  FLD.      Giddings                       : FIELD
  LOC.      Washington County              : LOCATION
 CNTY.      Washington County              : PARISH/COUNTY
 STAT.      Texas                          : STATE
 CTRY.      USA                            : COUNTRY
" SRVC.      PetroLog International, Inc.   : SERVICE COMPANY"
 DATE.      07/23/2020                     : LOG DATE
  API.      42-477-31131                   : API REFERENCE NUMBER
#___________________________________________________________________________
~CURVE INFORMATION
#MNEM.UNITS                                : DESCRIPTION
DEPTH.F                                    :  1 DEPTH
 TGAS.Units                                :  2 Chromatograph_TotalGas
 MTHX.PPM                                  :  3 Chromatograph_MethanePPMMax
 ETHX.PPM                                  :  4 Chromatograph_EthanePPMMax
 PRPX.PPM                                  :  5 Chromatograph_PropanePPMMax
 IBTX.PPM                                  :  6 Chromatograph_IButanePPMMax
 NBTX.PPM                                  :  7 Chromatograph_NButanePPMMax
CEMNT.%                                    :  8 Lithology_Cement
SHALE.%                                    :  9 Lithology_Shale
SILTST.%                                   : 10 Lithology_Siltstone
 SAND.%                                    : 11 Lithology_Sand
 LIME.%                                    : 12 Lithology_Lime
 CHLK.%                                    : 13 Lithology_Chalk
  ASH.%                                    : 14 Lithology_Ash
 FRAC.%                                    : 15 Fracture
Kick/Loss.----                             : 16 Kick/Loss
#___________________________________________________________________________
~A        DEPTH           TGAS           MTHX           ETHX           PRPX           IBTX           NBTX          CEMNT          SHALE         SILTST           SAND           LIME           CHLK            ASH           FRAC      Kick/Loss
# ...
          11746       609.9000      9072.0000         0.0000       979.0000        60.0000       135.0000              0              0              0              0              0            100              0           0.00         0.0000
          11747       589.7500      9072.0000         0.0000       979.0000        60.0000       135.0000              0              0              0              0              0            100              0           0.00         0.0000
          11748       951.7750     61955.0000     13680.0000      3717.0000       499.0000       709.0000              0              0              0              0              0            100              0           0.00         0.0000
          11749       630.0250     61955.0000     13680.0000      3717.0000       499.0000       709.0000              0              0              0              0              0            100              0           0.00         0.0000
          11750       565.3500     61955.0000     13680.0000      3717.0000       499.0000       709.0000              0              0              0              0              0            100              0           0.00         0.0000
          11751       514.0500     61955.0000     13680.0000      3717.0000       499.0000       709.0000              0              0              0              0              0            100              0           0.00         0.0000
          11752       560.4500     61955.0000     13680.0000      3717.0000       499.0000       709.0000              0              0              0              0              0            100              0           0.00         0.0000
          11753       622.7250     61955.0000     13680.0000      3717.0000       499.0000       709.0000              0              0              0              0              0            100              0           0.00         0.0000
          11754       669.1000     61955.0000     13680.0000      3717.0000       499.0000       709.0000              0              0              0              0              0            100              0           0.00         0.0000
          11755       685.6000     61955.0000     13680.0000      3717.0000       499.0000       709.0000              0              0              0              0              0            100              0           0.00         0.0000
          11756       686.8250     61955.0000     13680.0000      3717.0000       499.0000       709.0000              0              0              0              0              0            100              0           0.00         0.0000
          11757       683.7500     61955.0000     13680.0000      3717.0000       499.0000       709.0000              0              0              0              0              0            100              0           0.00         0.0000
          11758       672.7500     61955.0000     13680.0000      3717.0000       499.0000       709.0000              0              0              0              0              0            100              0           0.00         0.0000
          11759       665.4500     61955.0000     13680.0000      3717.0000       499.0000       709.0000              0              0              0              0              0            100              0           0.00         0.0000
          11760       665.4500     61955.0000     13680.0000      3717.0000       499.0000       709.0000              0              0              0              0              0            100              0           0.00         0.0000
          11761       666.6500     61955.0000     13680.0000      3717.0000       499.0000       709.0000              0              0              0              0              0            100              0           0.00         0.0000
          11762       663.0000     61955.0000     13680.0000      3717.0000       499.0000       709.0000              0              0              0              0              0            100              0           0.00         0.0000
          11763       661.8000     61955.0000     13680.0000      3717.0000       499.0000       709.0000              0              0              0              0              0            100              0           0.00         0.0000
          11764       658.7250     61955.0000     13680.0000      3717.0000       499.0000       709.0000              0              0              0              0              0            100              0           0.00         0.0000
          11765       650.8000     61955.0000     13680.0000      3717.0000       499.0000       709.0000              0              0              0              0              0            100              0           0.00         0.0000
          11766       634.9000     61955.0000     14314.0000      4282.0000       642.0000       919.0000              0              0              0              0              0            100              0           0.00         0.0000
          11767       611.7000     55224.0000     14314.0000      4282.0000       642.0000       919.0000              0              0              0              0              0            100              0           0.00         0.0000
          11768       599.5000     55224.0000     14314.0000      4282.0000       642.0000       919.0000              0              0              0              0              0            100              0           0.00         0.0000
          11769       587.3000     55224.0000     14314.0000      4282.0000       642.0000       919.0000              0              0              0              0              0            100              0           0.00         0.0000
          11770       580.0000     55224.0000     14314.0000      4282.0000       642.0000       919.0000              0              0              0              0              0            100              0           0.00         0.0000
          11771       570.2000     55224.0000     14314.0000      4282.0000       642.0000       919.0000              0              0              0              0              0            100              0           0.00         0.0000
          11772       569.0000     55224.0000     14314.0000      4282.0000       642.0000       919.0000              0              0              0              0              0            100              0           0.00         0.0000
          11773       572.6500     55224.0000     14314.0000      4282.0000       642.0000       919.0000              0              0              0              0              0            100              0           0.00         0.0000
          11774       570.2000     55224.0000     14314.0000      4282.0000       642.0000       919.0000              0              0              0              0              0            100              0           0.00         0.0000
          11775       564.1000     55224.0000     14314.0000      4282.0000       642.0000       919.0000              0              0              0              0              0            100              0           0.00         0.0000
          11776       565.9500     55224.0000     14314.0000      4282.0000       642.0000       919.0000              0              0              0              0              0            100              0           0.00         0.0000
          11777       569.0000     55224.0000     14314.0000      4282.0000       642.0000       919.0000              0              0              0              0              0            100              0           0.00         0.0000
          11778       569.0000     55224.0000     14314.0000      4282.0000       642.0000       919.0000              0              0              0              0              0            100              0           0.00         0.0000
          11779       562.2750     55224.0000     14314.0000      4282.0000       642.0000       919.0000              0              0              0              0              0            100              0           0.00         0.0000
