#___________________________________________________________________________
~VERSION INFORMATION
 VERS.                                 2.0 : CWLS LOG ASCII STANDARD - VERSION 2.0
 WRAP.                                  NO : ONE LINE PER DEPTH STEP
#___________________________________________________________________________
~WELL INFORMATION
 STRT.F                           10250.00 : START DEPTH
 STOP.F                           17841.00 : STOP DEPTH
 STEP.F                                  1 : STEP VALUE
 NULL.                             -999.25 : NULL VALUE
 COMP.      Magnolia Oil & Gas             : COMPANY
 WELL.      Dietz OL Unit 3H               : WELL
  FLD.      Giddings                       : FIELD
  LOC.      Washington County              : LOCATION
 CNTY.      Washington County              : PARISH/COUNTY
 STAT.      Texas                          : STATE
 CTRY.      USA                            : COUNTRY
" SRVC.      PetroLog International, Inc.   : SERVICE COMPANY"
 DATE.      07/23/2020                     : LOG DATE
  API.      42-477-31131                   : API REFERENCE NUMBER
#___________________________________________________________________________
~CURVE INFORMATION
#MNEM.UNITS                                : DESCRIPTION
DEPTH.F                                    :  1 DEPTH
 TGAS.Units                                :  2 Chromatograph_TotalGas
 MTHX.PPM                                  :  3 Chromatograph_MethanePPMMax
 ETHX.PPM                                  :  4 Chromatograph_EthanePPMMax
 PRPX.PPM                                  :  5 Chromatograph_PropanePPMMax
 IBTX.PPM                                  :  6 Chromatograph_IButanePPMMax
 NBTX.PPM                                  :  7 Chromatograph_NButanePPMMax
CEMNT.%                                    :  8 Lithology_Cement
SHALE.%                                    :  9 Lithology_Shale
SILTST.%                                   : 10 Lithology_Siltstone
 SAND.%                                    : 11 Lithology_Sand
 LIME.%                                    : 12 Lithology_Lime
 CHLK.%                                    : 13 Lithology_Chalk
  ASH.%                                    : 14 Lithology_Ash
 FRAC.%                                    : 15 Fracture
Kick/Loss.----                             : 16 Kick/Loss
#___________________________________________________________________________
~A        DEPTH           TGAS           MTHX           ETHX           PRPX           IBTX           NBTX          CEMNT          SHALE         SILTST           SAND           LIME           CHLK            ASH           FRAC      Kick/Loss
          10250        86.7000      4433.0000       251.0000         0.0000         0.0000         0.0000              0              0              0              0              0            100              0           0.00         0.0000
          10251        87.3000      4433.0000       251.0000         0.0000         0.0000         0.0000              0              0              0              0              0            100              0           0.00         0.0000
          10252        90.3500      4433.0000       251.0000         0.0000         0.0000         0.0000              0              0              0              0              0            100              0           0.00         0.0000
          10253        91.6000      4433.0000       251.0000         0.0000         0.0000         0.0000              0              0              0              0              0            100              0           0.00         0.0000
          10254        95.2500      4433.0000       251.0000         0.0000         0.0000         0.0000              0              0              0              0              0            100              0           0.00         0.0000
          10255       101.9500      4433.0000       251.0000         0.0000         0.0000         0.0000              0              0              0              0              0            100              0           0.00         0.0000
          10256       267.4000      4433.0000       251.0000         0.0000         0.0000         0.0000              0              0              0              0              0            100              0           0.00         0.0000
          10257       855.9250      4433.0000       251.0000         0.0000         0.0000         0.0000              0              0              0              0              0            100              0           0.00         0.0000
          10258      2548.2500      4433.0000       251.0000         0.0000         0.0000         0.0000              0              0              0              0              0            100              0           0.00         0.0000
          10259      2768.0000    269727.0000     45599.0000     12917.0000      1538.0000      1861.0000              0              0              0              0              0            100              0           0.00         0.0000
          10260        30.5500      4245.0000       537.0000        74.0000         0.0000         0.0000              0              0              0              0              0            100              0           0.00         0.0000
          10261        31.7500      4245.0000       537.0000        74.0000         0.0000         0.0000              0              0              0              0              0            100              0           0.00         0.0000
          10262        39.0500      1930.0000       234.0000         0.0000         0.0000         0.0000              0              0              0              0              0            100              0           0.00         0.0000
          10263        40.3000      1930.0000       234.0000         0.0000         0.0000         0.0000              0              0              0              0              0            100              0           0.00         0.0000
          10264        42.7500      1930.0000       234.0000         0.0000         0.0000         0.0000              0              0              0              0              0            100              0           0.00         0.0000
          10265        42.7500      1930.0000       234.0000         0.0000         0.0000         0.0000              0              0              0              0              0            100              0           0.00         0.0000
          10266        43.9500      1930.0000       234.0000         0.0000         0.0000         0.0000              0              0              0              0              0            100              0           0.00         0.0000
          10267        46.4000      1930.0000       234.0000         0.0000         0.0000         0.0000              0              0              0              0              0            100              0           0.00         0.0000
          10268        48.8500      1930.0000       234.0000         0.0000         0.0000         0.0000              0              0              0              0              0            100              0           0.00         0.0000
          10269        51.3000      3539.0000       463.0000        66.0000         0.0000         0.0000              0              0              0              0              0            100              0           0.00         0.0000
          10270        55.5500      3539.0000       463.0000        66.0000         0.0000         0.0000              0              0              0              0              0            100              0           0.00         0.0000
          10271        56.1500      3539.0000       463.0000        66.0000         0.0000         0.0000              0              0              0              0              0            100              0           0.00         0.0000
          10272        53.7500      3539.0000       463.0000        66.0000         0.0000         0.0000              0              0              0              0              0            100              0           0.00         0.0000
          10273        50.0500      3539.0000       463.0000        66.0000         0.0000         0.0000              0              0              0              0              0            100              0           0.00         0.0000
          10274        46.4000      3539.0000       463.0000        66.0000         0.0000         0.0000              0              0              0              0              0            100              0           0.00         0.0000
          10275        45.2000      3539.0000       463.0000        66.0000         0.0000         0.0000              0              0              0              0              0            100              0           0.00         0.0000
          10276        43.9500      3539.0000       463.0000        66.0000         0.0000         0.0000              0              0              0              0              0            100              0           0.00         0.0000
          10277        41.5000      2409.0000       321.0000         0.0000         0.0000         0.0000              0              0              0              0              0            100              0           0.00         0.0000
          10278        41.5000      2409.0000       321.0000         0.0000         0.0000         0.0000              0              0              0              0              0            100              0           0.00         0.0000
          10279        41.5000      2409.0000       321.0000         0.0000         0.0000         0.0000              0              0              0              0              0            100              0           0.00         0.0000
          10280        41.5000      2409.0000       321.0000         0.0000         0.0000         0.0000              0              0              0              0              0            100              0           0.00         0.0000
          10281        51.3000      2409.0000       321.0000         0.0000         0.0000         0.0000              0              0              0              0              0            100              0           0.00         0.0000
          10282        51.3000      2409.0000       321.0000         0.0000         0.0000         0.0000              0              0              0              0              0            100              0           0.00         0.0000
          10283        50.0500      3391.0000       362.0000         0.0000         0.0000         0.0000              0              0              0              0              0            100              0           0.00         0.0000
