#___________________________________________________________________________
~VERSION INFORMATION
 VERS.                                 2.0 : CWLS LOG ASCII STANDARD - VERSION 2.0
 WRAP.                                  NO : ONE LINE PER DEPTH STEP
#___________________________________________________________________________
~WELL INFORMATION
 STRT.F                            9700.00 : START DEPTH
 STOP.F                           17167.00 : STOP DEPTH
 STEP.F                                  1 : STEP VALUE
 NULL.                             -999.25 : NULL VALUE
 COMP.      Magnolia Oil & Gas             : COMPANY
 WELL.      Fat Tire A 1H                  : WELL
  FLD.      Giddings                       : FIELD
  LOC.      Fayette County                 : LOCATION
 CNTY.      Fayette County                 : PARISH/COUNTY
 STAT.      Texas                          : STATE
 CTRY.      USA                            : COUNTRY
" SRVC.      PetroLog International, Inc.   : SERVICE COMPANY"
 DATE.      12/18/2020                     : LOG DATE
  API.      42-149-33515                   : API REFERENCE NUMBER
#___________________________________________________________________________
~CURVE INFORMATION
#MNEM.UNITS                                : DESCRIPTION
DEPTH.F                                    :  1 DEPTH
 TGAS.Units                                :  2 Chromatograph_TotalGas
 MTHX.PPM                                  :  3 Chromatograph_MethanePPMMax
 ETHX.PPM                                  :  4 Chromatograph_EthanePPMMax
 PRPX.PPM                                  :  5 Chromatograph_PropanePPMMax
 IBTX.PPM                                  :  6 Chromatograph_IButanePPMMax
 NBTX.PPM                                  :  7 Chromatograph_NButanePPMMax
CEMNT.%                                    :  8 Lithology_Cement
SHALE.%                                    :  9 Lithology_Shale
SILTST.%                                   : 10 Lithology_Siltstone
 SAND.%                                    : 11 Lithology_Sand
 LIME.%                                    : 12 Lithology_Lime
 CHLK.%                                    : 13 Lithology_Chalk
  ASH.%                                    : 14 Lithology_Ash
 FRAC.%                                    : 15 Fracture
Kick/Loss.----                             : 16 Kick/Loss
#___________________________________________________________________________
~A        DEPTH           TGAS           MTHX           ETHX           PRPX           IBTX           NBTX          CEMNT          SHALE         SILTST           SAND           LIME           CHLK            ASH           FRAC      Kick/Loss
# ...
          14154      3051.3000    160367.0000    114936.0000     77885.0000     10793.0000     25449.0000              0              0              0              0              0            100              0           0.00         0.0000
          14155      3028.1000    160367.0000    114936.0000     77885.0000     10793.0000     25449.0000              0              0              0              0              0            100              0           0.00         0.0000
          14156      2984.1500    160367.0000    114936.0000     77885.0000     10793.0000     25449.0000              0              0              0              0              0            100              0           0.00         0.0000
          14157      2952.4000    160367.0000    114936.0000     77885.0000     10793.0000     25449.0000              0              0              0              0              0            100              0           0.00         0.0000
          14158      2949.3500    160367.0000    114936.0000     77885.0000     10793.0000     25449.0000              0              0              0              0              0            100              0           0.00         0.0000
          14159      2926.7500    160367.0000    114936.0000     77885.0000     10793.0000     25449.0000              0              0              0              0              0            100              0           0.00         0.0000
          14160      2916.3500    160367.0000    114936.0000     77885.0000     10793.0000     25449.0000              0              0              0              0              0            100              0           0.00         0.0000
          14161      2906.0000    160367.0000    114936.0000     77885.0000     10793.0000     25449.0000              0              0              0              0              0            100              0           0.00         0.0000
          14162      2892.5500    160367.0000    114936.0000     77885.0000     10793.0000     25449.0000              0              0              0              0              0            100              0           0.00         0.0000
          14163      2873.0250    160367.0000    114936.0000     77885.0000     10793.0000     25449.0000              0              0              0              0              0            100              0           0.00         0.0000
          14164      2843.7250    160367.0000    114936.0000     77885.0000     10793.0000     25449.0000              0              0              0              0              0            100              0           0.00         0.0000
          14165      2833.9500    160367.0000    114936.0000     77885.0000     10793.0000     25449.0000              0              0              0              0              0            100              0           0.00         0.0000
          14166      2816.8500    160367.0000    114936.0000     77885.0000     10793.0000     25449.0000              0              0              0              0              0            100              0           0.00         0.0000
          14167      2802.2000    160367.0000    114936.0000     77885.0000     10793.0000     25449.0000              0              0              0              0              0            100              0           0.00         0.0000
          14168      2802.2000    160367.0000    114936.0000     77885.0000     10793.0000     25449.0000              0              0              0              0              0            100              0           0.00         0.0000
          14169      2797.9250    160367.0000    114936.0000     77885.0000     10793.0000     25449.0000              0              0              0              0              0            100              0           0.00         0.0000
          14170      2799.7500    173899.0000    114936.0000     77885.0000     10793.0000     25449.0000              0              0              0              0              0            100              0           0.00         0.0000
          14171      2791.2000    173899.0000     93491.0000     50907.0000      6993.0000     18139.0000              0              0              0              0              0            100              0           0.00         0.0000
          14172      2801.0000    173899.0000     93491.0000     50907.0000      6993.0000     18139.0000              0              0              0              0              0            100              0           0.00         0.0000
          14173      2813.8000    173899.0000     93491.0000     50907.0000      6993.0000     18139.0000              0              0              0              0              0            100              0           0.00         0.0000
          14174      2801.5750    173899.0000     93491.0000     50907.0000      6993.0000     18139.0000              0              0              0              0              0            100              0           0.00         0.0000
          14175      2812.5750    173899.0000     93491.0000     50907.0000      6993.0000     18139.0000              0              0              0              0              0            100              0           0.00         0.0000
          14176      2807.7000    173899.0000     93491.0000     50907.0000      6993.0000     18139.0000              0              0              0              0              0            100              0           0.00         0.0000
          14177      2790.0000    173899.0000     93491.0000     50907.0000      6993.0000     18139.0000              0              0              0              0              0            100              0           0.00         0.0000
          14178      2776.5500    173899.0000     93491.0000     50907.0000      6993.0000     18139.0000              0              0              0              0              0            100              0           0.00         0.0000
          14179      2755.8000    173899.0000     93491.0000     50907.0000      6993.0000     18139.0000              0              0              0              0              0            100              0           0.00         0.0000
          14180      2726.5000    173899.0000     93491.0000     50907.0000      6993.0000     18139.0000              0              0              0              0              0            100              0           0.00         0.0000
          14181      2717.9500    173899.0000     93491.0000     50907.0000      6993.0000     18139.0000              0              0              0              0              0            100              0           0.00         0.0000
          14182      2708.1750    173899.0000     93491.0000     50907.0000      6993.0000     18139.0000              0              0              0              0              0            100              0           0.00         0.0000
          14183      2700.8500    173899.0000     93491.0000     50907.0000      6993.0000     18139.0000              0              0              0              0              0            100              0           0.00         0.0000
          14184      2698.4000    173899.0000     93491.0000     50907.0000      6993.0000     18139.0000              0              0              0              0              0            100              0           0.00         0.0000
          14185      2680.7250    173899.0000     93491.0000     50907.0000      6993.0000     18139.0000              0              0              0              0              0            100              0           0.00         0.0000
          14186      2666.6500    173899.0000     93491.0000     50907.0000      6993.0000     18139.0000              0              0              0              0              0            100              0           0.00         0.0000
          14187      2651.4000    173899.0000     93491.0000     50907.0000      6993.0000     18139.0000              0              0              0              0              0            100              0           0.00         0.0000
