#___________________________________________________________________________
~VERSION INFORMATION
 VERS.                                 2.0 : CWLS LOG ASCII STANDARD - VERSION 2.0
 WRAP.                                  NO : ONE LINE PER DEPTH STEP
#___________________________________________________________________________
~WELL INFORMATION
 STRT.F                            9700.00 : START DEPTH
 STOP.F                           17167.00 : STOP DEPTH
 STEP.F                                  1 : STEP VALUE
 NULL.                             -999.25 : NULL VALUE
 COMP.      Magnolia Oil & Gas             : COMPANY
 WELL.      Fat Tire A 1H                  : WELL
  FLD.      Giddings                       : FIELD
  LOC.      Fayette County                 : LOCATION
 CNTY.      Fayette County                 : PARISH/COUNTY
 STAT.      Texas                          : STATE
 CTRY.      USA                            : COUNTRY
" SRVC.      PetroLog International, Inc.   : SERVICE COMPANY"
 DATE.      12/18/2020                     : LOG DATE
  API.      42-149-33515                   : API REFERENCE NUMBER
#___________________________________________________________________________
~CURVE INFORMATION
#MNEM.UNITS                                : DESCRIPTION
DEPTH.F                                    :  1 DEPTH
 TGAS.Units                                :  2 Chromatograph_TotalGas
 MTHX.PPM                                  :  3 Chromatograph_MethanePPMMax
 ETHX.PPM                                  :  4 Chromatograph_EthanePPMMax
 PRPX.PPM                                  :  5 Chromatograph_PropanePPMMax
 IBTX.PPM                                  :  6 Chromatograph_IButanePPMMax
 NBTX.PPM                                  :  7 Chromatograph_NButanePPMMax
CEMNT.%                                    :  8 Lithology_Cement
SHALE.%                                    :  9 Lithology_Shale
SILTST.%                                   : 10 Lithology_Siltstone
 SAND.%                                    : 11 Lithology_Sand
 LIME.%                                    : 12 Lithology_Lime
 CHLK.%                                    : 13 Lithology_Chalk
  ASH.%                                    : 14 Lithology_Ash
 FRAC.%                                    : 15 Fracture
Kick/Loss.----                             : 16 Kick/Loss
#___________________________________________________________________________
~A        DEPTH           TGAS           MTHX           ETHX           PRPX           IBTX           NBTX          CEMNT          SHALE         SILTST           SAND           LIME           CHLK            ASH           FRAC      Kick/Loss
# ...
          15174      1493.3000    136716.0000     27952.0000     10853.0000       931.0000      2952.0000              0              0              0              0              0            100              0           2.00         0.0000
          15175      1500.6000    138946.0000     28129.0000     10693.0000       884.0000      2868.0000              0              0              0              0              0            100              0           2.00         0.0000
          15176      1492.0750    138946.0000     28129.0000     10693.0000       884.0000      2838.0000              0              0              0              0              0            100              0           2.00         0.0000
          15177      1422.4500    128251.0000     26695.0000     10012.0000       729.0000      2409.0000              0              0              0              0              0            100              0           2.00         0.0000
          15178      1356.5500    128251.0000     26695.0000     10012.0000       729.0000      2409.0000              0              0              0              0              0            100              0           2.00         0.0000
          15179      1424.9000    128251.0000     26695.0000     10012.0000       729.0000      2409.0000              0              0              0              0              0            100              0           2.00         0.0000
          15180      1448.1000    137353.0000     26772.0000      9843.0000       718.0000      2361.0000              0              0              0              0              0            100              0           2.00         0.0000
          15181      1479.8500    137353.0000     26772.0000      9843.0000       718.0000      2361.0000              0              0              0              0              0            100              0           2.00         0.0000
          15182      1616.6250    157384.0000     31132.0000     10894.0000       780.0000      2513.0000              0              0              0              0              0            100              0           2.00         0.0000
          15183      1758.8500    157384.0000     42305.0000     15999.0000      1309.0000      3492.0000              0              0              0              0              0            100              0           2.00         0.0000
          15184      1777.7750    138719.0000     42305.0000     15999.0000      1309.0000      3492.0000              0              0              0              0              0            100              0           2.00         0.0000
          15185      1802.8000    138719.0000     42305.0000     15999.0000      1309.0000      3492.0000              0              0              0              0              0            100              0           2.00         0.0000
          15186      1802.2000    138719.0000     42305.0000     15999.0000      1309.0000      3492.0000              0              0              0              0              0            100              0           2.00         0.0000
          15187      1816.8500    138719.0000     42305.0000     15999.0000      1309.0000      3492.0000              0              0              0              0              0            100              0           2.00         0.0000
          15188      1835.1500    138976.0000     53165.0000     20417.0000      1730.0000      4418.0000              0              0              0              0              0            100              0           2.00         0.0000
          15189      1864.4500    138976.0000     53165.0000     20417.0000      1730.0000      4418.0000              0              0              0              0              0            100              0           2.00         0.0000
          15190      1882.8000    138976.0000     53165.0000     20417.0000      1730.0000      4418.0000              0              0              0              0              0            100              0           2.00         0.0000
          15191      1869.3500    138976.0000     53165.0000     20417.0000      1730.0000      4418.0000              0              0              0              0              0            100              0           2.00         0.0000
          15192      1841.2500    138976.0000     53165.0000     20417.0000      1730.0000      4418.0000              0              0              0              0              0            100              0           2.00         0.0000
          15193      1885.2500    138976.0000     53165.0000     20417.0000      1730.0000      4418.0000              0              0              0              0              0            100              0           2.00         0.0000
          15194      1877.3000    138976.0000     53165.0000     20417.0000      1730.0000      4418.0000              0              0              0              0              0            100              0           2.00         0.0000
          15195      1879.1250    138976.0000     53165.0000     20417.0000      1730.0000      4418.0000              0              0              0              0              0            100              0           2.00         0.0000
          15196      1884.0000    138976.0000     53165.0000     20417.0000      1730.0000      4418.0000              0              0              0              0              0            100              0           2.00         0.0000
          15197      1881.2300    138976.0000     53165.0000     20417.0000      1730.0000      4418.0000              0              0              0              0              0            100              0           2.00         0.0000
          15198      1876.4600    138976.0000     53165.0000     20417.0000      1730.0000      4418.0000              0              0              0              0              0            100              0           2.00         0.0000
          15199      1873.6250    138976.0000     53165.0000     20417.0000      1730.0000      4418.0000              0              0              0              0              0            100              0           2.00         0.0000
          15200      1874.9800    138976.0000     53165.0000     20417.0000      1730.0000      4418.0000              0              0              0              0              0            100              0           2.00         0.0000
          15201      1876.3300    138976.0000     53165.0000     20417.0000      1730.0000      4418.0000              0              0              0              0              0            100              0           3.00         0.0000
          15202      1879.1000    138976.0000     53165.0000     20417.0000      1730.0000      4418.0000              0              0              0              0              0            100              0           3.00         0.0000
          15203      1883.5460    138976.0000     53165.0000     20417.0000      1730.0000      4418.0000              0              0              0              0              0            100              0           3.00         0.0000
          15204      1890.4400    138976.0000     53165.0000     20417.0000      1730.0000      4418.0000              0              0              0              0              0            100              0           3.00         0.0000
          15205      1899.9000    138976.0000     53165.0000     20417.0000      1730.0000      4418.0000              0              0              0              0              0            100              0           3.00         0.0000
          15206      1899.1200    138976.0000     53165.0000     20417.0000      1730.0000      4418.0000              0              0              0              0              0            100              0           3.00         0.0000
          15207      1896.7500    138976.0000     53165.0000     20417.0000      1730.0000      4418.0000              0              0              0              0              0            100              0           3.00         0.0000
