#___________________________________________________________________________
~VERSION INFORMATION
 VERS.                                 2.0 : CWLS LOG ASCII STANDARD - VERSION 2.0
 WRAP.                                  NO : ONE LINE PER DEPTH STEP
#___________________________________________________________________________
~WELL INFORMATION
 STRT.F                            9700.00 : START DEPTH
 STOP.F                           17167.00 : STOP DEPTH
 STEP.F                                  1 : STEP VALUE
 NULL.                             -999.25 : NULL VALUE
 COMP.      Magnolia Oil & Gas             : COMPANY
 WELL.      Fat Tire A 1H                  : WELL
  FLD.      Giddings                       : FIELD
  LOC.      Fayette County                 : LOCATION
 CNTY.      Fayette County                 : PARISH/COUNTY
 STAT.      Texas                          : STATE
 CTRY.      USA                            : COUNTRY
" SRVC.      PetroLog International, Inc.   : SERVICE COMPANY"
 DATE.      12/18/2020                     : LOG DATE
  API.      42-149-33515                   : API REFERENCE NUMBER
#___________________________________________________________________________
~CURVE INFORMATION
#MNEM.UNITS                                : DESCRIPTION
DEPTH.F                                    :  1 DEPTH
 TGAS.Units                                :  2 Chromatograph_TotalGas
 MTHX.PPM                                  :  3 Chromatograph_MethanePPMMax
 ETHX.PPM                                  :  4 Chromatograph_EthanePPMMax
 PRPX.PPM                                  :  5 Chromatograph_PropanePPMMax
 IBTX.PPM                                  :  6 Chromatograph_IButanePPMMax
 NBTX.PPM                                  :  7 Chromatograph_NButanePPMMax
CEMNT.%                                    :  8 Lithology_Cement
SHALE.%                                    :  9 Lithology_Shale
SILTST.%                                   : 10 Lithology_Siltstone
 SAND.%                                    : 11 Lithology_Sand
 LIME.%                                    : 12 Lithology_Lime
 CHLK.%                                    : 13 Lithology_Chalk
  ASH.%                                    : 14 Lithology_Ash
 FRAC.%                                    : 15 Fracture
Kick/Loss.----                             : 16 Kick/Loss
#___________________________________________________________________________
~A        DEPTH           TGAS           MTHX           ETHX           PRPX           IBTX           NBTX          CEMNT          SHALE         SILTST           SAND           LIME           CHLK            ASH           FRAC      Kick/Loss
# ...
          15650      1683.7500    141372.0000     36591.0000     15577.0000      1525.0000      4172.0000              0              0              0              0              0            100              0           0.00         0.0000
          15651      1837.6000    150869.0000     47994.0000     20538.0000      2062.0000      5208.0000              0              0              0              0              0            100              0           0.00         0.0000
          15652      1840.0500    135962.0000     47994.0000     20538.0000      2062.0000      5208.0000              0              0              0              0              0            100              0           0.00         0.0000
          15653      1862.0250    135962.0000     47994.0000     20538.0000      2062.0000      5208.0000              0              0              0              0              0            100              0           0.00         0.0000
          15654      1885.8500    135962.0000     47994.0000     20538.0000      2062.0000      5208.0000              0              0              0              0              0            100              0           0.00         0.0000
          15655      1901.1000    135962.0000     47994.0000     20538.0000      2062.0000      5208.0000              0              0              0              0              0            100              0           0.00         0.0000
          15656      1896.2000    135962.0000     47994.0000     20538.0000      2062.0000      5208.0000              0              0              0              0              0            100              0           0.00         0.0000
          15657      1888.9000    135962.0000     47994.0000     20538.0000      2062.0000      5208.0000              0              0              0              0              0            100              0           0.00         0.0000
          15658      1888.9000    135962.0000     47994.0000     20538.0000      2062.0000      5208.0000              0              0              0              0              0            100              0           0.00         0.0000
          15659      1893.7750    135962.0000     47994.0000     20538.0000      2062.0000      5208.0000              0              0              0              0              0            100              0           0.00         0.0000
          15660      1906.0000    135962.0000     47994.0000     20538.0000      2062.0000      5208.0000              0              0              0              0              0            100              0           0.00         0.0000
          15661      1921.8500    135962.0000     47994.0000     20538.0000      2062.0000      5208.0000              0              0              0              0              0            100              0           0.00         0.0000
          15662      1926.1500    135962.0000     47994.0000     20538.0000      2062.0000      5208.0000              0              0              0              0              0            100              0           0.00         0.0000
          15663      1932.2250    135962.0000     47994.0000     20538.0000      2062.0000      5208.0000              0              0              0              0              0            100              0           0.00         0.0000
          15664      1929.8000    135962.0000     47994.0000     20538.0000      2062.0000      5208.0000              0              0              0              0              0            100              0           0.00         0.0000
          15665      1903.5500    135962.0000     47994.0000     20538.0000      2062.0000      5208.0000              0              0              0              0              0            100              0           0.00         0.0000
          15666      1893.8000    142350.0000     55488.0000     23638.0000      2364.0000      5803.0000              0              0              0              0              0            100              0           0.00         0.0000
          15667      1898.6500    142350.0000     55488.0000     23638.0000      2364.0000      5803.0000              0              0              0              0              0            100              0           0.00         0.0000
          15668      1914.5500    142350.0000     55488.0000     23638.0000      2364.0000      5803.0000              0              0              0              0              0            100              0           0.00         0.0000
          15669      1928.5750    142350.0000     55488.0000     23638.0000      2364.0000      5803.0000              0              0              0              0              0            100              0           0.00         0.0000
          15670      1948.1000    142350.0000     55488.0000     23638.0000      2364.0000      5803.0000              0              0              0              0              0            100              0           0.00         0.0000
          15671      1954.8250    142350.0000     55488.0000     23638.0000      2364.0000      5803.0000              0              0              0              0              0            100              0           0.00         0.0000
          15672      1953.6000    142350.0000     55488.0000     23638.0000      2364.0000      5803.0000              0              0              0              0              0            100              0           0.00         0.0000
          15673      1932.8500    142350.0000     55488.0000     23638.0000      2364.0000      5803.0000              0              0              0              0              0            100              0           0.00         0.0000
          15674      1925.5000    142350.0000     55488.0000     23638.0000      2364.0000      5803.0000              0              0              0              0              0            100              0           0.00         0.0000
          15675      1920.6500    142350.0000     55488.0000     23638.0000      2364.0000      5803.0000              0              0              0              0              0            100              0           0.00         0.0000
          15676      1949.9500    142350.0000     55488.0000     23638.0000      2364.0000      5803.0000              0              0              0              0              0            100              0           0.00         0.0000
          15677      1963.3500    142350.0000     55488.0000     23638.0000      2364.0000      5803.0000              0              0              0              0              0            100              0           0.00         0.0000
          15678      1967.0500    142350.0000     55488.0000     23638.0000      2364.0000      5803.0000              0              0              0              0              0            100              0           0.00         0.0000
          15679      1958.5000    142350.0000     55488.0000     23638.0000      2364.0000      5803.0000              0              0              0              0              0            100              0           0.00         0.0000
          15680      1969.5000    142350.0000     55488.0000     23638.0000      2364.0000      5803.0000              0              0              0              0              0            100              0           0.00         0.0000
          15681      1977.4250    142350.0000     55488.0000     23638.0000      2364.0000      5803.0000              0              0              0              0              0            100              0           0.00         0.0000
          15682      1976.8000    142350.0000     58495.0000     24993.0000      2498.0000      6096.0000              0              0              0              0              0            100              0           0.00         0.0000
          15683      1974.3500    141617.0000     58495.0000     24993.0000      2498.0000      6096.0000              0              0              0              0              0            100              0           0.00         0.0000
