#___________________________________________________________________________
~VERSION INFORMATION
 VERS.                                 2.0 : CWLS LOG ASCII STANDARD - VERSION 2.0
 WRAP.                                  NO : ONE LINE PER DEPTH STEP
#___________________________________________________________________________
~WELL INFORMATION
 STRT.F                           10192.00 : START DEPTH
 STOP.F                           12327.00 : STOP DEPTH
 STEP.F                                  1 : STEP VALUE
 NULL.                             -999.25 : NULL VALUE
 COMP.      Magnolia Oil & Gas             : COMPANY
 WELL.      Fat Tire B 1H                  : WELL
  FLD.      Giddings                       : FIELD
  LOC.      Fayette County                 : LOCATION
 CNTY.      Fayette County                 : PARISH/COUNTY
 STAT.      Texas                          : STATE
 CTRY.      USA                            : COUNTRY
" SRVC.      PetroLog International, Inc.   : SERVICE COMPANY"
 DATE.      12/28/2020                     : LOG DATE
  API.      42-149-33514                   : API REFERENCE NUMBER
#___________________________________________________________________________
~CURVE INFORMATION
#MNEM.UNITS                                : DESCRIPTION
DEPTH.F                                    :  1 DEPTH
 TGAS.Units                                :  2 Chromatograph_TotalGas
 MTHX.PPM                                  :  3 Chromatograph_MethanePPMMax
 ETHX.PPM                                  :  4 Chromatograph_EthanePPMMax
 PRPX.PPM                                  :  5 Chromatograph_PropanePPMMax
 IBTX.PPM                                  :  6 Chromatograph_IButanePPMMax
 NBTX.PPM                                  :  7 Chromatograph_NButanePPMMax
CEMNT.%                                    :  8 Lithology_Cement
SHALE.%                                    :  9 Lithology_Shale
SILTST.%                                   : 10 Lithology_Siltstone
 SAND.%                                    : 11 Lithology_Sand
 LIME.%                                    : 12 Lithology_Lime
 CHLK.%                                    : 13 Lithology_Chalk
  ASH.%                                    : 14 Lithology_Ash
 FRAC.%                                    : 15 Fracture
Kick/Loss.----                             : 16 Kick/Loss
#___________________________________________________________________________
~A        DEPTH           TGAS           MTHX           ETHX           PRPX           IBTX           NBTX          CEMNT          SHALE         SILTST           SAND           LIME           CHLK            ASH           FRAC      Kick/Loss
          10192      1275.1000     97272.0000     30179.0000     12939.0000         0.0000      2493.0000              0              0              0              0              0            100              0           0.00         0.0000
          10193      1283.2500     97272.0000     30179.0000     12939.0000         0.0000      2493.0000              0              0              0              0              0            100              0           0.00         0.0000
          10194      1258.8500     97272.0000     30179.0000     12939.0000         0.0000      2493.0000              0              0              0              0              0            100              0           0.00         0.0000
          10195      1283.2500     97272.0000     30179.0000     12939.0000         0.0000      2493.0000              0              0              0              0              0            100              0           0.00         0.0000
          10196      1296.1000     97272.0000     30179.0000     12939.0000         0.0000      2493.0000              0              0              0              0              0            100              0           0.00         0.0000
          10197      1305.2500     97272.0000     30179.0000     12939.0000         0.0000      2493.0000              0              0              0              0              0            100              0           0.00         0.0000
          10198      1273.5000     97272.0000     30179.0000     12939.0000         0.0000      2493.0000              0              0              0              0              0            100              0           0.00         0.0000
          10199      1282.0500     97272.0000     30179.0000     12939.0000         0.0000      2493.0000              0              0              0              0              0            100              0           0.00         0.0000
          10200      1317.4500     97272.0000     30179.0000     12939.0000         0.0000      2493.0000              0              0              0              0              0            100              0           0.00         0.0000
          10201      1344.3000     97272.0000     30179.0000     12939.0000         0.0000      2493.0000              0              0              0              0              0            100              0           0.00         0.0000
          10202      1674.0000    130677.0000     22120.0000      8940.0000       809.0000      1678.0000              0              0              0              0              0            100              0           0.00         0.0000
          10203       926.7500     82760.0000     27400.0000     10015.0000       732.0000      1495.0000              0              0              0              0              0            100              0           0.00         0.0000
          10204      1175.8500     82760.0000     27400.0000     10015.0000       732.0000      1495.0000              0              0              0              0              0            100              0           0.00         0.0000
          10205      1348.6000     82760.0000     27400.0000     10015.0000       732.0000      1495.0000              0              0              0              0              0            100              0           0.00         0.0000
          10206      1479.8750    101142.0000     41553.0000     17826.0000      1869.0000      3523.0000              0              0              0              0              0            100              0           0.00         0.0000
          10207      1615.4000    101142.0000     41553.0000     17826.0000      1869.0000      3523.0000              0              0              0              0              0            100              0           0.00         0.0000
          10208      2045.3500    115364.0000     66106.0000     38142.0000      2476.0000      9601.0000              0              0              0              0              0            100              0           0.00         0.0000
          10209       731.4000     62860.0000     17346.0000      7868.0000       707.0000      1767.0000              0              0              0              0              0            100              0           0.00         0.0000
          10210       525.0500     50459.0000     12739.0000      5592.0000       450.0000      1122.0000              0              0              0              0              0            100              0           0.00         0.0000
          10211       517.7000     47818.0000     10869.0000      4521.0000       338.0000       514.0000              0              0              0              0              0            100              0           0.00         0.0000
          10212       443.2500     47818.0000     10869.0000      4521.0000       338.0000       514.0000              0              0              0              0              0            100              0           0.00         0.0000
          10213       144.7000     47818.0000     10869.0000      4521.0000       338.0000       514.0000              0              0              0              0              0            100              0           0.00         0.0000
          10214       517.7000     47818.0000     10869.0000      4521.0000       338.0000       613.0000              0              0              0              0              0            100              0           0.00         0.0000
          10215       517.7000     32902.0000      7841.0000      3343.0000       207.0000       613.0000              0              0              0              0              0            100              0           0.00         0.0000
          10216       483.5000     42818.0000      9494.0000      4140.0000       340.0000       913.0000              0              0              0              0              0            100              0           0.00         0.0000
          10217       471.9250     42818.0000      9494.0000      4140.0000       340.0000       913.0000              0              0              0              0              0            100              0           0.00         0.0000
          10218       462.7500     42818.0000      9494.0000      4140.0000       340.0000       913.0000              0              0              0              0              0            100              0           0.00         0.0000
          10219       464.0000     42818.0000      9494.0000      4140.0000       340.0000       913.0000              0              0              0              0              0            100              0           0.00         0.0000
          10220       474.9500     42818.0000      9494.0000      4140.0000       340.0000       913.0000              0              0              0              0              0            100              0           0.00         0.0000
          10221       478.6500     42818.0000      9494.0000      4360.0000       379.0000      1011.0000              0              0              0              0              0            100              0           0.00         0.0000
          10222       479.2500     40892.0000      9230.0000      4360.0000       379.0000      1011.0000              0              0              0              0              0            100              0           0.00         0.0000
          10223       482.3000     40892.0000      9230.0000      4360.0000       379.0000      1011.0000              0              0              0              0              0            100              0           0.00         0.0000
          10224       479.8500     40892.0000      9230.0000      4360.0000       379.0000      1011.0000              0              0              0              0              0            100              0           0.00         0.0000
          10225       479.8500     40892.0000      9230.0000      4360.0000       379.0000      1011.0000              0              0              0              0              0            100              0           0.00         0.0000
