#___________________________________________________________________________
~VERSION INFORMATION
 VERS.                                 2.0 : CWLS LOG ASCII STANDARD - VERSION 2.0
 WRAP.                                  NO : ONE LINE PER DEPTH STEP
#___________________________________________________________________________
~WELL INFORMATION
 STRT.F                           10192.00 : START DEPTH
 STOP.F                           12327.00 : STOP DEPTH
 STEP.F                                  1 : STEP VALUE
 NULL.                             -999.25 : NULL VALUE
 COMP.      Magnolia Oil & Gas             : COMPANY
 WELL.      Fat Tire B 1H                  : WELL
  FLD.      Giddings                       : FIELD
  LOC.      Fayette County                 : LOCATION
 CNTY.      Fayette County                 : PARISH/COUNTY
 STAT.      Texas                          : STATE
 CTRY.      USA                            : COUNTRY
" SRVC.      PetroLog International, Inc.   : SERVICE COMPANY"
 DATE.      12/28/2020                     : LOG DATE
  API.      42-149-33514                   : API REFERENCE NUMBER
#___________________________________________________________________________
~CURVE INFORMATION
#MNEM.UNITS                                : DESCRIPTION
DEPTH.F                                    :  1 DEPTH
 TGAS.Units                                :  2 Chromatograph_TotalGas
 MTHX.PPM                                  :  3 Chromatograph_MethanePPMMax
 ETHX.PPM                                  :  4 Chromatograph_EthanePPMMax
 PRPX.PPM                                  :  5 Chromatograph_PropanePPMMax
 IBTX.PPM                                  :  6 Chromatograph_IButanePPMMax
 NBTX.PPM                                  :  7 Chromatograph_NButanePPMMax
CEMNT.%                                    :  8 Lithology_Cement
SHALE.%                                    :  9 Lithology_Shale
SILTST.%                                   : 10 Lithology_Siltstone
 SAND.%                                    : 11 Lithology_Sand
 LIME.%                                    : 12 Lithology_Lime
 CHLK.%                                    : 13 Lithology_Chalk
  ASH.%                                    : 14 Lithology_Ash
 FRAC.%                                    : 15 Fracture
Kick/Loss.----                             : 16 Kick/Loss
#___________________________________________________________________________
~A        DEPTH           TGAS           MTHX           ETHX           PRPX           IBTX           NBTX          CEMNT          SHALE         SILTST           SAND           LIME           CHLK            ASH           FRAC      Kick/Loss
# ...
          10328       455.4500     50634.0000      6626.0000      2653.0000       111.0000       679.0000              0              0              0              0              0            100              0           0.00         0.0000
          10329       454.2000     50634.0000      6626.0000      2653.0000       111.0000       679.0000              0              0              0              0              0            100              0           0.00         0.0000
          10330       453.0000     50634.0000      6626.0000      2653.0000       142.0000       679.0000              0              0              0              0              0            100              0           0.00         0.0000
          10331       449.3500     48103.0000      5721.0000      2350.0000       142.0000       596.0000              0              0              0              0              0            100              0           0.00         0.0000
          10332       440.8000     48103.0000      5721.0000      2350.0000       142.0000       596.0000              0              0              0              0              0            100              0           0.00         0.0000
          10333       438.3500     48103.0000      5721.0000      2350.0000       142.0000       596.0000              0              0              0              0              0            100              0           0.00         0.0000
          10334       765.5500     50962.0000      9610.0000      4493.0000       219.0000      1145.0000              0              0              0              0              0            100              0           0.00         0.0000
          10335       528.7000     50962.0000      9610.0000      4493.0000       219.0000      1145.0000              0              0              0              0              0            100              0           0.00         0.0000
          10336       488.4000     50962.0000      9610.0000      4493.0000       219.0000      1145.0000              0              0              0              0              0            100              0           0.00         0.0000
          10337       428.5500     42497.0000      5618.0000      2311.0000       186.0000       654.0000              0              0              0              0              0            100              0           0.00         0.0000
          10338       432.2500     42497.0000      5618.0000      2311.0000       186.0000       654.0000              0              0              0              0              0            100              0           0.00         0.0000
          10339       420.0500     42497.0000      5618.0000      2311.0000       186.0000       654.0000              0              0              0              0              0            100              0           0.00         0.0000
          10340       421.2500     42497.0000      5618.0000      2311.0000       186.0000       654.0000              0              0              0              0              0            100              0           0.00         0.0000
          10341       416.3500     42497.0000      5618.0000      2311.0000       197.0000       654.0000              0              0              0              0              0            100              0           0.00         0.0000
          10342       410.8750     40598.0000      4961.0000      2224.0000       197.0000       369.0000              0              0              0              0              0            100              0           0.00         0.0000
          10343       407.8000     40598.0000      4961.0000      2224.0000       197.0000       369.0000              0              0              0              0              0            100              0           0.00         0.0000
          10344       412.7000     40598.0000      4961.0000      2224.0000       197.0000       369.0000              0              0              0              0              0            100              0           0.00         0.0000
          10345       412.1000     40598.0000      4961.0000      2224.0000       197.0000       369.0000              0              0              0              0              0            100              0           0.00         0.0000
          10346       412.7000     40598.0000      4961.0000      2224.0000       197.0000       369.0000              0              0              0              0              0            100              0           0.00         0.0000
          10347       417.6000     40598.0000      4961.0000      2224.0000       197.0000       369.0000              0              0              0              0              0            100              0           0.00         0.0000
          10348       418.8000     40598.0000      4961.0000      2224.0000       197.0000       369.0000              0              0              0              0              0            100              0           0.00         0.0000
          10349       420.0500     40598.0000      4961.0000      2224.0000       197.0000       369.0000              0              0              0              0              0            100              0           0.00         0.0000
          10350       418.8000     40598.0000      4961.0000      2224.0000       197.0000       369.0000              0              0              0              0              0            100              0           0.00         0.0000
          10351       423.7000     41694.0000      4961.0000      2224.0000       205.0000       741.0000              0              0              0              0              0            100              0           0.00         0.0000
          10352       424.9000     41694.0000      4649.0000      2208.0000       205.0000       741.0000              0              0              0              0              0            100              0           0.00         0.0000
          10353       420.0500     41694.0000      4649.0000      2208.0000       205.0000       741.0000              0              0              0              0              0            100              0           0.00         0.0000
          10354       411.5000     41694.0000      4649.0000      2208.0000       205.0000       741.0000              0              0              0              0              0            100              0           0.00         0.0000
          10355       412.7000     41694.0000      4649.0000      2208.0000       205.0000       741.0000              0              0              0              0              0            100              0           0.00         0.0000
          10356       416.3500     41694.0000      4649.0000      2208.0000       205.0000       741.0000              0              0              0              0              0            100              0           0.00         0.0000
          10357       420.0500     41694.0000      4649.0000      2208.0000       205.0000       741.0000              0              0              0              0              0            100              0           0.00         0.0000
          10358       421.2500     41694.0000      4649.0000      2208.0000       205.0000       741.0000              0              0              0              0              0            100              0           0.00         0.0000
          10359       419.4250     41694.0000      4649.0000      2208.0000       205.0000       741.0000              0              0              0              0              0            100              0           0.00         0.0000
          10360       420.0500     41694.0000      4649.0000      2208.0000       205.0000       741.0000              0              0              0              0              0            100              0           0.00         0.0000
          10361       424.3000     41694.0000      4649.0000      2208.0000       205.0000       741.0000              0              0              0              0              0            100              0           0.00         0.0000
