#___________________________________________________________________________
~VERSION INFORMATION
 VERS.                                 2.0 : CWLS LOG ASCII STANDARD - VERSION 2.0
 WRAP.                                  NO : ONE LINE PER DEPTH STEP
#___________________________________________________________________________
~WELL INFORMATION
 STRT.F                            9700.00 : START DEPTH
 STOP.F                           17167.00 : STOP DEPTH
 STEP.F                                  1 : STEP VALUE
 NULL.                             -999.25 : NULL VALUE
 COMP.      Magnolia Oil & Gas             : COMPANY
 WELL.      Fat Tire A 1H                  : WELL
  FLD.      Giddings                       : FIELD
  LOC.      Fayette County                 : LOCATION
 CNTY.      Fayette County                 : PARISH/COUNTY
 STAT.      Texas                          : STATE
 CTRY.      USA                            : COUNTRY
" SRVC.      PetroLog International, Inc.   : SERVICE COMPANY"
 DATE.      12/18/2020                     : LOG DATE
  API.      42-149-33515                   : API REFERENCE NUMBER
#___________________________________________________________________________
~CURVE INFORMATION
#MNEM.UNITS                                : DESCRIPTION
DEPTH.F                                    :  1 DEPTH
 TGAS.Units                                :  2 Chromatograph_TotalGas
 MTHX.PPM                                  :  3 Chromatograph_MethanePPMMax
 ETHX.PPM                                  :  4 Chromatograph_EthanePPMMax
 PRPX.PPM                                  :  5 Chromatograph_PropanePPMMax
 IBTX.PPM                                  :  6 Chromatograph_IButanePPMMax
 NBTX.PPM                                  :  7 Chromatograph_NButanePPMMax
CEMNT.%                                    :  8 Lithology_Cement
SHALE.%                                    :  9 Lithology_Shale
SILTST.%                                   : 10 Lithology_Siltstone
 SAND.%                                    : 11 Lithology_Sand
 LIME.%                                    : 12 Lithology_Lime
 CHLK.%                                    : 13 Lithology_Chalk
  ASH.%                                    : 14 Lithology_Ash
 FRAC.%                                    : 15 Fracture
Kick/Loss.----                             : 16 Kick/Loss
#___________________________________________________________________________
~A        DEPTH           TGAS           MTHX           ETHX           PRPX           IBTX           NBTX          CEMNT          SHALE         SILTST           SAND           LIME           CHLK            ASH           FRAC      Kick/Loss
# ...
          16160      2029.3000    143371.0000     43727.0000     27186.0000      3581.0000      9610.0000              0              0              0              0              0            100              0           4.00         0.0000
          16161      2023.2000    143371.0000     43727.0000     27186.0000      3581.0000      9610.0000              0              0              0              0              0            100              0           4.00         0.0000
          16162      2028.1000    143371.0000     43727.0000     27186.0000      3581.0000      9610.0000              0              0              0              0              0            100              0           4.00         0.0000
          16163      2032.9500    143371.0000     43727.0000     27186.0000      3581.0000      9610.0000              0              0              0              0              0            100              0           4.00         0.0000
          16164      2036.6500    143371.0000     43727.0000     27186.0000      3581.0000      9610.0000              0              0              0              0              0            100              0           4.00         0.0000
          16165      2054.9500    143371.0000     43727.0000     27186.0000      3581.0000      9610.0000              0              0              0              0              0            100              0           4.00         0.0000
          16166      2068.4000    143371.0000     43727.0000     27186.0000      3581.0000      9610.0000              0              0              0              0              0            100              0           4.00         0.0000
          16167      2073.2500    143371.0000     43727.0000     27186.0000      3581.0000      9610.0000              0              0              0              0              0            100              0           4.00         0.0000
          16168      2076.9500    143371.0000     43727.0000     27186.0000      3581.0000      9610.0000              0              0              0              0              0            100              0           4.00         0.0000
          16169      2075.7250    143371.0000     43727.0000     27186.0000      3581.0000      9610.0000              0              0              0              0              0            100              0           4.00         0.0000
          16170      2078.1500    143371.0000     43727.0000     27186.0000      3581.0000      9610.0000              0              0              0              0              0            100              0           4.00         0.0000
          16171      2095.2250    143371.0000     43727.0000     27186.0000      3581.0000      9610.0000              0              0              0              0              0            100              0           4.00         0.0000
          16172      2185.6000    143371.0000     49357.0000     31840.0000      4309.0000     11495.0000              0              0              0              0              0            100              0           4.00         0.0000
          16173      2173.4000    142491.0000     49357.0000     31840.0000      4309.0000     11495.0000              0              0              0              0              0            100              0           4.00         0.0000
          16174      2166.0500    142491.0000     49357.0000     31840.0000      4309.0000     11495.0000              0              0              0              0              0            100              0           4.00         0.0000
          16175      2167.3000    142491.0000     49357.0000     31840.0000      4309.0000     11495.0000              0              0              0              0              0            100              0           4.00         0.0000
          16176      2159.3250    142491.0000     49357.0000     31840.0000      4309.0000     11495.0000              0              0              0              0              0            100              0           4.00         0.0000
          16177      2159.9500    142491.0000     49357.0000     31840.0000      4309.0000     11495.0000              0              0              0              0              0            100              0           4.00         0.0000
          16178      2147.1250    142491.0000     49357.0000     31840.0000      4309.0000     11495.0000              0              0              0              0              0            100              0           4.00         0.0000
          16179      2153.2500    142491.0000     49357.0000     31840.0000      4309.0000     11495.0000              0              0              0              0              0            100              0           4.00         0.0000
          16180      2152.6500    142491.0000     49357.0000     31840.0000      4309.0000     11495.0000              0              0              0              0              0            100              0           4.00         0.0000
          16181      2146.5000    142491.0000     49357.0000     31840.0000      4309.0000     11495.0000              0              0              0              0              0            100              0           4.00         0.0000
          16182      2145.3000    142491.0000     49357.0000     31840.0000      4309.0000     11495.0000              0              0              0              0              0            100              0           4.00         0.0000
          16183      2155.0500    142491.0000     49357.0000     31840.0000      4309.0000     11495.0000              0              0              0              0              0            100              0           4.00         0.0000
          16184      2157.5000    142491.0000     49357.0000     31840.0000      4405.0000     11834.0000              0              0              0              0              0            100              0           4.00         0.0000
          16185      1982.9000    137101.0000     44874.0000     30984.0000      4405.0000     11834.0000              0              0              0              0              0            100              0           4.00         0.0000
          16186      1714.9000    137101.0000     44874.0000     30984.0000      4405.0000     11834.0000              0              0              0              0              0            100              0           4.00         0.0000
          16187      1365.1000    137101.0000     44874.0000     30984.0000      4405.0000     11834.0000              0              0              0              0              0            100              0           4.00         0.0000
          16188      1040.9000    137101.0000     44874.0000     30984.0000      4405.0000     11834.0000              0              0              0              0              0            100              0           4.00         0.0000
          16189       733.8000    137101.0000     44874.0000     30984.0000      4405.0000     11834.0000              0              0              0              0              0            100              0           4.00         0.0000
          16190       578.1500    137101.0000     44874.0000     30984.0000      4405.0000     11834.0000              0              0              0              0              0            100              0           4.00         0.0000
          16191       489.6250    137101.0000     44874.0000     30984.0000      4405.0000     11834.0000              0              0              0              0              0            100              0           4.00         0.0000
          16192       440.8000    137101.0000     44874.0000     30984.0000      4405.0000     11834.0000              0              0              0              0              0            100              0           4.00         0.0000
          16193       407.8000    137101.0000     44874.0000     30984.0000      4405.0000     11834.0000              0              0              0              0              0            100              0           4.00         0.0000
