#___________________________________________________________________________
~VERSION INFORMATION
 VERS.                                 2.0 : CWLS LOG ASCII STANDARD - VERSION 2.0
 WRAP.                                  NO : ONE LINE PER DEPTH STEP
#___________________________________________________________________________
~WELL INFORMATION
 STRT.F                            9700.00 : START DEPTH
 STOP.F                           17167.00 : STOP DEPTH
 STEP.F                                  1 : STEP VALUE
 NULL.                             -999.25 : NULL VALUE
 COMP.      Magnolia Oil & Gas             : COMPANY
 WELL.      Fat Tire A 1H                  : WELL
  FLD.      Giddings                       : FIELD
  LOC.      Fayette County                 : LOCATION
 CNTY.      Fayette County                 : PARISH/COUNTY
 STAT.      Texas                          : STATE
 CTRY.      USA                            : COUNTRY
" SRVC.      PetroLog International, Inc.   : SERVICE COMPANY"
 DATE.      12/18/2020                     : LOG DATE
  API.      42-149-33515                   : API REFERENCE NUMBER
#___________________________________________________________________________
~CURVE INFORMATION
#MNEM.UNITS                                : DESCRIPTION
DEPTH.F                                    :  1 DEPTH
 TGAS.Units                                :  2 Chromatograph_TotalGas
 MTHX.PPM                                  :  3 Chromatograph_MethanePPMMax
 ETHX.PPM                                  :  4 Chromatograph_EthanePPMMax
 PRPX.PPM                                  :  5 Chromatograph_PropanePPMMax
 IBTX.PPM                                  :  6 Chromatograph_IButanePPMMax
 NBTX.PPM                                  :  7 Chromatograph_NButanePPMMax
CEMNT.%                                    :  8 Lithology_Cement
SHALE.%                                    :  9 Lithology_Shale
SILTST.%                                   : 10 Lithology_Siltstone
 SAND.%                                    : 11 Lithology_Sand
 LIME.%                                    : 12 Lithology_Lime
 CHLK.%                                    : 13 Lithology_Chalk
  ASH.%                                    : 14 Lithology_Ash
 FRAC.%                                    : 15 Fracture
Kick/Loss.----                             : 16 Kick/Loss
#___________________________________________________________________________
~A        DEPTH           TGAS           MTHX           ETHX           PRPX           IBTX           NBTX          CEMNT          SHALE         SILTST           SAND           LIME           CHLK            ASH           FRAC      Kick/Loss
# ...
          10686       211.2500     16374.0000      2557.0000       783.0000         0.0000        40.0000              0              0              0              0              0            100              0           0.00         0.0000
          10687       212.4500     16374.0000      2557.0000       783.0000         0.0000        40.0000              0              0              0              0              0            100              0           0.00         0.0000
          10688       213.7000     16374.0000      2557.0000       783.0000         0.0000        40.0000              0              0              0              0              0            100              0           0.00         0.0000
          10689       214.9000     16374.0000      2578.0000       783.0000         0.0000        47.0000              0              0              0              0              0            100              0           0.00         0.0000
          10690       217.3500     16252.0000      2578.0000       783.0000         0.0000        47.0000              0              0              0              0              0            100              0           0.00         0.0000
          10691       217.3500     16252.0000      2578.0000       783.0000         0.0000        47.0000              0              0              0              0              0            100              0           0.00         0.0000
          10692       217.3500     16252.0000      2578.0000       783.0000         0.0000        47.0000              0              0              0              0              0            100              0           0.00         0.0000
          10693       216.1000     16252.0000      2578.0000       783.0000         0.0000        47.0000              0              0              0              0              0            100              0           0.00         0.0000
          10694       217.3500     16252.0000      2578.0000       783.0000         0.0000        47.0000              0              0              0              0              0            100              0           0.00         0.0000
          10695       217.3500     16252.0000      2578.0000       783.0000         0.0000        47.0000              0              0              0              0              0            100              0           0.00         0.0000
          10696       216.1000     16252.0000      2578.0000       783.0000         0.0000        47.0000              0              0              0              0              0            100              0           0.00         0.0000
          10697       216.1000     16252.0000      2578.0000       783.0000         0.0000        47.0000              0              0              0              0              0            100              0           0.00         0.0000
          10698       219.8000     16912.0000      2668.0000       836.0000         0.0000        47.0000              0              0              0              0              0            100              0           0.00         0.0000
          10699       223.4500     16912.0000      2668.0000       836.0000         0.0000        37.0000              0              0              0              0              0            100              0           0.00         0.0000
          10700       227.1000     16912.0000      2668.0000       836.0000         0.0000        37.0000              0              0              0              0              0            100              0           0.00         0.0000
          10701       227.1000     16912.0000      2668.0000       836.0000         0.0000        37.0000              0              0              0              0              0            100              0           0.00         0.0000
          10702       223.4500     16912.0000      2668.0000       836.0000         0.0000        37.0000              0              0              0              0              0            100              0           0.00         0.0000
          10703       244.8000     17445.0000      2761.0000       879.0000         0.0000        37.0000              0              0              0              0              0            100              0           0.00         0.0000
          10704       243.0000     19457.0000      3227.0000      1066.0000         0.0000       129.0000              0              0              0              0              0            100              0           0.00         0.0000
          10705       238.1000     19457.0000      3227.0000      1066.0000         0.0000       129.0000              0              0              0              0              0            100              0           0.00         0.0000
          10706       230.7500     19457.0000      3227.0000      1066.0000         0.0000       129.0000              0              0              0              0              0            100              0           0.00         0.0000
          10707       225.9000     19457.0000      3227.0000      1066.0000         0.0000       129.0000              0              0              0              0              0            100              0           0.00         0.0000
          10708       219.8000     19457.0000      3227.0000      1066.0000         0.0000       129.0000              0              0              0              0              0            100              0           0.00         0.0000
          10709       216.1000     19457.0000      3227.0000      1066.0000         0.0000       129.0000              0              0              0              0              0            100              0           0.00         0.0000
          10710       211.8500     19457.0000      3227.0000      1066.0000         0.0000       129.0000              0              0              0              0              0            100              0           0.00         0.0000
          10711       206.3500     19457.0000      3227.0000      1066.0000         0.0000       129.0000              0              0              0              0              0            100              0           0.00         0.0000
          10712       202.7000     19457.0000      3227.0000      1066.0000         0.0000       129.0000              0              0              0              0              0            100              0           0.00         0.0000
          10713       199.0500     19457.0000      3227.0000      1066.0000         0.0000       129.0000              0              0              0              0              0            100              0           0.00         0.0000
          10714       196.6000     19457.0000      3227.0000      1066.0000         0.0000       129.0000              0              0              0              0              0            100              0           0.00         0.0000
          10715       195.3750     19457.0000      3227.0000      1066.0000         0.0000       129.0000              0              0              0              0              0            100              0           0.00         0.0000
          10716       194.7500     19457.0000      3227.0000      1066.0000         0.0000       129.0000              0              0              0              0              0            100              0           0.00         0.0000
          10717       194.1500     19457.0000      3227.0000      1066.0000         0.0000       129.0000              0              0              0              0              0            100              0           0.00         0.0000
          10718       195.3500     19457.0000      3227.0000      1066.0000         0.0000       129.0000              0              0              0              0              0            100              0           0.00         0.0000
          10719       197.8000     19457.0000      3227.0000      1066.0000         0.0000       129.0000              0              0              0              0              0            100              0           0.00         0.0000
