#___________________________________________________________________________
~VERSION INFORMATION
 VERS.                                 2.0 : CWLS LOG ASCII STANDARD - VERSION 2.0
 WRAP.                                  NO : ONE LINE PER DEPTH STEP
#___________________________________________________________________________
~WELL INFORMATION
 STRT.F                            9700.00 : START DEPTH
 STOP.F                           17167.00 : STOP DEPTH
 STEP.F                                  1 : STEP VALUE
 NULL.                             -999.25 : NULL VALUE
 COMP.      Magnolia Oil & Gas             : COMPANY
 WELL.      Fat Tire A 1H                  : WELL
  FLD.      Giddings                       : FIELD
  LOC.      Fayette County                 : LOCATION
 CNTY.      Fayette County                 : PARISH/COUNTY
 STAT.      Texas                          : STATE
 CTRY.      USA                            : COUNTRY
" SRVC.      PetroLog International, Inc.   : SERVICE COMPANY"
 DATE.      12/18/2020                     : LOG DATE
  API.      42-149-33515                   : API REFERENCE NUMBER
#___________________________________________________________________________
~CURVE INFORMATION
#MNEM.UNITS                                : DESCRIPTION
DEPTH.F                                    :  1 DEPTH
 TGAS.Units                                :  2 Chromatograph_TotalGas
 MTHX.PPM                                  :  3 Chromatograph_MethanePPMMax
 ETHX.PPM                                  :  4 Chromatograph_EthanePPMMax
 PRPX.PPM                                  :  5 Chromatograph_PropanePPMMax
 IBTX.PPM                                  :  6 Chromatograph_IButanePPMMax
 NBTX.PPM                                  :  7 Chromatograph_NButanePPMMax
CEMNT.%                                    :  8 Lithology_Cement
SHALE.%                                    :  9 Lithology_Shale
SILTST.%                                   : 10 Lithology_Siltstone
 SAND.%                                    : 11 Lithology_Sand
 LIME.%                                    : 12 Lithology_Lime
 CHLK.%                                    : 13 Lithology_Chalk
  ASH.%                                    : 14 Lithology_Ash
 FRAC.%                                    : 15 Fracture
Kick/Loss.----                             : 16 Kick/Loss
#___________________________________________________________________________
~A        DEPTH           TGAS           MTHX           ETHX           PRPX           IBTX           NBTX          CEMNT          SHALE         SILTST           SAND           LIME           CHLK            ASH           FRAC      Kick/Loss
# ...
          11672      1124.5500    130384.0000     20038.0000      6197.0000       713.0000      1531.0000              0              0              0              0              0            100              0           4.00        -1.0000
          11673      1141.6500    130384.0000     20038.0000      6197.0000       713.0000      1531.0000              0              0              0              0              0            100              0           4.00        -1.0000
          11674      1169.7250    130384.0000     20038.0000      6197.0000       713.0000      1531.0000              0              0              0              0              0            100              0           4.00        -1.0000
          11675      1197.8000    130384.0000     20038.0000      6197.0000       713.0000      1531.0000              0              0              0              0              0            100              0           4.00        -1.0000
          11676      1208.8000    130384.0000     20038.0000      6197.0000       713.0000      1531.0000              0              0              0              0              0            100              0           4.00        -1.0000
          11677      1201.4750    130384.0000     20038.0000      6197.0000       713.0000      1531.0000              0              0              0              0              0            100              0           4.00        -1.0000
          11678      1176.4500    130384.0000     20038.0000      6197.0000       713.0000      1531.0000              0              0              0              0              0            100              0           4.00        -1.0000
          11679      1152.0250    130384.0000     20038.0000      6197.0000       713.0000      1531.0000              0              0              0              0              0            100              0           4.00        -1.0000
          11680      1161.1500    130384.0000     20038.0000      6197.0000       713.0000      1531.0000              0              0              0              0              0            100              0           4.00        -1.0000
          11681      1177.0500    130384.0000     20038.0000      6197.0000       713.0000      1531.0000              0              0              0              0              0            100              0           4.00        -1.0000
          11682      1202.0750    130384.0000     20038.0000      6197.0000       713.0000      1531.0000              0              0              0              0              0            100              0           4.00        -1.0000
          11683      1228.9500    130384.0000     20038.0000      6197.0000       713.0000      1531.0000              0              0              0              0              0            100              0           4.00        -1.0000
          11684      1244.8000    130384.0000     20038.0000      6197.0000       713.0000      1531.0000              0              0              0              0              0            100              0           4.00        -1.0000
          11685      1255.8000    146095.0000     22441.0000      7081.0000       792.0000      1739.0000              0              0              0              0              0            100              0           4.00        -1.0000
          11686      1263.7500    146095.0000     22441.0000      7081.0000       792.0000      1739.0000              0              0              0              0              0            100              0           4.00        -1.0000
          11687      1274.1250    146095.0000     22441.0000      7081.0000       792.0000      1739.0000              0              0              0              0              0            100              0           4.00        -1.0000
          11688      1278.4000    146095.0000     22441.0000      7081.0000       792.0000      1739.0000              0              0              0              0              0            100              0           4.00        -1.0000
          11689      1277.1500    146095.0000     22441.0000      7081.0000       792.0000      1739.0000              0              0              0              0              0            100              0           4.00        -1.0000
          11690      1271.0500    146095.0000     22441.0000      7081.0000       792.0000      1739.0000              0              0              0              0              0            100              0           4.00        -1.0000
          11691      1256.4000    146095.0000     22441.0000      7081.0000       792.0000      1739.0000              0              0              0              0              0            100              0           4.00        -1.0000
          11692      1227.1000    146095.0000     22441.0000      7081.0000       792.0000      1739.0000              0              0              0              0              0            100              0           4.00        -1.0000
          11693      1174.0000    146095.0000     22441.0000      7081.0000       792.0000      1739.0000              0              0              0              0              0            100              0           4.00        -1.0000
          11694      1130.6500    146095.0000     22441.0000      7081.0000       792.0000      1739.0000              0              0              0              0              0            100              0           4.00        -1.0000
          11695      1094.6250    146095.0000     22441.0000      7081.0000       792.0000      1739.0000              0              0              0              0              0            100              0           4.00        -1.0000
          11696      1101.3500    146095.0000     22441.0000      7081.0000       792.0000      1739.0000              0              0              0              0              0            100              0           4.00        -1.0000
          11697      1147.7250    146095.0000     22441.0000      7081.0000       792.0000      1739.0000              0              0              0              0              0            100              0           4.00        -1.0000
          11698      1192.9000    146095.0000     22441.0000      7081.0000       792.0000      1739.0000              0              0              0              0              0            100              0           4.00        -1.0000
          11699      1243.0000    146095.0000     22441.0000      7081.0000       792.0000      1739.0000              0              0              0              0              0            100              0           4.00        -1.0000
          11700      1284.5000    146095.0000     22441.0000      7081.0000       792.0000      1739.0000              0              0              0              0              0            100              0           4.00        -1.0000
          11701      1319.9000    146095.0000     22441.0000      7081.0000       792.0000      1739.0000              0              0              0              0              0            100              0           0.00        -1.0000
          11702      1356.5500    146095.0000     22441.0000      7081.0000       792.0000      1739.0000              0              0              0              0              0            100              0           0.00        -1.0000
          11703      1380.9500    146095.0000     22441.0000      7081.0000       792.0000      1739.0000              0              0              0              0              0            100              0           0.00        -1.0000
          11704      1405.3500    146095.0000     22441.0000      7081.0000       792.0000      1739.0000              0              0              0              0              0            100              0           0.00        -1.0000
          11705      1420.0500    146095.0000     22441.0000      7081.0000       792.0000      1739.0000              0              0              0              0              0            100              0           0.00        -1.0000
