#___________________________________________________________________________
~VERSION INFORMATION
 VERS.                                 2.0 : CWLS LOG ASCII STANDARD - VERSION 2.0
 WRAP.                                  NO : ONE LINE PER DEPTH STEP
#___________________________________________________________________________
~WELL INFORMATION
 STRT.F                            9700.00 : START DEPTH
 STOP.F                           17167.00 : STOP DEPTH
 STEP.F                                  1 : STEP VALUE
 NULL.                             -999.25 : NULL VALUE
 COMP.      Magnolia Oil & Gas             : COMPANY
 WELL.      Fat Tire A 1H                  : WELL
  FLD.      Giddings                       : FIELD
  LOC.      Fayette County                 : LOCATION
 CNTY.      Fayette County                 : PARISH/COUNTY
 STAT.      Texas                          : STATE
 CTRY.      USA                            : COUNTRY
" SRVC.      PetroLog International, Inc.   : SERVICE COMPANY"
 DATE.      12/18/2020                     : LOG DATE
  API.      42-149-33515                   : API REFERENCE NUMBER
#___________________________________________________________________________
~CURVE INFORMATION
#MNEM.UNITS                                : DESCRIPTION
DEPTH.F                                    :  1 DEPTH
 TGAS.Units                                :  2 Chromatograph_TotalGas
 MTHX.PPM                                  :  3 Chromatograph_MethanePPMMax
 ETHX.PPM                                  :  4 Chromatograph_EthanePPMMax
 PRPX.PPM                                  :  5 Chromatograph_PropanePPMMax
 IBTX.PPM                                  :  6 Chromatograph_IButanePPMMax
 NBTX.PPM                                  :  7 Chromatograph_NButanePPMMax
CEMNT.%                                    :  8 Lithology_Cement
SHALE.%                                    :  9 Lithology_Shale
SILTST.%                                   : 10 Lithology_Siltstone
 SAND.%                                    : 11 Lithology_Sand
 LIME.%                                    : 12 Lithology_Lime
 CHLK.%                                    : 13 Lithology_Chalk
  ASH.%                                    : 14 Lithology_Ash
 FRAC.%                                    : 15 Fracture
Kick/Loss.----                             : 16 Kick/Loss
#___________________________________________________________________________
~A        DEPTH           TGAS           MTHX           ETHX           PRPX           IBTX           NBTX          CEMNT          SHALE         SILTST           SAND           LIME           CHLK            ASH           FRAC      Kick/Loss
# ...
          17146      1682.5500    153549.0000     35977.0000     14251.0000      1363.0000      3993.0000              0              0              0              0              0            100              0           0.00         0.0000
          17147      1829.0500    153549.0000     35977.0000     14251.0000      1363.0000      3993.0000              0              0              0              0              0            100              0           0.00         0.0000
          17148      1951.1500    153549.0000     35977.0000     14251.0000      1363.0000      3993.0000              0              0              0              0              0            100              0           0.00         0.0000
          17149      2000.0000    153549.0000     35977.0000     14251.0000      1363.0000      3993.0000              0              0              0              0              0            100              0           0.00         0.0000
          17150      2172.1750    154067.0000     60859.0000     28208.0000      2909.0000      6903.0000              0              0              0              0              0            100              0           0.00         0.0000
          17151      2326.0000    160491.0000     58535.0000     25081.0000      2610.0000      6754.0000              0              0              0              0              0            100              0           0.00         0.0000
          17152      2065.1200    160491.0000     58535.0000     25081.0000      2610.0000      6754.0000              0              0              0              0              0            100              0           0.00         0.0000
          17153      1911.4500    160491.0000     58535.0000     25081.0000      2610.0000      6754.0000              0              0              0              0              0            100              0           0.00         0.0000
          17154      1827.5300    148494.0000     33443.0000     11492.0000      1023.0000      3364.0000              0              0              0              0              0            100              0           0.00         0.0000
          17155      1784.4500    148494.0000     33443.0000     11492.0000      1023.0000      3364.0000              0              0              0              0              0            100              0           0.00         0.0000
          17156      1762.6100    148494.0000     33443.0000     11492.0000      1023.0000      3364.0000              0              0              0              0              0            100              0           0.00         0.0000
          17157      1741.0310    148494.0000     33443.0000     11492.0000      1023.0000      3364.0000              0              0              0              0              0            100              0           0.00         0.0000
          17158      1711.4500    148494.0000     33443.0000     11492.0000      1023.0000      3364.0000              0              0              0              0              0            100              0           0.00         0.0000
          17159      1688.3400    148494.0000     33443.0000     11492.0000      1023.0000      3364.0000              0              0              0              0              0            100              0           0.00         0.0000
          17160      1651.1310    148494.0000     33443.0000     11492.0000      1023.0000      3364.0000              0              0              0              0              0            100              0           0.00         0.0000
          17161      1650.4100    148494.0000     33443.0000     11492.0000      1023.0000      3364.0000              0              0              0              0              0            100              0           0.00         0.0000
          17162      1651.4200    148494.0000     33443.0000     11492.0000      1023.0000      3364.0000              0              0              0              0              0            100              0           0.00         0.0000
          17163      1650.4100    148494.0000     33443.0000     11492.0000      1023.0000      3364.0000              0              0              0              0              0            100              0           0.00         0.0000
          17164      1649.6000    148494.0000     33443.0000     11492.0000      1023.0000      3364.0000              0              0              0              0              0            100              0           0.00         0.0000
          17165      1660.5500    148494.0000     33443.0000     11492.0000      1023.0000      3364.0000              0              0              0              0              0            100              0           0.00         0.0000
          17166      1659.3500    148494.0000     33443.0000     11492.0000      1023.0000      3364.0000              0              0              0              0              0            100              0           0.00         0.0000
          17167         0.0000         0.0000         0.0000         0.0000         0.0000         0.0000              0              0              0              0              0            100              0           0.00         0.0000
