#___________________________________________________________________________
~VERSION INFORMATION
 VERS.                                 2.0 : CWLS LOG ASCII STANDARD - VERSION 2.0
 WRAP.                                  NO : ONE LINE PER DEPTH STEP
#___________________________________________________________________________
~WELL INFORMATION
 STRT.F                           10192.00 : START DEPTH
 STOP.F                           12327.00 : STOP DEPTH
 STEP.F                                  1 : STEP VALUE
 NULL.                             -999.25 : NULL VALUE
 COMP.      Magnolia Oil & Gas             : COMPANY
 WELL.      Fat Tire B 1H                  : WELL
  FLD.      Giddings                       : FIELD
  LOC.      Fayette County                 : LOCATION
 CNTY.      Fayette County                 : PARISH/COUNTY
 STAT.      Texas                          : STATE
 CTRY.      USA                            : COUNTRY
" SRVC.      PetroLog International, Inc.   : SERVICE COMPANY"
 DATE.      12/28/2020                     : LOG DATE
  API.      42-149-33514                   : API REFERENCE NUMBER
#___________________________________________________________________________
~CURVE INFORMATION
#MNEM.UNITS                                : DESCRIPTION
DEPTH.F                                    :  1 DEPTH
 TGAS.Units                                :  2 Chromatograph_TotalGas
 MTHX.PPM                                  :  3 Chromatograph_MethanePPMMax
 ETHX.PPM                                  :  4 Chromatograph_EthanePPMMax
 PRPX.PPM                                  :  5 Chromatograph_PropanePPMMax
 IBTX.PPM                                  :  6 Chromatograph_IButanePPMMax
 NBTX.PPM                                  :  7 Chromatograph_NButanePPMMax
CEMNT.%                                    :  8 Lithology_Cement
SHALE.%                                    :  9 Lithology_Shale
SILTST.%                                   : 10 Lithology_Siltstone
 SAND.%                                    : 11 Lithology_Sand
 LIME.%                                    : 12 Lithology_Lime
 CHLK.%                                    : 13 Lithology_Chalk
  ASH.%                                    : 14 Lithology_Ash
 FRAC.%                                    : 15 Fracture
Kick/Loss.----                             : 16 Kick/Loss
#___________________________________________________________________________
~A        DEPTH           TGAS           MTHX           ETHX           PRPX           IBTX           NBTX          CEMNT          SHALE         SILTST           SAND           LIME           CHLK            ASH           FRAC      Kick/Loss
# ...
          11722         0.0000         0.0000         0.0000         0.0000         0.0000         0.0000              0              0              0              0              0              0              0           0.00        -4.0000
          11723         0.0000         0.0000         0.0000         0.0000         0.0000         0.0000              0              0              0              0              0              0              0           0.00        -4.0000
          11724         0.0000         0.0000         0.0000         0.0000         0.0000         0.0000              0              0              0              0              0              0              0           0.00        -4.0000
          11725         0.0000         0.0000         0.0000         0.0000         0.0000         0.0000              0              0              0              0              0              0              0           0.00        -4.0000
          11726         0.0000         0.0000         0.0000         0.0000         0.0000         0.0000              0              0              0              0              0              0              0           0.00        -4.0000
          11727         0.0000         0.0000         0.0000         0.0000         0.0000         0.0000              0              0              0              0              0              0              0           0.00        -4.0000
          11728         0.0000         0.0000         0.0000         0.0000         0.0000         0.0000              0              0              0              0              0              0              0           0.00        -4.0000
          11729         0.0000         0.0000         0.0000         0.0000         0.0000         0.0000              0              0              0              0              0              0              0           0.00        -4.0000
          11730         0.0000         0.0000         0.0000         0.0000         0.0000         0.0000              0              0              0              0              0              0              0           0.00        -4.0000
          11731         0.0000         0.0000         0.0000         0.0000         0.0000         0.0000              0              0              0              0              0              0              0           0.00        -4.0000
          11732         0.0000         0.0000         0.0000         0.0000         0.0000         0.0000              0              0              0              0              0              0              0           0.00        -4.0000
          11733         0.0000         0.0000         0.0000         0.0000         0.0000         0.0000              0              0              0              0              0              0              0           0.00        -4.0000
          11734         0.0000         0.0000         0.0000         0.0000         0.0000         0.0000              0              0              0              0              0              0              0           0.00        -4.0000
          11735         0.0000         0.0000         0.0000         0.0000         0.0000         0.0000              0              0              0              0              0              0              0           0.00        -4.0000
          11736         0.0000         0.0000         0.0000         0.0000         0.0000         0.0000              0              0              0              0              0              0              0           0.00        -4.0000
          11737         0.0000         0.0000         0.0000         0.0000         0.0000         0.0000              0              0              0              0              0              0              0           0.00        -4.0000
          11738         0.0000         0.0000         0.0000         0.0000         0.0000         0.0000              0              0              0              0              0              0              0           0.00        -4.0000
          11739         0.0000         0.0000         0.0000         0.0000         0.0000         0.0000              0              0              0              0              0              0              0           0.00        -4.0000
          11740         0.0000         0.0000         0.0000         0.0000         0.0000         0.0000              0              0              0              0              0              0              0           0.00        -4.0000
          11741         0.0000         0.0000         0.0000         0.0000         0.0000         0.0000              0              0              0              0              0              0              0           0.00        -4.0000
          11742         0.0000         0.0000         0.0000         0.0000         0.0000         0.0000              0              0              0              0              0              0              0           0.00        -4.0000
          11743         0.0000         0.0000         0.0000         0.0000         0.0000         0.0000              0              0              0              0              0              0              0           0.00        -4.0000
          11744         0.0000         0.0000         0.0000         0.0000         0.0000         0.0000              0              0              0              0              0              0              0           0.00        -4.0000
          11745         0.0000         0.0000         0.0000         0.0000         0.0000         0.0000              0              0              0              0              0              0              0           0.00        -4.0000
          11746         0.0000         0.0000         0.0000         0.0000         0.0000         0.0000              0              0              0              0              0              0              0           0.00        -4.0000
          11747         0.0000         0.0000         0.0000         0.0000         0.0000         0.0000              0              0              0              0              0              0              0           0.00        -4.0000
          11748         0.0000         0.0000         0.0000         0.0000         0.0000         0.0000              0              0              0              0              0              0              0           0.00        -4.0000
          11749         0.0000         0.0000         0.0000         0.0000         0.0000         0.0000              0              0              0              0              0              0              0           0.00        -4.0000
          11750         0.0000         0.0000         0.0000         0.0000         0.0000         0.0000              0              0              0              0              0              0              0           0.00        -4.0000
          11751         0.0000         0.0000         0.0000         0.0000         0.0000         0.0000              0              0              0              0              0              0              0           0.00        -4.0000
          11752         0.0000         0.0000         0.0000         0.0000         0.0000         0.0000              0              0              0              0              0              0              0           0.00        -4.0000
          11753         0.0000         0.0000         0.0000         0.0000         0.0000         0.0000              0              0              0              0              0              0              0           0.00        -4.0000
          11754         0.0000         0.0000         0.0000         0.0000         0.0000         0.0000              0              0              0              0              0              0              0           0.00        -4.0000
          11755         0.0000         0.0000         0.0000         0.0000         0.0000         0.0000              0              0              0              0              0              0              0           0.00        -4.0000
