#___________________________________________________________________________
~VERSION INFORMATION
 VERS.                                 2.0 : CWLS LOG ASCII STANDARD - VERSION 2.0
 WRAP.                                  NO : ONE LINE PER DEPTH STEP
#___________________________________________________________________________
~WELL INFORMATION
 STRT.F                            9700.00 : START DEPTH
 STOP.F                           17167.00 : STOP DEPTH
 STEP.F                                  1 : STEP VALUE
 NULL.                             -999.25 : NULL VALUE
 COMP.      Magnolia Oil & Gas             : COMPANY
 WELL.      Fat Tire A 1H                  : WELL
  FLD.      Giddings                       : FIELD
  LOC.      Fayette County                 : LOCATION
 CNTY.      Fayette County                 : PARISH/COUNTY
 STAT.      Texas                          : STATE
 CTRY.      USA                            : COUNTRY
" SRVC.      PetroLog International, Inc.   : SERVICE COMPANY"
 DATE.      12/18/2020                     : LOG DATE
  API.      42-149-33515                   : API REFERENCE NUMBER
#___________________________________________________________________________
~CURVE INFORMATION
#MNEM.UNITS                                : DESCRIPTION
DEPTH.F                                    :  1 DEPTH
 TGAS.Units                                :  2 Chromatograph_TotalGas
 MTHX.PPM                                  :  3 Chromatograph_MethanePPMMax
 ETHX.PPM                                  :  4 Chromatograph_EthanePPMMax
 PRPX.PPM                                  :  5 Chromatograph_PropanePPMMax
 IBTX.PPM                                  :  6 Chromatograph_IButanePPMMax
 NBTX.PPM                                  :  7 Chromatograph_NButanePPMMax
CEMNT.%                                    :  8 Lithology_Cement
SHALE.%                                    :  9 Lithology_Shale
SILTST.%                                   : 10 Lithology_Siltstone
 SAND.%                                    : 11 Lithology_Sand
 LIME.%                                    : 12 Lithology_Lime
 CHLK.%                                    : 13 Lithology_Chalk
  ASH.%                                    : 14 Lithology_Ash
 FRAC.%                                    : 15 Fracture
Kick/Loss.----                             : 16 Kick/Loss
#___________________________________________________________________________
~A        DEPTH           TGAS           MTHX           ETHX           PRPX           IBTX           NBTX          CEMNT          SHALE         SILTST           SAND           LIME           CHLK            ASH           FRAC      Kick/Loss
# ...
          13678      2848.6000    160115.0000    116343.0000     85143.0000     12402.0000     30674.0000              0              0              0              0              0            100              0           0.00         0.0000
          13679      2787.5500    160115.0000    116343.0000     85143.0000     12402.0000     30674.0000              0              0              0              0              0            100              0           0.00         0.0000
          13680      2753.3500    160115.0000    116343.0000     85143.0000     12402.0000     30674.0000              0              0              0              0              0            100              0           0.00         0.0000
          13681      2713.0500    160115.0000    116343.0000     85143.0000     12402.0000     30674.0000              0              0              0              0              0            100              0           0.00         0.0000
          13682      2705.1500    160115.0000    116343.0000     85143.0000     12402.0000     30674.0000              0              0              0              0              0            100              0           0.00         0.0000
          13683      2700.8500    186923.0000     87040.0000     46193.0000      6458.0000     16829.0000              0              0              0              0              0            100              0           0.00         0.0000
          13684      2689.8750    186923.0000     87040.0000     46193.0000      6458.0000     16829.0000              0              0              0              0              0            100              0           0.00         0.0000
          13685      2665.4500    186923.0000     87040.0000     46193.0000      6458.0000     16829.0000              0              0              0              0              0            100              0           0.00         0.0000
          13686      2639.8000    186923.0000     87040.0000     46193.0000      6458.0000     16829.0000              0              0              0              0              0            100              0           0.00         0.0000
          13687      2612.9500    186923.0000     87040.0000     46193.0000      6458.0000     16829.0000              0              0              0              0              0            100              0           0.00         0.0000
          13688      2593.4000    186923.0000     87040.0000     46193.0000      6458.0000     16829.0000              0              0              0              0              0            100              0           0.00         0.0000
          13689      2575.7000    186923.0000     87040.0000     46193.0000      6458.0000     16829.0000              0              0              0              0              0            100              0           0.00         0.0000
          13690      2562.2750    186923.0000     87040.0000     46193.0000      6458.0000     16829.0000              0              0              0              0              0            100              0           0.00         0.0000
          13691      2551.8750    186923.0000     87040.0000     46193.0000      6458.0000     16829.0000              0              0              0              0              0            100              0           0.00         0.0000
          13692      2547.0000    186923.0000     87040.0000     46193.0000      6458.0000     16829.0000              0              0              0              0              0            100              0           0.00         0.0000
          13693      2547.0000    186923.0000     87040.0000     46193.0000      6458.0000     16829.0000              0              0              0              0              0            100              0           0.00         0.0000
          13694      2529.9000    186923.0000     87040.0000     46193.0000      6458.0000     16829.0000              0              0              0              0              0            100              0           0.00         0.0000
          13695      2511.6000    186923.0000     87040.0000     46193.0000      6458.0000     16829.0000              0              0              0              0              0            100              0           0.00         0.0000
          13696      2475.5750    186923.0000     87040.0000     46193.0000      6458.0000     16829.0000              0              0              0              0              0            100              0           0.00         0.0000
          13697      2456.0500    186923.0000     87040.0000     46193.0000      6458.0000     16829.0000              0              0              0              0              0            100              0           0.00         0.0000
          13698      2428.5750    186923.0000     87040.0000     46193.0000      6458.0000     16829.0000              0              0              0              0              0            100              0           0.00         0.0000
          13699      2406.5750    186923.0000     87040.0000     46193.0000      6458.0000     16829.0000              0              0              0              0              0            100              0           0.00         0.0000
          13700      2389.5000    179833.0000     70159.0000     33854.0000      5026.0000     13799.0000              0              0              0              0              0            100              0           0.00         0.0000
          13701      2390.7000    179833.0000     70159.0000     33854.0000      5026.0000     13799.0000              0              0              0              0              0            100              0           0.00         0.0000
          13702      2376.6750    179833.0000     70159.0000     33854.0000      5026.0000     13799.0000              0              0              0              0              0            100              0           0.00         0.0000
          13703      2376.0500    179833.0000     70159.0000     33854.0000      5026.0000     13799.0000              0              0              0              0              0            100              0           0.00         0.0000
          13704      2363.0500    179833.0000     70159.0000     33854.0000      5026.0000     13799.0000              0              0              0              0              0            100              0           0.00         0.0000
          13705      2347.3750    179833.0000     70159.0000     33854.0000      5026.0000     13799.0000              0              0              0              0              0            100              0           0.00         0.0000
          13706      2334.5500    179833.0000     70159.0000     33854.0000      5026.0000     13799.0000              0              0              0              0              0            100              0           0.00         0.0000
          13707      2322.3500    179833.0000     70159.0000     33854.0000      5026.0000     13799.0000              0              0              0              0              0            100              0           0.00         0.0000
          13708      2321.7500    179833.0000     70159.0000     33854.0000      5026.0000     13799.0000              0              0              0              0              0            100              0           0.00         0.0000
          13709      2321.7500    179833.0000     70159.0000     33854.0000      5026.0000     13799.0000              0              0              0              0              0            100              0           0.00         0.0000
          13710      2316.2500    179833.0000     70159.0000     33854.0000      5026.0000     13799.0000              0              0              0              0              0            100              0           0.00         0.0000
          13711      2313.8000    179833.0000     70159.0000     33854.0000      5026.0000     13799.0000              0              0              0              0              0            100              0           0.00         0.0000
