#___________________________________________________________________________
~VERSION INFORMATION
 VERS.                                 2.0 : CWLS LOG ASCII STANDARD - VERSION 2.0
 WRAP.                                  NO : ONE LINE PER DEPTH STEP
#___________________________________________________________________________
~WELL INFORMATION
 STRT.F                           10192.00 : START DEPTH
 STOP.F                           12327.00 : STOP DEPTH
 STEP.F                                  1 : STEP VALUE
 NULL.                             -999.25 : NULL VALUE
 COMP.      Magnolia Oil & Gas             : COMPANY
 WELL.      Fat Tire B 1H                  : WELL
  FLD.      Giddings                       : FIELD
  LOC.      Fayette County                 : LOCATION
 CNTY.      Fayette County                 : PARISH/COUNTY
 STAT.      Texas                          : STATE
 CTRY.      USA                            : COUNTRY
" SRVC.      PetroLog International, Inc.   : SERVICE COMPANY"
 DATE.      12/28/2020                     : LOG DATE
  API.      42-149-33514                   : API REFERENCE NUMBER
#___________________________________________________________________________
~CURVE INFORMATION
#MNEM.UNITS                                : DESCRIPTION
DEPTH.F                                    :  1 DEPTH
 TGAS.Units                                :  2 Chromatograph_TotalGas
 MTHX.PPM                                  :  3 Chromatograph_MethanePPMMax
 ETHX.PPM                                  :  4 Chromatograph_EthanePPMMax
 PRPX.PPM                                  :  5 Chromatograph_PropanePPMMax
 IBTX.PPM                                  :  6 Chromatograph_IButanePPMMax
 NBTX.PPM                                  :  7 Chromatograph_NButanePPMMax
CEMNT.%                                    :  8 Lithology_Cement
SHALE.%                                    :  9 Lithology_Shale
SILTST.%                                   : 10 Lithology_Siltstone
 SAND.%                                    : 11 Lithology_Sand
 LIME.%                                    : 12 Lithology_Lime
 CHLK.%                                    : 13 Lithology_Chalk
  ASH.%                                    : 14 Lithology_Ash
 FRAC.%                                    : 15 Fracture
Kick/Loss.----                             : 16 Kick/Loss
#___________________________________________________________________________
~A        DEPTH           TGAS           MTHX           ETHX           PRPX           IBTX           NBTX          CEMNT          SHALE         SILTST           SAND           LIME           CHLK            ASH           FRAC      Kick/Loss
# ...
          10770       786.3500     96362.0000     13594.0000      3816.0000       254.0000       822.0000              0              0              0              0              0            100              0           0.00         0.0000
          10771       773.5000     96362.0000     13594.0000      3816.0000       254.0000       822.0000              0              0              0              0              0            100              0           0.00         0.0000
          10772       771.0750     96362.0000     13594.0000      3816.0000       254.0000       822.0000              0              0              0              0              0            100              0           0.00         0.0000
          10773       772.9000     96362.0000     13594.0000      3816.0000       254.0000       822.0000              0              0              0              0              0            100              0           0.00         0.0000
          10774       780.2000     96362.0000     13594.0000      3816.0000       254.0000       822.0000              0              0              0              0              0            100              0           0.00         0.0000
          10775       780.2000     96362.0000     13594.0000      3816.0000       254.0000       822.0000              0              0              0              0              0            100              0           0.00         0.0000
          10776       777.1750     96362.0000     13594.0000      3816.0000       254.0000       822.0000              0              0              0              0              0            100              0           0.00         0.0000
          10777       770.4500     96362.0000     13594.0000      3816.0000       254.0000       822.0000              0              0              0              0              0            100              0           0.00         0.0000
          10778       765.5500     96362.0000     13594.0000      3816.0000       254.0000       822.0000              0              0              0              0              0            100              0           0.00         0.0000
          10779       755.8000     96362.0000     13594.0000      3816.0000       254.0000       822.0000              0              0              0              0              0            100              0           0.00         0.0000
          10780       676.4500     96362.0000     13594.0000      3816.0000       254.0000       822.0000              0              0              0              0              0            100              0           0.00         0.0000
          10781       432.2500     96362.0000     13594.0000      3816.0000       254.0000       822.0000              0              0              0              0              0            100              0           0.00         0.0000
          10782       255.2000     96362.0000     13594.0000      3816.0000       254.0000       822.0000              0              0              0              0              0            100              0           0.00         0.0000
          10783       177.0500     14958.0000      2665.0000       986.0000         0.0000       329.0000              0              0              0              0              0            100              0           0.00         0.0000
          10784       143.4750     14958.0000      2665.0000       986.0000         0.0000       329.0000              0              0              0              0              0            100              0           0.00         0.0000
          10785       160.5500     14958.0000      2665.0000       986.0000         0.0000       329.0000              0              0              0              0              0            100              0           0.00         0.0000
          10786       180.7000     14958.0000      2665.0000       986.0000         0.0000       329.0000              0              0              0              0              0            100              0           0.00         0.0000
          10787       179.5000     14958.0000      2665.0000       986.0000         0.0000       329.0000              0              0              0              0              0            100              0           0.00         0.0000
          10788       170.9500     14958.0000      2665.0000       986.0000         0.0000       329.0000              0              0              0              0              0            100              0           0.00         0.0000
          10789       151.4000     14958.0000      2665.0000       986.0000         0.0000       329.0000              0              0              0              0              0            100              0           0.00         0.0000
          10790       142.8500     14958.0000      2665.0000       986.0000         0.0000       329.0000              0              0              0              0              0            100              0           0.00         0.0000
          10791       147.1250     14958.0000      2665.0000       986.0000         0.0000       329.0000              0              0              0              0              0            100              0           0.00         0.0000
          10792       155.0500     14958.0000      2665.0000       986.0000         0.0000       329.0000              0              0              0              0              0            100              0           0.00         0.0000
          10793       167.3000     14958.0000      2665.0000       986.0000         0.0000       329.0000              0              0              0              0              0            100              0           0.00         0.0000
          10794       174.6000     14958.0000      2665.0000       986.0000         0.0000       329.0000              0              0              0              0              0            100              0           0.00         0.0000
          10795       173.4000     14958.0000      2665.0000       986.0000         0.0000       329.0000              0              0              0              0              0            100              0           0.00         0.0000
          10796       166.0500     14958.0000      2665.0000       986.0000         0.0000       329.0000              0              0              0              0              0            100              0           0.00         0.0000
          10797       157.5000      5129.0000      1327.0000       631.0000         0.0000       139.0000              0              0              0              0              0            100              0           0.00         0.0000
          10798       148.9500      5129.0000      1327.0000       631.0000         0.0000       139.0000              0              0              0              0              0            100              0           0.00         0.0000
          10799       136.7500      5129.0000      1327.0000       631.0000         0.0000       139.0000              0              0              0              0              0            100              0           0.00         0.0000
          10800       131.8500      5129.0000      1327.0000       631.0000         0.0000       139.0000              0              0              0              0              0            100              0           0.00         0.0000
          10801       131.8750      5129.0000      1327.0000       631.0000         0.0000       139.0000              0              0              0              0              0            100              0           0.00         0.0000
          10802       133.1000      5129.0000      1327.0000       631.0000         0.0000       139.0000              0              0              0              0              0            100              0           0.00         0.0000
          10803       133.1000      5129.0000      1327.0000       631.0000         0.0000       139.0000              0              0              0              0              0            100              0           0.00         0.0000
