#___________________________________________________________________________
~VERSION INFORMATION
 VERS.                                 2.0 : CWLS LOG ASCII STANDARD - VERSION 2.0
 WRAP.                                  NO : ONE LINE PER DEPTH STEP
#___________________________________________________________________________
~WELL INFORMATION
 STRT.F                           10192.00 : START DEPTH
 STOP.F                           12327.00 : STOP DEPTH
 STEP.F                                  1 : STEP VALUE
 NULL.                             -999.25 : NULL VALUE
 COMP.      Magnolia Oil & Gas             : COMPANY
 WELL.      Fat Tire B 1H                  : WELL
  FLD.      Giddings                       : FIELD
  LOC.      Fayette County                 : LOCATION
 CNTY.      Fayette County                 : PARISH/COUNTY
 STAT.      Texas                          : STATE
 CTRY.      USA                            : COUNTRY
" SRVC.      PetroLog International, Inc.   : SERVICE COMPANY"
 DATE.      12/28/2020                     : LOG DATE
  API.      42-149-33514                   : API REFERENCE NUMBER
#___________________________________________________________________________
~CURVE INFORMATION
#MNEM.UNITS                                : DESCRIPTION
DEPTH.F                                    :  1 DEPTH
 TGAS.Units                                :  2 Chromatograph_TotalGas
 MTHX.PPM                                  :  3 Chromatograph_MethanePPMMax
 ETHX.PPM                                  :  4 Chromatograph_EthanePPMMax
 PRPX.PPM                                  :  5 Chromatograph_PropanePPMMax
 IBTX.PPM                                  :  6 Chromatograph_IButanePPMMax
 NBTX.PPM                                  :  7 Chromatograph_NButanePPMMax
CEMNT.%                                    :  8 Lithology_Cement
SHALE.%                                    :  9 Lithology_Shale
SILTST.%                                   : 10 Lithology_Siltstone
 SAND.%                                    : 11 Lithology_Sand
 LIME.%                                    : 12 Lithology_Lime
 CHLK.%                                    : 13 Lithology_Chalk
  ASH.%                                    : 14 Lithology_Ash
 FRAC.%                                    : 15 Fracture
Kick/Loss.----                             : 16 Kick/Loss
#___________________________________________________________________________
~A        DEPTH           TGAS           MTHX           ETHX           PRPX           IBTX           NBTX          CEMNT          SHALE         SILTST           SAND           LIME           CHLK            ASH           FRAC      Kick/Loss
# ...
          11586         0.0000         0.0000         0.0000         0.0000         0.0000         0.0000              0              0              0              0              0              0              0           0.00        -4.0000
          11587         0.0000         0.0000         0.0000         0.0000         0.0000         0.0000              0              0              0              0              0              0              0           0.00        -4.0000
          11588         0.0000         0.0000         0.0000         0.0000         0.0000         0.0000              0              0              0              0              0              0              0           0.00        -4.0000
          11589         0.0000         0.0000         0.0000         0.0000         0.0000         0.0000              0              0              0              0              0              0              0           0.00        -4.0000
          11590         0.0000         0.0000         0.0000         0.0000         0.0000         0.0000              0              0              0              0              0              0              0           0.00        -4.0000
          11591         0.0000         0.0000         0.0000         0.0000         0.0000         0.0000              0              0              0              0              0              0              0           0.00        -4.0000
          11592         0.0000         0.0000         0.0000         0.0000         0.0000         0.0000              0              0              0              0              0              0              0           0.00        -4.0000
          11593         0.0000         0.0000         0.0000         0.0000         0.0000         0.0000              0              0              0              0              0              0              0           0.00        -4.0000
          11594         0.0000         0.0000         0.0000         0.0000         0.0000         0.0000              0              0              0              0              0              0              0           0.00        -4.0000
          11595         0.0000         0.0000         0.0000         0.0000         0.0000         0.0000              0              0              0              0              0              0              0           0.00        -4.0000
          11596         0.0000         0.0000         0.0000         0.0000         0.0000         0.0000              0              0              0              0              0              0              0           0.00        -4.0000
          11597         0.0000         0.0000         0.0000         0.0000         0.0000         0.0000              0              0              0              0              0              0              0           0.00        -4.0000
          11598         0.0000         0.0000         0.0000         0.0000         0.0000         0.0000              0              0              0              0              0              0              0           0.00        -4.0000
          11599         0.0000         0.0000         0.0000         0.0000         0.0000         0.0000              0              0              0              0              0              0              0           0.00        -4.0000
          11600         0.0000         0.0000         0.0000         0.0000         0.0000         0.0000              0              0              0              0              0              0              0           0.00        -4.0000
          11601         0.0000         0.0000         0.0000         0.0000         0.0000         0.0000              0              0              0              0              0              0              0           0.00        -4.0000
          11602         0.0000         0.0000         0.0000         0.0000         0.0000         0.0000              0              0              0              0              0              0              0           0.00        -4.0000
          11603         0.0000         0.0000         0.0000         0.0000         0.0000         0.0000              0              0              0              0              0              0              0           0.00        -4.0000
          11604         0.0000         0.0000         0.0000         0.0000         0.0000         0.0000              0              0              0              0              0              0              0           0.00        -4.0000
          11605         0.0000         0.0000         0.0000         0.0000         0.0000         0.0000              0              0              0              0              0              0              0           0.00        -4.0000
          11606         0.0000         0.0000         0.0000         0.0000         0.0000         0.0000              0              0              0              0              0              0              0           0.00        -4.0000
          11607         0.0000         0.0000         0.0000         0.0000         0.0000         0.0000              0              0              0              0              0              0              0           0.00        -4.0000
          11608         0.0000         0.0000         0.0000         0.0000         0.0000         0.0000              0              0              0              0              0              0              0           0.00        -4.0000
          11609         0.0000         0.0000         0.0000         0.0000         0.0000         0.0000              0              0              0              0              0              0              0           0.00        -4.0000
          11610         0.0000         0.0000         0.0000         0.0000         0.0000         0.0000              0              0              0              0              0              0              0           0.00        -4.0000
          11611         0.0000         0.0000         0.0000         0.0000         0.0000         0.0000              0              0              0              0              0              0              0           0.00        -4.0000
          11612         0.0000         0.0000         0.0000         0.0000         0.0000         0.0000              0              0              0              0              0              0              0           0.00        -4.0000
          11613         0.0000         0.0000         0.0000         0.0000         0.0000         0.0000              0              0              0              0              0              0              0           0.00        -4.0000
          11614         0.0000         0.0000         0.0000         0.0000         0.0000         0.0000              0              0              0              0              0              0              0           0.00        -4.0000
          11615         0.0000         0.0000         0.0000         0.0000         0.0000         0.0000              0              0              0              0              0              0              0           0.00        -4.0000
          11616         0.0000         0.0000         0.0000         0.0000         0.0000         0.0000              0              0              0              0              0              0              0           0.00        -4.0000
          11617         0.0000         0.0000         0.0000         0.0000         0.0000         0.0000              0              0              0              0              0              0              0           0.00        -4.0000
          11618         0.0000         0.0000         0.0000         0.0000         0.0000         0.0000              0              0              0              0              0              0              0           0.00        -4.0000
          11619         0.0000         0.0000         0.0000         0.0000         0.0000         0.0000              0              0              0              0              0              0              0           0.00        -4.0000
