#___________________________________________________________________________
~VERSION INFORMATION
 VERS.                                 2.0 : CWLS LOG ASCII STANDARD - VERSION 2.0
 WRAP.                                  NO : ONE LINE PER DEPTH STEP
#___________________________________________________________________________
~WELL INFORMATION
 STRT.F                            9700.00 : START DEPTH
 STOP.F                           17167.00 : STOP DEPTH
 STEP.F                                  1 : STEP VALUE
 NULL.                             -999.25 : NULL VALUE
 COMP.      Magnolia Oil & Gas             : COMPANY
 WELL.      Fat Tire A 1H                  : WELL
  FLD.      Giddings                       : FIELD
  LOC.      Fayette County                 : LOCATION
 CNTY.      Fayette County                 : PARISH/COUNTY
 STAT.      Texas                          : STATE
 CTRY.      USA                            : COUNTRY
" SRVC.      PetroLog International, Inc.   : SERVICE COMPANY"
 DATE.      12/18/2020                     : LOG DATE
  API.      42-149-33515                   : API REFERENCE NUMBER
#___________________________________________________________________________
~CURVE INFORMATION
#MNEM.UNITS                                : DESCRIPTION
DEPTH.F                                    :  1 DEPTH
 TGAS.Units                                :  2 Chromatograph_TotalGas
 MTHX.PPM                                  :  3 Chromatograph_MethanePPMMax
 ETHX.PPM                                  :  4 Chromatograph_EthanePPMMax
 PRPX.PPM                                  :  5 Chromatograph_PropanePPMMax
 IBTX.PPM                                  :  6 Chromatograph_IButanePPMMax
 NBTX.PPM                                  :  7 Chromatograph_NButanePPMMax
CEMNT.%                                    :  8 Lithology_Cement
SHALE.%                                    :  9 Lithology_Shale
SILTST.%                                   : 10 Lithology_Siltstone
 SAND.%                                    : 11 Lithology_Sand
 LIME.%                                    : 12 Lithology_Lime
 CHLK.%                                    : 13 Lithology_Chalk
  ASH.%                                    : 14 Lithology_Ash
 FRAC.%                                    : 15 Fracture
Kick/Loss.----                             : 16 Kick/Loss
#___________________________________________________________________________
~A        DEPTH           TGAS           MTHX           ETHX           PRPX           IBTX           NBTX          CEMNT          SHALE         SILTST           SAND           LIME           CHLK            ASH           FRAC      Kick/Loss
           9700       319.9000     18853.0000      2640.0000      1181.0000         0.0000        46.0000              0            100              0              0              0              0              0           0.00         0.0000
           9701       319.9250     18853.0000      2640.0000      1181.0000         0.0000        46.0000              0            100              0              0              0              0              0           0.00         0.0000
           9702       319.9000     18853.0000      2640.0000      1181.0000         0.0000        46.0000              0            100              0              0              0              0              0           0.00         0.0000
           9703       319.9000     18853.0000      2640.0000      1181.0000         0.0000        46.0000              0            100              0              0              0              0              0           0.00         0.0000
           9704       318.7000     18853.0000      2640.0000      1181.0000         0.0000        46.0000              0            100              0              0              0              0              0           0.00         0.0000
           9705       318.7000     18853.0000      2640.0000      1181.0000         0.0000        46.0000              0            100              0              0              0              0              0           0.00         0.0000
           9706       316.2500     18853.0000      2640.0000      1181.0000         0.0000        46.0000              0            100              0              0              0              0              0           0.00         0.0000
           9707       313.8000     18853.0000      2640.0000      1181.0000         0.0000        46.0000              0            100              0              0              0              0              0           0.00         0.0000
           9708       312.6000     18853.0000      2640.0000      1181.0000         0.0000        46.0000              0            100              0              0              0              0              0           0.00         0.0000
           9709       311.3500     18853.0000      2640.0000      1181.0000         0.0000        46.0000              0            100              0              0              0              0              0           0.00         0.0000
           9710       310.1500     18853.0000      2640.0000      1181.0000         0.0000        46.0000              0            100              0              0              0              0              0           0.00         0.0000
           9711       310.1500     18853.0000      2640.0000      1181.0000         0.0000        46.0000              0            100              0              0              0              0              0           0.00         0.0000
           9712       307.0750     18853.0000      2640.0000      1181.0000         0.0000        46.0000              0            100              0              0              0              0              0           0.00         0.0000
           9713       304.6500     18853.0000      2640.0000      1181.0000         0.0000        46.0000              0            100              0              0              0              0              0           0.00         0.0000
           9714       301.6000     18853.0000      2640.0000      1181.0000         0.0000        46.0000              0            100              0              0              0              0              0           0.00         0.0000
           9715       300.3500     18853.0000      2640.0000      1181.0000         0.0000        46.0000              0            100              0              0              0              0              0           0.00         0.0000
           9716       296.7000     18853.0000      2640.0000      1181.0000         0.0000        46.0000              0            100              0              0              0              0              0           0.00         0.0000
           9717       296.7000     18853.0000      2640.0000      1181.0000         0.0000        46.0000              0            100              0              0              0              0              0           0.00         0.0000
           9718       296.7000     18853.0000      2640.0000      1181.0000         0.0000        46.0000              0            100              0              0              0              0              0           0.00         0.0000
           9719       301.6000     18853.0000      2640.0000      1181.0000         0.0000        46.0000              0            100              0              0              0              0              0           0.00         0.0000
           9720       304.0500     18853.0000      2640.0000      1181.0000         0.0000        90.0000              0            100              0              0              0              0              0           0.00         0.0000
           9721       310.1500     17246.0000      2396.0000      1086.0000         0.0000        90.0000              0            100              0              0              0              0              0           0.00         0.0000
           9722       177.6500      3231.0000       475.0000       283.0000         0.0000        26.0000              0            100              0              0              0              0              0           0.00         0.0000
           9723       180.7250      3231.0000       475.0000       283.0000         0.0000        26.0000              0            100              0              0              0              0              0           0.00         0.0000
           9724       186.8000      3231.0000       475.0000       283.0000         0.0000        26.0000              0            100              0              0              0              0              0           0.00         0.0000
           9725       191.7000      3526.0000       483.0000       283.0000         0.0000        26.0000              0            100              0              0              0              0              0           0.00         0.0000
           9726       195.9750      3526.0000       483.0000       259.0000         0.0000         0.0000              0            100              0              0              0              0              0           0.00         0.0000
           9727       196.6000      3526.0000       483.0000       259.0000         0.0000         0.0000              0            100              0              0              0              0              0           0.00         0.0000
           9728       195.9750      3526.0000       483.0000       259.0000         0.0000         0.0000              0            100              0              0              0              0              0           0.00         0.0000
           9729       198.4250      3526.0000       483.0000       259.0000         0.0000         0.0000              0            100              0              0              0              0              0           0.00         0.0000
           9730       199.0500      4737.0000       673.0000       360.0000         0.0000         0.0000              0            100              0              0              0              0              0           0.00         0.0000
           9731       201.4500      4737.0000       673.0000       360.0000         0.0000         0.0000              0            100              0              0              0              0              0           0.00         0.0000
           9732       200.2500      4737.0000       673.0000       360.0000         0.0000         0.0000              0            100              0              0              0              0              0           0.00         0.0000
           9733       200.2500      4737.0000       673.0000       360.0000         0.0000         0.0000              0            100              0              0              0              0              0           0.00         0.0000
