#___________________________________________________________________________
~VERSION INFORMATION
 VERS.                                 2.0 : CWLS LOG ASCII STANDARD - VERSION 2.0
 WRAP.                                  NO : ONE LINE PER DEPTH STEP
#___________________________________________________________________________
~WELL INFORMATION
 STRT.F                            9700.00 : START DEPTH
 STOP.F                           17167.00 : STOP DEPTH
 STEP.F                                  1 : STEP VALUE
 NULL.                             -999.25 : NULL VALUE
 COMP.      Magnolia Oil & Gas             : COMPANY
 WELL.      Fat Tire A 1H                  : WELL
  FLD.      Giddings                       : FIELD
  LOC.      Fayette County                 : LOCATION
 CNTY.      Fayette County                 : PARISH/COUNTY
 STAT.      Texas                          : STATE
 CTRY.      USA                            : COUNTRY
" SRVC.      PetroLog International, Inc.   : SERVICE COMPANY"
 DATE.      12/18/2020                     : LOG DATE
  API.      42-149-33515                   : API REFERENCE NUMBER
#___________________________________________________________________________
~CURVE INFORMATION
#MNEM.UNITS                                : DESCRIPTION
DEPTH.F                                    :  1 DEPTH
 TGAS.Units                                :  2 Chromatograph_TotalGas
 MTHX.PPM                                  :  3 Chromatograph_MethanePPMMax
 ETHX.PPM                                  :  4 Chromatograph_EthanePPMMax
 PRPX.PPM                                  :  5 Chromatograph_PropanePPMMax
 IBTX.PPM                                  :  6 Chromatograph_IButanePPMMax
 NBTX.PPM                                  :  7 Chromatograph_NButanePPMMax
CEMNT.%                                    :  8 Lithology_Cement
SHALE.%                                    :  9 Lithology_Shale
SILTST.%                                   : 10 Lithology_Siltstone
 SAND.%                                    : 11 Lithology_Sand
 LIME.%                                    : 12 Lithology_Lime
 CHLK.%                                    : 13 Lithology_Chalk
  ASH.%                                    : 14 Lithology_Ash
 FRAC.%                                    : 15 Fracture
Kick/Loss.----                             : 16 Kick/Loss
#___________________________________________________________________________
~A        DEPTH           TGAS           MTHX           ETHX           PRPX           IBTX           NBTX          CEMNT          SHALE         SILTST           SAND           LIME           CHLK            ASH           FRAC      Kick/Loss
# ...
          10210        80.6000      1009.0000        68.0000         0.0000         0.0000         0.0000              0              0              0              0              0            100              0           0.00         0.0000
          10211        81.2000      1009.0000        68.0000         0.0000         0.0000         0.0000              0              0              0              0              0            100              0           0.00         0.0000
          10212        80.6000      1009.0000        68.0000         0.0000         0.0000         0.0000              0              0              0              0              0            100              0           0.00         0.0000
          10213        80.6000      1009.0000        68.0000         0.0000         0.0000         0.0000              0              0              0              0              0            100              0           0.00         0.0000
          10214        80.6000      1009.0000        68.0000         0.0000         0.0000         0.0000              0              0              0              0              0            100              0           0.00         0.0000
          10215        81.8000      1009.0000        68.0000         0.0000         0.0000         0.0000              0              0              0              0              0            100              0           0.00         0.0000
          10216        81.8000      1009.0000        68.0000         0.0000         0.0000         0.0000              0              0              0              0              0            100              0           0.00         0.0000
          10217        80.6000      1009.0000        68.0000         0.0000         0.0000         0.0000              0              0              0              0              0            100              0           0.00         0.0000
          10218        81.2000      1009.0000        68.0000         0.0000         0.0000         0.0000              0              0              0              0              0            100              0           0.00         0.0000
          10219        81.8000      1073.0000        68.0000         0.0000         0.0000         0.0000              0              0              0              0              0            100              0           0.00         0.0000
          10220        81.8000      1073.0000        62.0000         0.0000         0.0000         0.0000              0              0              0              0              0            100              0           0.00         0.0000
          10221        81.2000      1073.0000        62.0000         0.0000         0.0000         0.0000              0              0              0              0              0            100              0           0.00         0.0000
          10222        80.6000      1073.0000        62.0000         0.0000         0.0000         0.0000              0              0              0              0              0            100              0           0.00         0.0000
          10223        81.8000      1073.0000        62.0000         0.0000         0.0000         0.0000              0              0              0              0              0            100              0           0.00         0.0000
          10224        83.0500      1073.0000        62.0000         0.0000         0.0000         0.0000              0              0              0              0              0            100              0           0.00         0.0000
          10225        84.2500      1073.0000        62.0000         0.0000         0.0000         0.0000              0              0              0              0              0            100              0           0.00         0.0000
          10226        83.0500      1228.0000        88.0000         0.0000         0.0000         0.0000              0              0              0              0              0            100              0           0.00         0.0000
          10227        84.2500      1228.0000        88.0000         0.0000         0.0000         0.0000              0              0              0              0              0            100              0           0.00         0.0000
          10228        81.8000      1228.0000        88.0000         0.0000         0.0000         0.0000              0              0              0              0              0            100              0           0.00         0.0000
          10229        81.8000      1228.0000        88.0000         0.0000         0.0000         0.0000              0              0              0              0              0            100              0           0.00         0.0000
          10230        81.8000      1228.0000        88.0000         0.0000         0.0000         0.0000              0              0              0              0              0            100              0           0.00         0.0000
          10231        80.6000      1228.0000        88.0000         0.0000         0.0000         0.0000              0              0              0              0              0            100              0           0.00         0.0000
          10232        80.6000      1228.0000        88.0000         0.0000         0.0000         0.0000              0              0              0              0              0            100              0           0.00         0.0000
          10233        81.8000      1006.0000        57.0000         0.0000         0.0000         0.0000              0              0              0              0              0            100              0           0.00         0.0000
          10234        79.3500      1006.0000        57.0000         0.0000         0.0000         0.0000              0              0              0              0              0            100              0           0.00         0.0000
          10235        79.3500      1006.0000        57.0000         0.0000         0.0000         0.0000              0              0              0              0              0            100              0           0.00         0.0000
          10236        78.1500      1006.0000        57.0000         0.0000         0.0000         0.0000              0              0              0              0              0            100              0           0.00         0.0000
          10237        76.9500      1006.0000        57.0000         0.0000         0.0000         0.0000              0              0              0              0              0            100              0           0.00         0.0000
          10238        76.9500      1006.0000        57.0000         0.0000         0.0000         0.0000              0              0              0              0              0            100              0           0.00         0.0000
          10239        78.1500      1006.0000        57.0000         0.0000         0.0000         0.0000              0              0              0              0              0            100              0           0.00         0.0000
          10240        78.7500      1006.0000        57.0000         0.0000         0.0000         0.0000              0              0              0              0              0            100              0           0.00         0.0000
          10241        78.1500      1006.0000        57.0000         0.0000         0.0000         0.0000              0              0              0              0              0            100              0           0.00         0.0000
          10242        79.3500      1006.0000        57.0000         0.0000         0.0000         0.0000              0              0              0              0              0            100              0           0.00         0.0000
          10243        79.3500      1006.0000        57.0000         0.0000         0.0000         0.0000              0              0              0              0              0            100              0           0.00         0.0000
