#___________________________________________________________________________
~VERSION INFORMATION
 VERS.                                 2.0 : CWLS LOG ASCII STANDARD - VERSION 2.0
 WRAP.                                  NO : ONE LINE PER DEPTH STEP
#___________________________________________________________________________
~WELL INFORMATION
 STRT.F                            9700.00 : START DEPTH
 STOP.F                           17167.00 : STOP DEPTH
 STEP.F                                  1 : STEP VALUE
 NULL.                             -999.25 : NULL VALUE
 COMP.      Magnolia Oil & Gas             : COMPANY
 WELL.      Fat Tire A 1H                  : WELL
  FLD.      Giddings                       : FIELD
  LOC.      Fayette County                 : LOCATION
 CNTY.      Fayette County                 : PARISH/COUNTY
 STAT.      Texas                          : STATE
 CTRY.      USA                            : COUNTRY
" SRVC.      PetroLog International, Inc.   : SERVICE COMPANY"
 DATE.      12/18/2020                     : LOG DATE
  API.      42-149-33515                   : API REFERENCE NUMBER
#___________________________________________________________________________
~CURVE INFORMATION
#MNEM.UNITS                                : DESCRIPTION
DEPTH.F                                    :  1 DEPTH
 TGAS.Units                                :  2 Chromatograph_TotalGas
 MTHX.PPM                                  :  3 Chromatograph_MethanePPMMax
 ETHX.PPM                                  :  4 Chromatograph_EthanePPMMax
 PRPX.PPM                                  :  5 Chromatograph_PropanePPMMax
 IBTX.PPM                                  :  6 Chromatograph_IButanePPMMax
 NBTX.PPM                                  :  7 Chromatograph_NButanePPMMax
CEMNT.%                                    :  8 Lithology_Cement
SHALE.%                                    :  9 Lithology_Shale
SILTST.%                                   : 10 Lithology_Siltstone
 SAND.%                                    : 11 Lithology_Sand
 LIME.%                                    : 12 Lithology_Lime
 CHLK.%                                    : 13 Lithology_Chalk
  ASH.%                                    : 14 Lithology_Ash
 FRAC.%                                    : 15 Fracture
Kick/Loss.----                             : 16 Kick/Loss
#___________________________________________________________________________
~A        DEPTH           TGAS           MTHX           ETHX           PRPX           IBTX           NBTX          CEMNT          SHALE         SILTST           SAND           LIME           CHLK            ASH           FRAC      Kick/Loss
# ...
          16636      1660.5500    136111.0000     32759.0000     15348.0000      1903.0000      6098.0000              0              0              0              0              0            100              0           0.00         0.0000
          16637      1661.8000    136111.0000     32759.0000     15348.0000      1903.0000      6098.0000              0              0              0              0              0            100              0           0.00         0.0000
          16638      1663.0000    124559.0000     29499.0000     14320.0000      1760.0000      5867.0000              0              0              0              0              0            100              0           0.00         0.0000
          16639      1675.2000    124559.0000     29499.0000     14320.0000      1760.0000      5867.0000              0              0              0              0              0            100              0           0.00         0.0000
          16640      1685.0000    124559.0000     29499.0000     14320.0000      1760.0000      5867.0000              0              0              0              0              0            100              0           0.00         0.0000
          16641      1694.1500    124559.0000     29499.0000     14320.0000      1760.0000      5867.0000              0              0              0              0              0            100              0           0.00         0.0000
          16642      1697.2000    124559.0000     29499.0000     14320.0000      1760.0000      5867.0000              0              0              0              0              0            100              0           0.00         0.0000
          16643      1695.9500    124559.0000     29499.0000     14320.0000      1760.0000      5867.0000              0              0              0              0              0            100              0           0.00         0.0000
          16644      1693.5500    124559.0000     29499.0000     14320.0000      1760.0000      5867.0000              0              0              0              0              0            100              0           0.00         0.0000
          16645      1688.6500    124559.0000     29499.0000     14320.0000      1760.0000      5867.0000              0              0              0              0              0            100              0           0.00         0.0000
          16646      1695.3500    124559.0000     29499.0000     14320.0000      1760.0000      5867.0000              0              0              0              0              0            100              0           0.00         0.0000
          16647      1698.4250    124559.0000     29499.0000     14320.0000      1760.0000      5867.0000              0              0              0              0              0            100              0           0.00         0.0000
          16648      1713.6750    124559.0000     29499.0000     14320.0000      1760.0000      5867.0000              0              0              0              0              0            100              0           0.00         0.0000
          16649      1718.5500    124559.0000     29499.0000     14320.0000      1760.0000      5867.0000              0              0              0              0              0            100              0           0.00         0.0000
          16650      1721.6000    124559.0000     29499.0000     14320.0000      1760.0000      5867.0000              0              0              0              0              0            100              0           0.00         0.0000
          16651      1720.4000    124559.0000     29499.0000     14320.0000      1760.0000      5867.0000              0              0              0              0              0            100              0           0.00         0.0000
          16652      1715.5000    124559.0000     29499.0000     14320.0000      1760.0000      5867.0000              0              0              0              0              0            100              0           0.00         0.0000
          16653      1716.7500    124559.0000     29499.0000     14320.0000      1760.0000      5867.0000              0              0              0              0              0            100              0           0.00         0.0000
          16654      1738.7000    124559.0000     29499.0000     14320.0000      1760.0000      5867.0000              0              0              0              0              0            100              0           0.00         0.0000
          16655      1743.6000    124559.0000     29499.0000     14320.0000      1760.0000      5867.0000              0              0              0              0              0            100              0           0.00         0.0000
          16656      1755.8000    124559.0000     29499.0000     14320.0000      1760.0000      5867.0000              0              0              0              0              0            100              0           0.00         0.0000
          16657      1765.5500    124559.0000     29499.0000     14320.0000      1760.0000      5867.0000              0              0              0              0              0            100              0           0.00         0.0000
          16658      1757.6250    140185.0000     32256.0000     15415.0000      1965.0000      6232.0000              0              0              0              0              0            100              0           0.00         0.0000
          16659      1741.7750    140185.0000     32256.0000     15415.0000      1965.0000      6232.0000              0              0              0              0              0            100              0           0.00         0.0000
          16660      1713.0500    140185.0000     32256.0000     15415.0000      1965.0000      6232.0000              0              0              0              0              0            100              0           0.00         0.0000
          16661      1699.6500    140185.0000     32256.0000     15415.0000      1965.0000      6232.0000              0              0              0              0              0            100              0           0.00         0.0000
          16662      1712.4750    140185.0000     32256.0000     15415.0000      1965.0000      6232.0000              0              0              0              0              0            100              0           0.00         0.0000
          16663      1741.1500    140185.0000     32256.0000     15415.0000      1965.0000      6232.0000              0              0              0              0              0            100              0           0.00         0.0000
          16664      1756.4000    140185.0000     32256.0000     15415.0000      1965.0000      6232.0000              0              0              0              0              0            100              0           0.00         0.0000
          16665      1766.8000    140185.0000     32256.0000     15415.0000      1965.0000      6232.0000              0              0              0              0              0            100              0           0.00         0.0000
          16666      1766.1750    140185.0000     32256.0000     15415.0000      1965.0000      6232.0000              0              0              0              0              0            100              0           0.00         0.0000
          16667      1749.7000    140185.0000     32256.0000     15415.0000      1965.0000      6232.0000              0              0              0              0              0            100              0           0.00         0.0000
          16668      1743.6000    140185.0000     32256.0000     15415.0000      1965.0000      6232.0000              0              0              0              0              0            100              0           0.00         0.0000
          16669      1753.3500    140185.0000     32256.0000     15415.0000      1965.0000      6232.0000              0              0              0              0              0            100              0           0.00         0.0000
