#___________________________________________________________________________
~VERSION INFORMATION
 VERS.                                 2.0 : CWLS LOG ASCII STANDARD - VERSION 2.0
 WRAP.                                  NO : ONE LINE PER DEPTH STEP
#___________________________________________________________________________
~WELL INFORMATION
 STRT.F                           10192.00 : START DEPTH
 STOP.F                           12327.00 : STOP DEPTH
 STEP.F                                  1 : STEP VALUE
 NULL.                             -999.25 : NULL VALUE
 COMP.      Magnolia Oil & Gas             : COMPANY
 WELL.      Fat Tire B 1H                  : WELL
  FLD.      Giddings                       : FIELD
  LOC.      Fayette County                 : LOCATION
 CNTY.      Fayette County                 : PARISH/COUNTY
 STAT.      Texas                          : STATE
 CTRY.      USA                            : COUNTRY
" SRVC.      PetroLog International, Inc.   : SERVICE COMPANY"
 DATE.      12/28/2020                     : LOG DATE
  API.      42-149-33514                   : API REFERENCE NUMBER
#___________________________________________________________________________
~CURVE INFORMATION
#MNEM.UNITS                                : DESCRIPTION
DEPTH.F                                    :  1 DEPTH
 TGAS.Units                                :  2 Chromatograph_TotalGas
 MTHX.PPM                                  :  3 Chromatograph_MethanePPMMax
 ETHX.PPM                                  :  4 Chromatograph_EthanePPMMax
 PRPX.PPM                                  :  5 Chromatograph_PropanePPMMax
 IBTX.PPM                                  :  6 Chromatograph_IButanePPMMax
 NBTX.PPM                                  :  7 Chromatograph_NButanePPMMax
CEMNT.%                                    :  8 Lithology_Cement
SHALE.%                                    :  9 Lithology_Shale
SILTST.%                                   : 10 Lithology_Siltstone
 SAND.%                                    : 11 Lithology_Sand
 LIME.%                                    : 12 Lithology_Lime
 CHLK.%                                    : 13 Lithology_Chalk
  ASH.%                                    : 14 Lithology_Ash
 FRAC.%                                    : 15 Fracture
Kick/Loss.----                             : 16 Kick/Loss
#___________________________________________________________________________
~A        DEPTH           TGAS           MTHX           ETHX           PRPX           IBTX           NBTX          CEMNT          SHALE         SILTST           SAND           LIME           CHLK            ASH           FRAC      Kick/Loss
# ...
          11042       659.3500         0.0000         0.0000         0.0000         0.0000         0.0000              0              0              0              0              0            100              0           0.00        -2.0000
          11043       706.9500         0.0000         0.0000         0.0000         0.0000         0.0000              0              0              0              0              0            100              0           0.00        -2.0000
          11044       711.8500         0.0000         0.0000         0.0000         0.0000         0.0000              0              0              0              0              0            100              0           0.00        -2.0000
          11045       713.0500         0.0000         0.0000         0.0000         0.0000         0.0000              0              0              0              0              0            100              0           0.00        -2.0000
          11046       735.0350         0.0000         0.0000         0.0000         0.0000         0.0000              0              0              0              0              0            100              0           0.00        -2.0000
          11047       770.4500     53132.0000     20907.0000     10140.0000       980.0000      1962.0000              0              0              0              0              0            100              0           0.00        -2.0000
          11048       822.9500     53132.0000     20907.0000     10140.0000       980.0000      1962.0000              0              0              0              0              0            100              0           0.00        -2.0000
          11049       863.8500     53132.0000     20907.0000     10140.0000       980.0000      1962.0000              0              0              0              0              0            100              0           0.00        -2.0000
          11050       893.8000     53132.0000     20907.0000     10140.0000       980.0000      1962.0000              0              0              0              0              0            100              0           0.00        -2.0000
          11051       932.8500     53132.0000     20907.0000     10140.0000       980.0000      1962.0000              0              0              0              0              0            100              0           0.00        -2.0000
          11052       969.5000     53132.0000     20907.0000     10140.0000       980.0000      1962.0000              0              0              0              0              0            100              0           0.00        -2.0000
          11053      1015.8750     53132.0000     20907.0000     10140.0000       980.0000      1962.0000              0              0              0              0              0            100              0           0.00        -2.0000
          11054      1060.4500     53132.0000     20907.0000     10140.0000       980.0000      1962.0000              0              0              0              0              0            100              0           0.00        -2.0000
          11055      1102.5500     53132.0000     20907.0000     10140.0000       980.0000      1962.0000              0              0              0              0              0            100              0           0.00        -2.0000
          11056      1158.1250     53132.0000     20907.0000     10140.0000       980.0000      1962.0000              0              0              0              0              0            100              0           0.00        -2.0000
          11057      1205.7500     53132.0000     20907.0000     10140.0000       980.0000      1962.0000              0              0              0              0              0            100              0           0.00        -2.0000
          11058      1236.9000     53132.0000     20907.0000     10140.0000       980.0000      1962.0000              0              0              0              0              0            100              0           0.00        -2.0000
          11059      1258.8500     53132.0000     20907.0000     10140.0000       980.0000      1962.0000              0              0              0              0              0            100              0           0.00        -2.0000
          11060      1283.2500     53132.0000     20907.0000     10140.0000       980.0000      1962.0000              0              0              0              0              0            100              0           0.00        -2.0000
          11061      1306.4500     53132.0000     20907.0000     10140.0000       980.0000      1962.0000              0              0              0              0              0            100              0           0.00        -2.0000
          11062      1322.3500     53132.0000     20907.0000     10140.0000       980.0000      1962.0000              0              0              0              0              0            100              0           0.00        -2.0000
          11063      1326.0000     59568.0000     39670.0000     24358.0000      2984.0000      5815.0000              0              0              0              0              0            100              0           0.00        -2.0000
          11064      1341.9000     59568.0000     39670.0000     24358.0000      2984.0000      5815.0000              0              0              0              0              0            100              0           0.00        -2.0000
          11065      1355.3000     59568.0000     39670.0000     24358.0000      2984.0000      5815.0000              0              0              0              0              0            100              0           0.00        -2.0000
          11066      1374.8500     59568.0000     39670.0000     24358.0000      2984.0000      5815.0000              0              0              0              0              0            100              0           0.00        -2.0000
          11067      1386.4500     59568.0000     39670.0000     24358.0000      2984.0000      5815.0000              0              0              0              0              0            100              0           0.00        -2.0000
          11068      1397.4500     59568.0000     39670.0000     24358.0000      2984.0000      5815.0000              0              0              0              0              0            100              0           0.00        -2.0000
          11069      1404.1500     59568.0000     39670.0000     24358.0000      2984.0000      5815.0000              0              0              0              0              0            100              0           0.00        -2.0000
          11070      1404.1500     59568.0000     39670.0000     24358.0000      2984.0000      5815.0000              0              0              0              0              0            100              0           0.00        -2.0000
          11071      1396.2250     59568.0000     39670.0000     24358.0000      2984.0000      5815.0000              0              0              0              0              0            100              0           0.00        -2.0000
          11072      1371.2000     59568.0000     39670.0000     24358.0000      2984.0000      5815.0000              0              0              0              0              0            100              0           0.00        -2.0000
          11073      1347.3750     59568.0000     39670.0000     24358.0000      2984.0000      5815.0000              0              0              0              0              0            100              0           0.00        -2.0000
          11074      1324.1750     59568.0000     39670.0000     24358.0000      2984.0000      5815.0000              0              0              0              0              0            100              0           0.00        -2.0000
          11075      1306.4500     59568.0000     39670.0000     24358.0000      2984.0000      5815.0000              0              0              0              0              0            100              0           0.00        -2.0000
