#___________________________________________________________________________
~VERSION INFORMATION
 VERS.                                 2.0 : CWLS LOG ASCII STANDARD - VERSION 2.0
 WRAP.                                  NO : ONE LINE PER DEPTH STEP
#___________________________________________________________________________
~WELL INFORMATION
 STRT.F                           10192.00 : START DEPTH
 STOP.F                           12327.00 : STOP DEPTH
 STEP.F                                  1 : STEP VALUE
 NULL.                             -999.25 : NULL VALUE
 COMP.      Magnolia Oil & Gas             : COMPANY
 WELL.      Fat Tire B 1H                  : WELL
  FLD.      Giddings                       : FIELD
  LOC.      Fayette County                 : LOCATION
 CNTY.      Fayette County                 : PARISH/COUNTY
 STAT.      Texas                          : STATE
 CTRY.      USA                            : COUNTRY
" SRVC.      PetroLog International, Inc.   : SERVICE COMPANY"
 DATE.      12/28/2020                     : LOG DATE
  API.      42-149-33514                   : API REFERENCE NUMBER
#___________________________________________________________________________
~CURVE INFORMATION
#MNEM.UNITS                                : DESCRIPTION
DEPTH.F                                    :  1 DEPTH
 TGAS.Units                                :  2 Chromatograph_TotalGas
 MTHX.PPM                                  :  3 Chromatograph_MethanePPMMax
 ETHX.PPM                                  :  4 Chromatograph_EthanePPMMax
 PRPX.PPM                                  :  5 Chromatograph_PropanePPMMax
 IBTX.PPM                                  :  6 Chromatograph_IButanePPMMax
 NBTX.PPM                                  :  7 Chromatograph_NButanePPMMax
CEMNT.%                                    :  8 Lithology_Cement
SHALE.%                                    :  9 Lithology_Shale
SILTST.%                                   : 10 Lithology_Siltstone
 SAND.%                                    : 11 Lithology_Sand
 LIME.%                                    : 12 Lithology_Lime
 CHLK.%                                    : 13 Lithology_Chalk
  ASH.%                                    : 14 Lithology_Ash
 FRAC.%                                    : 15 Fracture
Kick/Loss.----                             : 16 Kick/Loss
#___________________________________________________________________________
~A        DEPTH           TGAS           MTHX           ETHX           PRPX           IBTX           NBTX          CEMNT          SHALE         SILTST           SAND           LIME           CHLK            ASH           FRAC      Kick/Loss
# ...
          10600       421.2500     43374.0000      5802.0000      1960.0000        97.0000       422.0000              0              0              0              0              0            100              0           0.00         0.0000
          10601       424.9000     43374.0000      5802.0000      1960.0000        97.0000       422.0000              0              0              0              0              0            100              0           0.00         0.0000
          10602       426.1500     43374.0000      5802.0000      1960.0000        97.0000       422.0000              0              0              0              0              0            100              0           0.00         0.0000
          10603       423.7000     43374.0000      5802.0000      1960.0000        97.0000       422.0000              0              0              0              0              0            100              0           0.00         0.0000
          10604       421.2500     43374.0000      5802.0000      1960.0000        97.0000       422.0000              0              0              0              0              0            100              0           0.00         0.0000
          10605       421.2500     43374.0000      5802.0000      1960.0000        97.0000       422.0000              0              0              0              0              0            100              0           0.00         0.0000
          10606       419.4250     43374.0000      5802.0000      1960.0000        97.0000       422.0000              0              0              0              0              0            100              0           0.00         0.0000
          10607       417.6000     43374.0000      5802.0000      1960.0000        97.0000       422.0000              0              0              0              0              0            100              0           0.00         0.0000
          10608       418.8000     43374.0000      5802.0000      1960.0000        97.0000       422.0000              0              0              0              0              0            100              0           0.00         0.0000
          10609       421.2500     43374.0000      5802.0000      1960.0000        97.0000       422.0000              0              0              0              0              0            100              0           0.00         0.0000
          10610       416.9750     42183.0000      5462.0000      1842.0000         0.0000       378.0000              0              0              0              0              0            100              0           0.00         0.0000
          10611       411.5000     42183.0000      5462.0000      1842.0000         0.0000       378.0000              0              0              0              0              0            100              0           0.00         0.0000
          10612       405.3750     42183.0000      5462.0000      1842.0000         0.0000       378.0000              0              0              0              0              0            100              0           0.00         0.0000
          10613       409.0500     42183.0000      5462.0000      1842.0000         0.0000       378.0000              0              0              0              0              0            100              0           0.00         0.0000
          10614       411.5000     42183.0000      5462.0000      1842.0000         0.0000       378.0000              0              0              0              0              0            100              0           0.00         0.0000
          10615       415.1500     42183.0000      5462.0000      1842.0000         0.0000       378.0000              0              0              0              0              0            100              0           0.00         0.0000
          10616       416.3500     42183.0000      5462.0000      1842.0000         0.0000       378.0000              0              0              0              0              0            100              0           0.00         0.0000
          10617       416.3500     42183.0000      5462.0000      1842.0000         0.0000       378.0000              0              0              0              0              0            100              0           0.00         0.0000
          10618       694.7500     45496.0000     10150.0000      4374.0000       343.0000       901.0000              0              0              0              0              0            100              0           0.00         0.0000
          10619       423.7000     45496.0000     10150.0000      4374.0000       343.0000       901.0000              0              0              0              0              0            100              0           0.00         0.0000
          10620       423.7000     42854.0000      6114.0000      1886.0000        66.0000       330.0000              0              0              0              0              0            100              0           0.00         0.0000
          10621       424.9000     42854.0000      6114.0000      1886.0000        66.0000       330.0000              0              0              0              0              0            100              0           0.00         0.0000
          10622       418.2000     42854.0000      6114.0000      1886.0000        66.0000       330.0000              0              0              0              0              0            100              0           0.00         0.0000
          10623       419.4250     42854.0000      6114.0000      1886.0000        66.0000       330.0000              0              0              0              0              0            100              0           0.00         0.0000
          10624       418.8000     42822.0000      5646.0000      1736.0000        40.0000       295.0000              0              0              0              0              0            100              0           0.00         0.0000
          10625       410.2500     42822.0000      5646.0000      1736.0000        40.0000       295.0000              0              0              0              0              0            100              0           0.00         0.0000
          10626       404.1500     42822.0000      5646.0000      1736.0000        40.0000       295.0000              0              0              0              0              0            100              0           0.00         0.0000
          10627       413.3000     42822.0000      5646.0000      1736.0000        40.0000       295.0000              0              0              0              0              0            100              0           0.00         0.0000
          10628       413.9000     42822.0000      5646.0000      1736.0000        40.0000       295.0000              0              0              0              0              0            100              0           0.00         0.0000
          10629       413.9000     42822.0000      5646.0000      1736.0000        40.0000       295.0000              0              0              0              0              0            100              0           0.00         0.0000
          10630       420.0500     42822.0000      5646.0000      1736.0000        40.0000       295.0000              0              0              0              0              0            100              0           0.00         0.0000
          10631       429.8000     42822.0000      5646.0000      1736.0000        40.0000       295.0000              0              0              0              0              0            100              0           0.00         0.0000
          10632       429.8000     44795.0000      5748.0000      1844.0000        40.0000       334.0000              0              0              0              0              0            100              0           0.00         0.0000
          10633       424.3000     44795.0000      5748.0000      1844.0000         0.0000       334.0000              0              0              0              0              0            100              0           0.00         0.0000
