#___________________________________________________________________________
~VERSION INFORMATION
 VERS.                                 2.0 : CWLS LOG ASCII STANDARD - VERSION 2.0
 WRAP.                                  NO : ONE LINE PER DEPTH STEP
#___________________________________________________________________________
~WELL INFORMATION
 STRT.F                            9700.00 : START DEPTH
 STOP.F                           17167.00 : STOP DEPTH
 STEP.F                                  1 : STEP VALUE
 NULL.                             -999.25 : NULL VALUE
 COMP.      Magnolia Oil & Gas             : COMPANY
 WELL.      Fat Tire A 1H                  : WELL
  FLD.      Giddings                       : FIELD
  LOC.      Fayette County                 : LOCATION
 CNTY.      Fayette County                 : PARISH/COUNTY
 STAT.      Texas                          : STATE
 CTRY.      USA                            : COUNTRY
" SRVC.      PetroLog International, Inc.   : SERVICE COMPANY"
 DATE.      12/18/2020                     : LOG DATE
  API.      42-149-33515                   : API REFERENCE NUMBER
#___________________________________________________________________________
~CURVE INFORMATION
#MNEM.UNITS                                : DESCRIPTION
DEPTH.F                                    :  1 DEPTH
 TGAS.Units                                :  2 Chromatograph_TotalGas
 MTHX.PPM                                  :  3 Chromatograph_MethanePPMMax
 ETHX.PPM                                  :  4 Chromatograph_EthanePPMMax
 PRPX.PPM                                  :  5 Chromatograph_PropanePPMMax
 IBTX.PPM                                  :  6 Chromatograph_IButanePPMMax
 NBTX.PPM                                  :  7 Chromatograph_NButanePPMMax
CEMNT.%                                    :  8 Lithology_Cement
SHALE.%                                    :  9 Lithology_Shale
SILTST.%                                   : 10 Lithology_Siltstone
 SAND.%                                    : 11 Lithology_Sand
 LIME.%                                    : 12 Lithology_Lime
 CHLK.%                                    : 13 Lithology_Chalk
  ASH.%                                    : 14 Lithology_Ash
 FRAC.%                                    : 15 Fracture
Kick/Loss.----                             : 16 Kick/Loss
#___________________________________________________________________________
~A        DEPTH           TGAS           MTHX           ETHX           PRPX           IBTX           NBTX          CEMNT          SHALE         SILTST           SAND           LIME           CHLK            ASH           FRAC      Kick/Loss
# ...
          12692      1394.3750    154395.0000     32510.0000     10859.0000       998.0000      2506.0000              0              0              0              0              0             95              5           0.00         0.0000
          12693      1390.7000    154395.0000     32510.0000     10859.0000       998.0000      2506.0000              0              0              0              0              0             95              5           0.00         0.0000
          12694      1387.6750    154395.0000     32510.0000     10859.0000       998.0000      2506.0000              0              0              0              0              0             95              5           0.00         0.0000
          12695      1388.3000    154395.0000     32510.0000     10859.0000       998.0000      2506.0000              0              0              0              0              0             95              5           0.00         0.0000
          12696      1481.1000    164150.0000     33115.0000     11092.0000      1048.0000      2551.0000              0              0              0              0              0             95              5           0.00         0.0000
          12697      1517.7250    164150.0000     33115.0000     11092.0000      1048.0000      2551.0000              0              0              0              0              0             95              5           0.00         0.0000
          12698      1771.7000    164150.0000     33115.0000     11092.0000      1048.0000      2551.0000              0              0              0              0              0             95              5           0.00         0.0000
          12699      1752.7500    164150.0000     33115.0000     11092.0000      1048.0000      2551.0000              0              0              0              0              0             95              5           0.00         0.0000
          12700      1776.5500    164150.0000     33115.0000     11092.0000      1048.0000      2551.0000              0              0              0              0              0             95              5           0.00         0.0000
          12701      1792.4500    164150.0000     33115.0000     11092.0000      1048.0000      2551.0000              0              0              0              0              0            100              0           0.00         0.0000
          12702      1800.3750    164150.0000     33115.0000     11092.0000      1048.0000      2551.0000              0              0              0              0              0            100              0           0.00         0.0000
          12703      1804.6250    172140.0000     52412.0000     19661.0000      2067.0000      4557.0000              0              0              0              0              0            100              0           0.00         0.0000
          12704      1815.6500    172140.0000     52412.0000     19661.0000      2067.0000      4557.0000              0              0              0              0              0            100              0           0.00         0.0000
          12705      1837.6000    172140.0000     52412.0000     19661.0000      2067.0000      4557.0000              0              0              0              0              0            100              0           0.00         0.0000
          12706      1852.2750    172140.0000     52412.0000     19661.0000      2067.0000      4557.0000              0              0              0              0              0            100              0           0.00         0.0000
          12707      1888.9000    172140.0000     52412.0000     19661.0000      2067.0000      4557.0000              0              0              0              0              0            100              0           0.00         0.0000
          12708      1571.4500    154610.0000     41163.0000     14890.0000      1432.0000      3338.0000              0              0              0              0              0            100              0           0.00         0.0000
          12709      1517.7000    154610.0000     41163.0000     14890.0000      1432.0000      3338.0000              0              0              0              0              0            100              0           0.00         0.0000
          12710      1503.6750    157385.0000     41163.0000     14890.0000      1432.0000      3338.0000              0              0              0              0              0            100              0           0.00         0.0000
          12711      1483.5000    157385.0000     36639.0000     12082.0000      1118.0000      2739.0000              0              0              0              0              0            100              0           0.00         0.0000
          12712      1481.7000    157385.0000     36639.0000     12082.0000      1118.0000      2739.0000              0              0              0              0              0            100              0           0.00         0.0000
          12713      1488.4000    167857.0000     36639.0000     12082.0000      1118.0000      2739.0000              0              0              0              0              0            100              0           0.00         0.0000
          12714      1410.2500    167857.0000     35742.0000     11690.0000      1094.0000      2678.0000              0              0              0              0              0            100              0           0.00         0.0000
          12715       580.0000    167857.0000     35742.0000     11690.0000      1094.0000      2678.0000              0              0              0              0              0            100              0           0.00         0.0000
          12716       575.1000    167857.0000     35742.0000     11690.0000      1094.0000      2678.0000              0              0              0              0              0            100              0           0.00         0.0000
          12717      1208.8000    167857.0000     35742.0000     11690.0000      1094.0000      2678.0000              0              0              0              0              0            100              0           0.00         0.0000
          12718      1485.3500     72490.0000     19913.0000      7790.0000       691.0000      1744.0000              0              0              0              0              0            100              0           0.00         0.0000
          12719      1503.0500     72490.0000     19913.0000      7790.0000       691.0000      1744.0000              0              0              0              0              0            100              0           0.00         0.0000
          12720      1504.3000     72490.0000     19913.0000      7790.0000       691.0000      1744.0000              0              0              0              0              0            100              0           0.00         0.0000
          12721      1493.3000    157166.0000     33911.0000     11574.0000      1095.0000      2691.0000              0              0              0              0              0            100              0           0.00         0.0000
          12722      1484.7500    157166.0000     33911.0000     11574.0000      1095.0000      2691.0000              0              0              0              0              0            100              0           0.00         0.0000
          12723      1503.0500    157166.0000     33911.0000     11574.0000      1095.0000      2691.0000              0              0              0              0              0            100              0           0.00         0.0000
          12724      1505.5000    157166.0000     33911.0000     11574.0000      1095.0000      2691.0000              0              0              0              0              0            100              0           0.00         0.0000
          12725      1490.8500    157166.0000     34369.0000     12195.0000      1188.0000      2852.0000              0              0              0              0              0            100              0           0.00         0.0000
