#___________________________________________________________________________
~VERSION INFORMATION
 VERS.                                 2.0 : CWLS LOG ASCII STANDARD - VERSION 2.0
 WRAP.                                  NO : ONE LINE PER DEPTH STEP
#___________________________________________________________________________
~WELL INFORMATION
 STRT.F                            9700.00 : START DEPTH
 STOP.F                           17167.00 : STOP DEPTH
 STEP.F                                  1 : STEP VALUE
 NULL.                             -999.25 : NULL VALUE
 COMP.      Magnolia Oil & Gas             : COMPANY
 WELL.      Fat Tire A 1H                  : WELL
  FLD.      Giddings                       : FIELD
  LOC.      Fayette County                 : LOCATION
 CNTY.      Fayette County                 : PARISH/COUNTY
 STAT.      Texas                          : STATE
 CTRY.      USA                            : COUNTRY
" SRVC.      PetroLog International, Inc.   : SERVICE COMPANY"
 DATE.      12/18/2020                     : LOG DATE
  API.      42-149-33515                   : API REFERENCE NUMBER
#___________________________________________________________________________
~CURVE INFORMATION
#MNEM.UNITS                                : DESCRIPTION
DEPTH.F                                    :  1 DEPTH
 TGAS.Units                                :  2 Chromatograph_TotalGas
 MTHX.PPM                                  :  3 Chromatograph_MethanePPMMax
 ETHX.PPM                                  :  4 Chromatograph_EthanePPMMax
 PRPX.PPM                                  :  5 Chromatograph_PropanePPMMax
 IBTX.PPM                                  :  6 Chromatograph_IButanePPMMax
 NBTX.PPM                                  :  7 Chromatograph_NButanePPMMax
CEMNT.%                                    :  8 Lithology_Cement
SHALE.%                                    :  9 Lithology_Shale
SILTST.%                                   : 10 Lithology_Siltstone
 SAND.%                                    : 11 Lithology_Sand
 LIME.%                                    : 12 Lithology_Lime
 CHLK.%                                    : 13 Lithology_Chalk
  ASH.%                                    : 14 Lithology_Ash
 FRAC.%                                    : 15 Fracture
Kick/Loss.----                             : 16 Kick/Loss
#___________________________________________________________________________
~A        DEPTH           TGAS           MTHX           ETHX           PRPX           IBTX           NBTX          CEMNT          SHALE         SILTST           SAND           LIME           CHLK            ASH           FRAC      Kick/Loss
# ...
          12182      1418.8000    151581.0000     31178.0000      9738.0000       802.0000      1985.0000              0              0              0              0              0             90             10           0.00         0.0000
          12183      1413.9000    151581.0000     31178.0000      9738.0000       802.0000      1985.0000              0              0              0              0              0             90             10           0.00         0.0000
          12184      1402.9500    151581.0000     31178.0000      9738.0000       802.0000      1985.0000              0              0              0              0              0             90             10           0.00         0.0000
          12185      1399.8750    151581.0000     31178.0000      9738.0000       802.0000      1985.0000              0              0              0              0              0             90             10           0.00         0.0000
          12186      1400.5000    151581.0000     31178.0000      9738.0000       802.0000      1985.0000              0              0              0              0              0             90             10           0.00         0.0000
          12187      1398.0500    151581.0000     31178.0000      9738.0000       802.0000      1985.0000              0              0              0              0              0             90             10           0.00         0.0000
          12188      1394.4000    151581.0000     31178.0000      9738.0000       802.0000      1985.0000              0              0              0              0              0             90             10           0.00         0.0000
          12189      1390.7000    151581.0000     31178.0000      9738.0000       802.0000      1985.0000              0              0              0              0              0             90             10           0.00         0.0000
          12190      1387.0500    151581.0000     31178.0000      9738.0000       802.0000      1985.0000              0              0              0              0              0             90             10           0.00         0.0000
          12191      1384.6000    151581.0000     31178.0000      9738.0000       802.0000      1985.0000              0              0              0              0              0             90             10           0.00         0.0000
          12192      1388.3000    151581.0000     31178.0000      9738.0000       802.0000      1985.0000              0              0              0              0              0             90             10           0.00         0.0000
          12193      1395.6000    151581.0000     31178.0000      9738.0000       802.0000      1985.0000              0              0              0              0              0             90             10           0.00         0.0000
          12194      1402.9500    151581.0000     31178.0000      9738.0000       802.0000      1985.0000              0              0              0              0              0             90             10           0.00         0.0000
          12195      1410.2500    151581.0000     31178.0000      9738.0000       802.0000      1985.0000              0              0              0              0              0             90             10           0.00         0.0000
          12196      1415.1500    151581.0000     31178.0000      9738.0000       802.0000      1985.0000              0              0              0              0              0             90             10           0.00         0.0000
          12197      1417.6000    165722.0000     31178.0000      9738.0000       802.0000      1985.0000              0              0              0              0              0             90             10           0.00         0.0000
          12198      1419.4250    165722.0000     30544.0000      9325.0000       745.0000      1828.0000              0              0              0              0              0             90             10           0.00         0.0000
          12199      1422.4500    165722.0000     30544.0000      9325.0000       745.0000      1828.0000              0              0              0              0              0             90             10           0.00         0.0000
          12200      1424.9000    165722.0000     30544.0000      9325.0000       745.0000      1828.0000              0              0              0              0              0             90             10           0.00         0.0000
          12201      1426.1500    165722.0000     30544.0000      9325.0000       745.0000      1828.0000              0              0              0              0              0             95              5           0.00         0.0000
          12202      1433.4750    165722.0000     30544.0000      9325.0000       745.0000      1828.0000              0              0              0              0              0             95              5           0.00         0.0000
          12203      1441.4000    165722.0000     30544.0000      9325.0000       745.0000      1828.0000              0              0              0              0              0             95              5           0.00         0.0000
          12204      1451.1500    165722.0000     30544.0000      9325.0000       745.0000      1828.0000              0              0              0              0              0             95              5           0.00         0.0000
          12205      1450.5500    165722.0000     30544.0000      9325.0000       745.0000      1828.0000              0              0              0              0              0             95              5           0.00         0.0000
          12206      1445.6500    165722.0000     30544.0000      9325.0000       745.0000      1828.0000              0              0              0              0              0             95              5           0.00         0.0000
          12207      1438.9500    165722.0000     30544.0000      9325.0000       745.0000      1828.0000              0              0              0              0              0             95              5           0.00         0.0000
          12208      1437.1000    165722.0000     30544.0000      9325.0000       745.0000      1828.0000              0              0              0              0              0             95              5           0.00         0.0000
          12209      1421.8500    165722.0000     30544.0000      9325.0000       745.0000      1828.0000              0              0              0              0              0             95              5           0.00         0.0000
          12210      1412.7000    165722.0000     30544.0000      9325.0000       745.0000      1828.0000              0              0              0              0              0             95              5           0.00         0.0000
          12211      1402.9500    165722.0000     30544.0000      9325.0000       745.0000      1828.0000              0              0              0              0              0             95              5           0.00         0.0000
          12212      1391.9500    165722.0000     30544.0000      9325.0000       745.0000      1828.0000              0              0              0              0              0             95              5           0.00         0.0000
          12213      1385.2250    165722.0000     30544.0000      9325.0000       745.0000      1828.0000              0              0              0              0              0             95              5           0.00         0.0000
          12214      1383.4000    165722.0000     30544.0000      9325.0000       745.0000      1828.0000              0              0              0              0              0             95              5           0.00         0.0000
          12215      1373.6500    165722.0000     30544.0000      9325.0000       745.0000      1828.0000              0              0              0              0              0             95              5           0.00         0.0000
