#___________________________________________________________________________
~VERSION INFORMATION
 VERS.                                 2.0 : CWLS LOG ASCII STANDARD - VERSION 2.0
 WRAP.                                  NO : ONE LINE PER DEPTH STEP
#___________________________________________________________________________
~WELL INFORMATION
 STRT.F                            9700.00 : START DEPTH
 STOP.F                           17167.00 : STOP DEPTH
 STEP.F                                  1 : STEP VALUE
 NULL.                             -999.25 : NULL VALUE
 COMP.      Magnolia Oil & Gas             : COMPANY
 WELL.      Fat Tire A 1H                  : WELL
  FLD.      Giddings                       : FIELD
  LOC.      Fayette County                 : LOCATION
 CNTY.      Fayette County                 : PARISH/COUNTY
 STAT.      Texas                          : STATE
 CTRY.      USA                            : COUNTRY
" SRVC.      PetroLog International, Inc.   : SERVICE COMPANY"
 DATE.      12/18/2020                     : LOG DATE
  API.      42-149-33515                   : API REFERENCE NUMBER
#___________________________________________________________________________
~CURVE INFORMATION
#MNEM.UNITS                                : DESCRIPTION
DEPTH.F                                    :  1 DEPTH
 TGAS.Units                                :  2 Chromatograph_TotalGas
 MTHX.PPM                                  :  3 Chromatograph_MethanePPMMax
 ETHX.PPM                                  :  4 Chromatograph_EthanePPMMax
 PRPX.PPM                                  :  5 Chromatograph_PropanePPMMax
 IBTX.PPM                                  :  6 Chromatograph_IButanePPMMax
 NBTX.PPM                                  :  7 Chromatograph_NButanePPMMax
CEMNT.%                                    :  8 Lithology_Cement
SHALE.%                                    :  9 Lithology_Shale
SILTST.%                                   : 10 Lithology_Siltstone
 SAND.%                                    : 11 Lithology_Sand
 LIME.%                                    : 12 Lithology_Lime
 CHLK.%                                    : 13 Lithology_Chalk
  ASH.%                                    : 14 Lithology_Ash
 FRAC.%                                    : 15 Fracture
Kick/Loss.----                             : 16 Kick/Loss
#___________________________________________________________________________
~A        DEPTH           TGAS           MTHX           ETHX           PRPX           IBTX           NBTX          CEMNT          SHALE         SILTST           SAND           LIME           CHLK            ASH           FRAC      Kick/Loss
# ...
          14664      1974.9750    158440.0000     59555.0000     23946.0000      2972.0000      7824.0000              0              0              0              0              0            100              0           0.00        -1.0000
          14665      1969.5000    158440.0000     59555.0000     23946.0000      2972.0000      7824.0000              0              0              0              0              0            100              0           0.00        -1.0000
          14666      1965.8000    158440.0000     59555.0000     23946.0000      2972.0000      7824.0000              0              0              0              0              0            100              0           0.00        -1.0000
          14667      1965.8000    158440.0000     59555.0000     23946.0000      2972.0000      7824.0000              0              0              0              0              0            100              0           0.00        -1.0000
          14668      1967.0500    158440.0000     59555.0000     23946.0000      2972.0000      7824.0000              0              0              0              0              0            100              0           0.00        -1.0000
          14669      1956.6750    158440.0000     59555.0000     23946.0000      2972.0000      7824.0000              0              0              0              0              0            100              0           0.00        -1.0000
          14670      1958.4750    158440.0000     59555.0000     23946.0000      2972.0000      7824.0000              0              0              0              0              0            100              0           0.00        -1.0000
          14671      1963.9750    158440.0000     59555.0000     23946.0000      2972.0000      7824.0000              0              0              0              0              0            100              0           0.00        -1.0000
          14672      1967.0500    151463.0000     55179.0000     22756.0000      2849.0000      7708.0000              0              0              0              0              0            100              0           0.00        -1.0000
          14673      1982.9250    151463.0000     55179.0000     22756.0000      2849.0000      7708.0000              0              0              0              0              0            100              0           0.00        -1.0000
          14674      1989.0000    151463.0000     55179.0000     22756.0000      2849.0000      7708.0000              0              0              0              0              0            100              0           0.00        -1.0000
          14675      1998.7750    151463.0000     55179.0000     22756.0000      2849.0000      7708.0000              0              0              0              0              0            100              0           0.00        -1.0000
          14676      2001.2000    151463.0000     55179.0000     22756.0000      2849.0000      7708.0000              0              0              0              0              0            100              0           0.00        -1.0000
          14677      2000.6000    151463.0000     55179.0000     22756.0000      2849.0000      7708.0000              0              0              0              0              0            100              0           0.00        -1.0000
          14678      2001.2000    151463.0000     55179.0000     22756.0000      2849.0000      7708.0000              0              0              0              0              0            100              0           0.00        -1.0000
          14679      1998.8000    151463.0000     55179.0000     22756.0000      2849.0000      7708.0000              0              0              0              0              0            100              0           0.00        -1.0000
          14680      2006.1000    151463.0000     55179.0000     22756.0000      2849.0000      7708.0000              0              0              0              0              0            100              0           0.00        -1.0000
          14681      2011.0000    151463.0000     55179.0000     22756.0000      2849.0000      7708.0000              0              0              0              0              0            100              0           0.00        -1.0000
          14682      2011.0000    151463.0000     55179.0000     22756.0000      2849.0000      7708.0000              0              0              0              0              0            100              0           0.00        -1.0000
          14683      2015.9000    151463.0000     55179.0000     22756.0000      2849.0000      7708.0000              0              0              0              0              0            100              0           0.00        -1.0000
          14684      2094.6250    151463.0000     55179.0000     22756.0000      2849.0000      7708.0000              0              0              0              0              0            100              0           0.00        -1.0000
          14685      1468.8750    151463.0000     55179.0000     22756.0000      2849.0000      7708.0000              0              0              0              0              0            100              0           0.00        -1.0000
          14686      1687.4500     63015.0000     30427.0000     17196.0000      2442.0000      7310.0000              0              0              0              0              0            100              0           0.00        -1.0000
          14687      1757.0000     63015.0000     30427.0000     17196.0000      2442.0000      7310.0000              0              0              0              0              0            100              0           0.00        -1.0000
          14688      1802.2000     63015.0000     30427.0000     17196.0000      2442.0000      7310.0000              0              0              0              0              0            100              0           0.00        -1.0000
          14689      1868.7500     63015.0000     30427.0000     17196.0000      2442.0000      7310.0000              0              0              0              0              0            100              0           0.00        -1.0000
          14690      1927.9500     63015.0000     30427.0000     17196.0000      2442.0000      7310.0000              0              0              0              0              0            100              0           0.00        -1.0000
          14691      1966.4250     63015.0000     30427.0000     17196.0000      2442.0000      7310.0000              0              0              0              0              0            100              0           0.00        -1.0000
          14692      2011.0000     63015.0000     30427.0000     17196.0000      2442.0000      7310.0000              0              0              0              0              0            100              0           0.00        -1.0000
          14693      2041.5000     63015.0000     30427.0000     17196.0000      2442.0000      7310.0000              0              0              0              0              0            100              0           0.00        -1.0000
          14694      2113.5500     63015.0000     30427.0000     17196.0000      2442.0000      7310.0000              0              0              0              0              0            100              0           0.00        -1.0000
          14695      2233.2000     63015.0000     30427.0000     17196.0000      2442.0000      7310.0000              0              0              0              0              0            100              0           0.00        -1.0000
          14696      2322.3500     63015.0000     30427.0000     17196.0000      2442.0000      7310.0000              0              0              0              0              0            100              0           0.00        -1.0000
          14697      2409.0250     63015.0000     30427.0000     17196.0000      2442.0000      7310.0000              0              0              0              0              0            100              0           0.00        -1.0000
