#___________________________________________________________________________
~VERSION INFORMATION
 VERS.                                 2.0 : CWLS LOG ASCII STANDARD - VERSION 2.0
 WRAP.                                  NO : ONE LINE PER DEPTH STEP
#___________________________________________________________________________
~WELL INFORMATION
 STRT.F                           10192.00 : START DEPTH
 STOP.F                           12327.00 : STOP DEPTH
 STEP.F                                  1 : STEP VALUE
 NULL.                             -999.25 : NULL VALUE
 COMP.      Magnolia Oil & Gas             : COMPANY
 WELL.      Fat Tire B 1H                  : WELL
  FLD.      Giddings                       : FIELD
  LOC.      Fayette County                 : LOCATION
 CNTY.      Fayette County                 : PARISH/COUNTY
 STAT.      Texas                          : STATE
 CTRY.      USA                            : COUNTRY
" SRVC.      PetroLog International, Inc.   : SERVICE COMPANY"
 DATE.      12/28/2020                     : LOG DATE
  API.      42-149-33514                   : API REFERENCE NUMBER
#___________________________________________________________________________
~CURVE INFORMATION
#MNEM.UNITS                                : DESCRIPTION
DEPTH.F                                    :  1 DEPTH
 TGAS.Units                                :  2 Chromatograph_TotalGas
 MTHX.PPM                                  :  3 Chromatograph_MethanePPMMax
 ETHX.PPM                                  :  4 Chromatograph_EthanePPMMax
 PRPX.PPM                                  :  5 Chromatograph_PropanePPMMax
 IBTX.PPM                                  :  6 Chromatograph_IButanePPMMax
 NBTX.PPM                                  :  7 Chromatograph_NButanePPMMax
CEMNT.%                                    :  8 Lithology_Cement
SHALE.%                                    :  9 Lithology_Shale
SILTST.%                                   : 10 Lithology_Siltstone
 SAND.%                                    : 11 Lithology_Sand
 LIME.%                                    : 12 Lithology_Lime
 CHLK.%                                    : 13 Lithology_Chalk
  ASH.%                                    : 14 Lithology_Ash
 FRAC.%                                    : 15 Fracture
Kick/Loss.----                             : 16 Kick/Loss
#___________________________________________________________________________
~A        DEPTH           TGAS           MTHX           ETHX           PRPX           IBTX           NBTX          CEMNT          SHALE         SILTST           SAND           LIME           CHLK            ASH           FRAC      Kick/Loss
# ...
          10906       594.6500     41439.0000     16578.0000      8482.0000       871.0000      1870.0000              0              0              0              0              0             85             15           0.00        -2.0000
          10907       483.5000     41439.0000     16578.0000      8482.0000       871.0000      1870.0000              0              0              0              0              0             85             15           0.00        -2.0000
          10908       377.3000     41439.0000     16578.0000      8482.0000       871.0000      1870.0000              0              0              0              0              0             85             15           0.00        -2.0000
          10909       272.2750     41439.0000     16578.0000      8482.0000       871.0000      1870.0000              0              0              0              0              0             85             15           0.00        -2.0000
          10910       216.1250     41439.0000     16578.0000      8482.0000       871.0000      1870.0000              0              0              0              0              0             85             15           0.00        -2.0000
          10911       171.5500     41439.0000     16578.0000      8482.0000       871.0000      1870.0000              0              0              0              0              0             85             15           0.00        -2.0000
          10912       149.5750     41439.0000     16578.0000      8482.0000       871.0000      1870.0000              0              0              0              0              0             85             15           0.00        -2.0000
          10913       133.1000     41439.0000     16578.0000      8482.0000       871.0000      1870.0000              0              0              0              0              0             85             15           0.00        -2.0000
          10914       124.5500     41439.0000     16578.0000      8482.0000       871.0000      1870.0000              0              0              0              0              0             85             15           0.00        -2.0000
          10915       116.6000     41439.0000     16578.0000      8482.0000       871.0000      1870.0000              0              0              0              0              0             85             15           0.00        -3.0000
          10916       112.3500       288.0000       347.0000       425.0000         0.0000       110.0000              0              0              0              0              0             85             15           0.00        -3.0000
          10917       108.6500       288.0000       347.0000       425.0000         0.0000       110.0000              0              0              0              0              0             85             15           0.00        -3.0000
          10918       106.2500       288.0000       347.0000       425.0000         0.0000       110.0000              0              0              0              0              0             85             15           0.00        -3.0000
          10919       103.8000       288.0000       347.0000       425.0000         0.0000       110.0000              0              0              0              0              0             85             15           0.00        -3.0000
          10920       102.5500       288.0000       347.0000       425.0000         0.0000       110.0000              0              0              0              0              0             85             15           0.00        -3.0000
          10921       101.3500       288.0000       347.0000       425.0000         0.0000       110.0000              0              0              0              0              0             85             15           0.00        -3.0000
          10922       100.1000       288.0000       347.0000       425.0000         0.0000       110.0000              0              0              0              0              0             85             15           0.00        -3.0000
          10923        98.9000       288.0000       347.0000       425.0000         0.0000       110.0000              0              0              0              0              0             85             15           0.00        -3.0000
          10924        98.9000       288.0000       347.0000       425.0000         0.0000       110.0000              0              0              0              0              0             85             15           0.00        -3.0000
          10925        96.4500       288.0000       347.0000       425.0000         0.0000       110.0000              0              0              0              0              0             85             15           0.00        -3.0000
          10926        96.4500       288.0000       347.0000       425.0000         0.0000       110.0000              0              0              0              0              0             85             15           0.00        -3.0000
          10927        95.2500       288.0000       347.0000       425.0000         0.0000       110.0000              0              0              0              0              0             85             15           0.00        -3.0000
          10928        94.0000       288.0000       347.0000       425.0000         0.0000       110.0000              0              0              0              0              0             85             15           0.00        -3.0000
          10929        92.8000       288.0000       347.0000       425.0000         0.0000       110.0000              0              0              0              0              0             85             15           0.00        -3.0000
          10930        91.6000       288.0000       347.0000       425.0000         0.0000       110.0000              0              0              0              0              0             85             15           0.00        -3.0000
          10931        90.3500       288.0000       347.0000       425.0000         0.0000       110.0000              0              0              0              0              0             85             15           0.00        -3.0000
          10932        90.3500       288.0000       347.0000       425.0000         0.0000       110.0000              0              0              0              0              0             85             15           0.00        -3.0000
          10933        92.8000       288.0000       347.0000       425.0000         0.0000       110.0000              0              0              0              0              0             85             15           0.00        -3.0000
          10934        90.3500         0.0000         0.0000         0.0000         0.0000         0.0000              0              0              0              0              0             85             15           0.00        -3.0000
          10935        89.1500         0.0000         0.0000         0.0000         0.0000         0.0000              0              0              0              0              0             85             15           0.00        -3.0000
          10936        87.9000         0.0000         0.0000         0.0000         0.0000         0.0000              0              0              0              0              0             85             15           0.00        -3.0000
          10937        86.7000         0.0000         0.0000         0.0000         0.0000         0.0000              0              0              0              0              0             85             15           0.00        -3.0000
          10938        86.7000         0.0000         0.0000         0.0000         0.0000         0.0000              0              0              0              0              0             85             15           0.00        -3.0000
          10939        89.1500         0.0000         0.0000         0.0000         0.0000         0.0000              0              0              0              0              0             85             15           0.00        -3.0000
