#___________________________________________________________________________
~VERSION INFORMATION
 VERS.                                 2.0 : CWLS LOG ASCII STANDARD - VERSION 2.0
 WRAP.                                  NO : ONE LINE PER DEPTH STEP
#___________________________________________________________________________
~WELL INFORMATION
 STRT.F                            9700.00 : START DEPTH
 STOP.F                           17167.00 : STOP DEPTH
 STEP.F                                  1 : STEP VALUE
 NULL.                             -999.25 : NULL VALUE
 COMP.      Magnolia Oil & Gas             : COMPANY
 WELL.      Fat Tire A 1H                  : WELL
  FLD.      Giddings                       : FIELD
  LOC.      Fayette County                 : LOCATION
 CNTY.      Fayette County                 : PARISH/COUNTY
 STAT.      Texas                          : STATE
 CTRY.      USA                            : COUNTRY
" SRVC.      PetroLog International, Inc.   : SERVICE COMPANY"
 DATE.      12/18/2020                     : LOG DATE
  API.      42-149-33515                   : API REFERENCE NUMBER
#___________________________________________________________________________
~CURVE INFORMATION
#MNEM.UNITS                                : DESCRIPTION
DEPTH.F                                    :  1 DEPTH
 TGAS.Units                                :  2 Chromatograph_TotalGas
 MTHX.PPM                                  :  3 Chromatograph_MethanePPMMax
 ETHX.PPM                                  :  4 Chromatograph_EthanePPMMax
 PRPX.PPM                                  :  5 Chromatograph_PropanePPMMax
 IBTX.PPM                                  :  6 Chromatograph_IButanePPMMax
 NBTX.PPM                                  :  7 Chromatograph_NButanePPMMax
CEMNT.%                                    :  8 Lithology_Cement
SHALE.%                                    :  9 Lithology_Shale
SILTST.%                                   : 10 Lithology_Siltstone
 SAND.%                                    : 11 Lithology_Sand
 LIME.%                                    : 12 Lithology_Lime
 CHLK.%                                    : 13 Lithology_Chalk
  ASH.%                                    : 14 Lithology_Ash
 FRAC.%                                    : 15 Fracture
Kick/Loss.----                             : 16 Kick/Loss
#___________________________________________________________________________
~A        DEPTH           TGAS           MTHX           ETHX           PRPX           IBTX           NBTX          CEMNT          SHALE         SILTST           SAND           LIME           CHLK            ASH           FRAC      Kick/Loss
# ...
          13168      3311.3500    154597.0000    114866.0000     81500.0000     11306.0000     28044.0000              0              0              0              0              0            100              0           2.00         0.0000
          13169      3255.2000    154597.0000    114866.0000     81500.0000     11306.0000     28044.0000              0              0              0              0              0            100              0           2.00         0.0000
          13170      3061.6500    154597.0000    114866.0000     81500.0000     11306.0000     28044.0000              0              0              0              0              0            100              0           2.00         0.0000
          13171      2907.2000    154597.0000    114866.0000     81500.0000     11306.0000     28044.0000              0              0              0              0              0            100              0           2.00         0.0000
          13172      2669.7000    154597.0000    114866.0000     81500.0000     11306.0000     28044.0000              0              0              0              0              0            100              0           2.00         0.0000
          13173      1288.1500     32415.0000     30587.0000     32926.0000      6177.0000     19018.0000              0              0              0              0              0            100              0           2.00         0.0000
          13174      1829.0500     32415.0000     30587.0000     32926.0000      6177.0000     19018.0000              0              0              0              0              0            100              0           2.00         0.0000
          13175      2468.8500     32415.0000     30587.0000     32926.0000      6177.0000     19018.0000              0              0              0              0              0            100              0           2.00         0.0000
          13176      2934.0500     32415.0000     30587.0000     32926.0000      6177.0000     19018.0000              0              0              0              0              0            100              0           2.00         0.0000
          13177      3172.1500     32415.0000     30587.0000     32926.0000      6177.0000     19018.0000              0              0              0              0              0            100              0           2.00         0.0000
          13178      3328.4500     32415.0000     30587.0000     32926.0000      6177.0000     19018.0000              0              0              0              0              0            100              0           2.00         0.0000
          13179      3359.0000     32415.0000     30587.0000     32926.0000      6177.0000     19018.0000              0              0              0              0              0            100              0           2.00         0.0000
          13180      3381.5750     32415.0000     30587.0000     32926.0000      6177.0000     19018.0000              0              0              0              0              0            100              0           2.00         0.0000
          13181      3379.1250     32415.0000     30587.0000     32926.0000      6177.0000     19018.0000              0              0              0              0              0            100              0           2.00         0.0000
          13182      3393.1500     32415.0000     30587.0000     32926.0000      6177.0000     19018.0000              0              0              0              0              0            100              0           2.00         0.0000
          13183      3444.4500    159232.0000    112991.0000     78927.0000     10962.0000     27965.0000              0              0              0              0              0            100              0           2.00         0.0000
          13184      3450.5500    159232.0000    114295.0000     80027.0000     11292.0000     28345.0000              0              0              0              0              0            100              0           2.00         0.0000
          13185      3445.6500    159232.0000    114295.0000     80027.0000     11292.0000     28345.0000              0              0              0              0              0            100              0           2.00         0.0000
          13186      3476.2000    159232.0000    114295.0000     80027.0000     11292.0000     28345.0000              0              0              0              0              0            100              0           2.00         0.0000
          13187      3475.5750    159232.0000    114295.0000     80027.0000     11292.0000     28345.0000              0              0              0              0              0            100              0           2.00         0.0000
          13188      3512.8000    159232.0000    114295.0000     80027.0000     11292.0000     28345.0000              0              0              0              0              0            100              0           2.00         0.0000
          13189      3477.4000    153889.0000    114510.0000     83699.0000     11747.0000     29413.0000              0              0              0              0              0            100              0           2.00         0.0000
          13190      3478.6500    169779.0000    120546.0000     83699.0000     11747.0000     29413.0000              0              0              0              0              0            100              0           2.00         0.0000
          13191      3366.3000    169779.0000    120546.0000     79164.0000     10518.0000     26671.0000              0              0              0              0              0            100              0           2.00         0.0000
          13192      3261.3000    169779.0000    120546.0000     79164.0000     10518.0000     26671.0000              0              0              0              0              0            100              0           2.00         0.0000
          13193      3260.1000    169779.0000    120546.0000     79164.0000     10518.0000     26671.0000              0              0              0              0              0            100              0           2.00         0.0000
          13194      3346.7500    150527.0000    112633.0000     76247.0000     10292.0000     25248.0000              0              0              0              0              0            100              0           2.00         0.0000
          13195      3271.0500    150527.0000    112633.0000     76247.0000     10292.0000     25248.0000              0              0              0              0              0            100              0           2.00         0.0000
          13196      3279.0000    150777.0000    112633.0000     77577.0000     10468.0000     25451.0000              0              0              0              0              0            100              0           2.00         0.0000
          13197      1371.1750    150777.0000    112419.0000     77577.0000     10468.0000     25451.0000              0              0              0              0              0            100              0           2.00         0.0000
          13198      2813.2000    150777.0000    112419.0000     77577.0000     10468.0000     25451.0000              0              0              0              0              0            100              0           2.00         0.0000
          13199       480.4750      6021.0000      6170.0000      7250.0000      1386.0000      6274.0000              0              0              0              0              0            100              0           2.00         0.0000
          13200      2871.1750      6021.0000      6170.0000      7250.0000      1386.0000      6274.0000              0              0              0              0              0            100              0           2.00         0.0000
          13201      3319.9000    153806.0000    110315.0000     75069.0000     10147.0000     23591.0000              0              0              0              0              0            100              0           0.00         0.0000
