#___________________________________________________________________________
~VERSION INFORMATION
 VERS.                                 2.0 : CWLS LOG ASCII STANDARD - VERSION 2.0
 WRAP.                                  NO : ONE LINE PER DEPTH STEP
#___________________________________________________________________________
~WELL INFORMATION
 STRT.F                           10192.00 : START DEPTH
 STOP.F                           12327.00 : STOP DEPTH
 STEP.F                                  1 : STEP VALUE
 NULL.                             -999.25 : NULL VALUE
 COMP.      Magnolia Oil & Gas             : COMPANY
 WELL.      Fat Tire B 1H                  : WELL
  FLD.      Giddings                       : FIELD
  LOC.      Fayette County                 : LOCATION
 CNTY.      Fayette County                 : PARISH/COUNTY
 STAT.      Texas                          : STATE
 CTRY.      USA                            : COUNTRY
" SRVC.      PetroLog International, Inc.   : SERVICE COMPANY"
 DATE.      12/28/2020                     : LOG DATE
  API.      42-149-33514                   : API REFERENCE NUMBER
#___________________________________________________________________________
~CURVE INFORMATION
#MNEM.UNITS                                : DESCRIPTION
DEPTH.F                                    :  1 DEPTH
 TGAS.Units                                :  2 Chromatograph_TotalGas
 MTHX.PPM                                  :  3 Chromatograph_MethanePPMMax
 ETHX.PPM                                  :  4 Chromatograph_EthanePPMMax
 PRPX.PPM                                  :  5 Chromatograph_PropanePPMMax
 IBTX.PPM                                  :  6 Chromatograph_IButanePPMMax
 NBTX.PPM                                  :  7 Chromatograph_NButanePPMMax
CEMNT.%                                    :  8 Lithology_Cement
SHALE.%                                    :  9 Lithology_Shale
SILTST.%                                   : 10 Lithology_Siltstone
 SAND.%                                    : 11 Lithology_Sand
 LIME.%                                    : 12 Lithology_Lime
 CHLK.%                                    : 13 Lithology_Chalk
  ASH.%                                    : 14 Lithology_Ash
 FRAC.%                                    : 15 Fracture
Kick/Loss.----                             : 16 Kick/Loss
#___________________________________________________________________________
~A        DEPTH           TGAS           MTHX           ETHX           PRPX           IBTX           NBTX          CEMNT          SHALE         SILTST           SAND           LIME           CHLK            ASH           FRAC      Kick/Loss
# ...
          10464       352.8500     23933.0000      3623.0000      1504.0000        44.0000       227.0000              0              0              0              0              0            100              0           0.00         0.0000
          10465       359.0000     23933.0000      3623.0000      1504.0000        44.0000       227.0000              0              0              0              0              0            100              0           0.00         0.0000
          10466       361.4000     23933.0000      3623.0000      1504.0000        44.0000       227.0000              0              0              0              0              0            100              0           0.00         0.0000
          10467       363.8500     23933.0000      3623.0000      1504.0000        44.0000       227.0000              0              0              0              0              0            100              0           0.00         0.0000
          10468       363.8500     23933.0000      3623.0000      1504.0000        44.0000       227.0000              0              0              0              0              0            100              0           0.00         0.0000
          10469       362.6500     23933.0000      3623.0000      1504.0000        44.0000       227.0000              0              0              0              0              0            100              0           0.00         0.0000
          10470       365.1000     23933.0000      3623.0000      1504.0000        44.0000       227.0000              0              0              0              0              0            100              0           0.00         0.0000
          10471       368.7500     23933.0000      3623.0000      1504.0000        44.0000       227.0000              0              0              0              0              0            100              0           0.00         0.0000
          10472       369.3500     23933.0000      3623.0000      1504.0000        44.0000       227.0000              0              0              0              0              0            100              0           0.00         0.0000
          10473       369.9500     23933.0000      3623.0000      1504.0000        44.0000       227.0000              0              0              0              0              0            100              0           0.00         0.0000
          10474       365.1000     23933.0000      3623.0000      1504.0000        44.0000       227.0000              0              0              0              0              0            100              0           0.00         0.0000
          10475       360.2000     23933.0000      3623.0000      1504.0000        44.0000       227.0000              0              0              0              0              0            100              0           0.00         0.0000
          10476       357.7500     23933.0000      3623.0000      1504.0000        44.0000       227.0000              0              0              0              0              0            100              0           0.00         0.0000
          10477       355.9250     23933.0000      3623.0000      1504.0000        44.0000       227.0000              0              0              0              0              0            100              0           0.00         0.0000
          10478       355.9250     23933.0000      3623.0000      1504.0000        44.0000       227.0000              0              0              0              0              0            100              0           0.00         0.0000
          10479       356.5500     23933.0000      3623.0000      1504.0000        44.0000       227.0000              0              0              0              0              0            100              0           0.00         0.0000
          10480       356.5500     23933.0000      3623.0000      1504.0000        44.0000       227.0000              0              0              0              0              0            100              0           0.00         0.0000
          10481       356.5500     23933.0000      3623.0000      1504.0000        44.0000       227.0000              0              0              0              0              0            100              0           0.00         0.0000
          10482       354.1000     32349.0000      4222.0000      1651.0000        62.0000       434.0000              0              0              0              0              0            100              0           0.00         0.0000
          10483       350.4500     32349.0000      4222.0000      1651.0000        62.0000       434.0000              0              0              0              0              0            100              0           0.00         0.0000
          10484       348.0000     32349.0000      4222.0000      1651.0000        62.0000       434.0000              0              0              0              0              0            100              0           0.00         0.0000
          10485       346.7500     32349.0000      4222.0000      1651.0000        62.0000       434.0000              0              0              0              0              0            100              0           0.00         0.0000
          10486       346.7500     32349.0000      4222.0000      1651.0000        62.0000       434.0000              0              0              0              0              0            100              0           0.00         0.0000
          10487       349.2000     32349.0000      4222.0000      1651.0000        62.0000       434.0000              0              0              0              0              0            100              0           0.00         0.0000
          10488       355.3000     33041.0000      4222.0000      1651.0000        99.0000       454.0000              0              0              0              0              0            100              0           0.00         0.0000
          10489       340.6500     31717.0000      3632.0000      1448.0000         0.0000       376.0000              0              0              0              0              0            100              0           0.00         0.0000
          10490       350.4500     31717.0000      3632.0000      1448.0000         0.0000       376.0000              0              0              0              0              0            100              0           0.00         0.0000
          10491       348.0000     31717.0000      3632.0000      1448.0000         0.0000       376.0000              0              0              0              0              0            100              0           0.00         0.0000
          10492       350.4500     31717.0000      3632.0000      1448.0000         0.0000       376.0000              0              0              0              0              0            100              0           0.00         0.0000
          10493       348.0000     31717.0000      3632.0000      1448.0000         0.0000       376.0000              0              0              0              0              0            100              0           0.00         0.0000
          10494       355.3000     33052.0000      3795.0000      1549.0000        89.0000       432.0000              0              0              0              0              0            100              0           0.00         0.0000
          10495       360.2000     33052.0000      3795.0000      1549.0000        89.0000       432.0000              0              0              0              0              0            100              0           0.00         0.0000
          10496       360.2000     33052.0000      3795.0000      1549.0000        89.0000       432.0000              0              0              0              0              0            100              0           0.00         0.0000
          10497       358.3750     33052.0000      3795.0000      1549.0000        89.0000       432.0000              0              0              0              0              0            100              0           0.00         0.0000
