#___________________________________________________________________________
~VERSION INFORMATION
 VERS.                                 2.0 : CWLS LOG ASCII STANDARD - VERSION 2.0
 WRAP.                                  NO : ONE LINE PER DEPTH STEP
#___________________________________________________________________________
~WELL INFORMATION
 STRT.F                            9700.00 : START DEPTH
 STOP.F                           17167.00 : STOP DEPTH
 STEP.F                                  1 : STEP VALUE
 NULL.                             -999.25 : NULL VALUE
 COMP.      Magnolia Oil & Gas             : COMPANY
 WELL.      Fat Tire A 1H                  : WELL
  FLD.      Giddings                       : FIELD
  LOC.      Fayette County                 : LOCATION
 CNTY.      Fayette County                 : PARISH/COUNTY
 STAT.      Texas                          : STATE
 CTRY.      USA                            : COUNTRY
" SRVC.      PetroLog International, Inc.   : SERVICE COMPANY"
 DATE.      12/18/2020                     : LOG DATE
  API.      42-149-33515                   : API REFERENCE NUMBER
#___________________________________________________________________________
~CURVE INFORMATION
#MNEM.UNITS                                : DESCRIPTION
DEPTH.F                                    :  1 DEPTH
 TGAS.Units                                :  2 Chromatograph_TotalGas
 MTHX.PPM                                  :  3 Chromatograph_MethanePPMMax
 ETHX.PPM                                  :  4 Chromatograph_EthanePPMMax
 PRPX.PPM                                  :  5 Chromatograph_PropanePPMMax
 IBTX.PPM                                  :  6 Chromatograph_IButanePPMMax
 NBTX.PPM                                  :  7 Chromatograph_NButanePPMMax
CEMNT.%                                    :  8 Lithology_Cement
SHALE.%                                    :  9 Lithology_Shale
SILTST.%                                   : 10 Lithology_Siltstone
 SAND.%                                    : 11 Lithology_Sand
 LIME.%                                    : 12 Lithology_Lime
 CHLK.%                                    : 13 Lithology_Chalk
  ASH.%                                    : 14 Lithology_Ash
 FRAC.%                                    : 15 Fracture
Kick/Loss.----                             : 16 Kick/Loss
#___________________________________________________________________________
~A        DEPTH           TGAS           MTHX           ETHX           PRPX           IBTX           NBTX          CEMNT          SHALE         SILTST           SAND           LIME           CHLK            ASH           FRAC      Kick/Loss
# ...
          11196       957.8750     23965.0000      7754.0000      3783.0000       447.0000      1145.0000              0              0              0              0              0            100              0           4.00        -1.0000
          11197       860.8000     23965.0000      7754.0000      3783.0000       447.0000      1145.0000              0              0              0              0              0            100              0           4.00        -1.0000
          11198       812.5750     84910.0000     16630.0000      5514.0000       447.0000      1285.0000              0              0              0              0              0            100              0           4.00        -1.0000
          11199       824.2000     84910.0000     16630.0000      5514.0000       287.0000      1285.0000              0              0              0              0              0            100              0           4.00        -1.0000
          11200       829.0500     84910.0000     16630.0000      5514.0000       287.0000      1285.0000              0              0              0              0              0            100              0           4.00        -1.0000
          11201       821.7500     84910.0000     16630.0000      5514.0000       287.0000      1285.0000              0              0              0              0              0            100              0           0.00        -1.0000
          11202       825.4000     84910.0000     16630.0000      5514.0000       287.0000      1285.0000              0              0              0              0              0            100              0           0.00        -1.0000
          11203       832.1250     84910.0000     16630.0000      5514.0000       287.0000      1285.0000              0              0              0              0              0            100              0           0.00        -1.0000
          11204       810.1500     84910.0000     16630.0000      5514.0000       287.0000      1285.0000              0              0              0              0              0            100              0           0.00        -1.0000
          11205       776.5750     84910.0000     16630.0000      5514.0000       287.0000      1285.0000              0              0              0              0              0            100              0           0.00        -1.0000
          11206       738.7000     84910.0000     16630.0000      5514.0000       287.0000      1285.0000              0              0              0              0              0            100              0           0.00        -1.0000
          11207       775.3500     84910.0000     16630.0000      5514.0000       371.0000      1285.0000              0              0              0              0              0            100              0           0.00        -1.0000
          11208       782.6500     82794.0000     14402.0000      4226.0000       371.0000       923.0000              0              0              0              0              0            100              0           0.00        -1.0000
          11209       788.7500     82794.0000     14402.0000      4226.0000       371.0000       923.0000              0              0              0              0              0            100              0           0.00        -1.0000
          11210       797.3000     82794.0000     14402.0000      4226.0000       371.0000       923.0000              0              0              0              0              0            100              0           0.00        -1.0000
          11211       801.6000     82794.0000     14402.0000      4226.0000       371.0000       923.0000              0              0              0              0              0            100              0           0.00        -1.0000
          11212       804.6500     82794.0000     14402.0000      4226.0000       371.0000       923.0000              0              0              0              0              0            100              0           0.00        -1.0000
          11213       805.8500     82794.0000     14402.0000      4226.0000       371.0000       923.0000              0              0              0              0              0            100              0           0.00        -1.0000
          11214       813.2000     82794.0000     14402.0000      4226.0000       371.0000       923.0000              0              0              0              0              0            100              0           0.00        -1.0000
          11215       816.8500     96246.0000     15208.0000      4270.0000       371.0000       923.0000              0              0              0              0              0            100              0           0.00        -1.0000
          11216       829.6750     96246.0000     15208.0000      4270.0000       194.0000       537.0000              0              0              0              0              0            100              0           0.00        -1.0000
          11217       841.2500     96246.0000     15208.0000      4270.0000       194.0000       537.0000              0              0              0              0              0            100              0           0.00        -1.0000
          11218       844.9500     96246.0000     15208.0000      4270.0000       194.0000       537.0000              0              0              0              0              0            100              0           0.00        -1.0000
          11219       846.1500     96246.0000     15208.0000      4270.0000       194.0000       537.0000              0              0              0              0              0            100              0           0.00        -1.0000
          11220       847.4000     96246.0000     15208.0000      4270.0000       194.0000       537.0000              0              0              0              0              0            100              0           0.00        -1.0000
          11221       848.6000     96246.0000     15208.0000      4270.0000       194.0000       537.0000              0              0              0              0              0            100              0           0.00        -1.0000
          11222       848.6000     96246.0000     15208.0000      4270.0000       194.0000       537.0000              0              0              0              0              0            100              0           0.00        -1.0000
          11223       846.1500     96246.0000     15208.0000      4270.0000       194.0000       537.0000              0              0              0              0              0            100              0           0.00        -1.0000
          11224       844.3250     96246.0000     15208.0000      4270.0000       194.0000       537.0000              0              0              0              0              0            100              0           0.00        -1.0000
          11225       843.7000     96246.0000     15208.0000      4270.0000       194.0000       537.0000              0              0              0              0              0            100              0           0.00        -1.0000
          11226       840.0500     96246.0000     15208.0000      4270.0000       194.0000       537.0000              0              0              0              0              0            100              0           0.00        -1.0000
          11227       824.2000     96246.0000     15208.0000      4270.0000       194.0000       537.0000              0              0              0              0              0            100              0           0.00        -1.0000
          11228       801.6000     96246.0000     15208.0000      4270.0000       194.0000       537.0000              0              0              0              0              0            100              0           0.00        -1.0000
          11229       764.3500     96246.0000     15208.0000      4270.0000       194.0000       537.0000              0              0              0              0              0            100              0           0.00        -1.0000
