#___________________________________________________________________________
~VERSION INFORMATION
 VERS.                                 2.0 : CWLS LOG ASCII STANDARD - VERSION 2.0
 WRAP.                                  NO : ONE LINE PER DEPTH STEP
#___________________________________________________________________________
~WELL INFORMATION
 STRT.F                           10335.00 : START DEPTH
 STOP.F                           17886.00 : STOP DEPTH
 STEP.F                                  1 : STEP VALUE
 NULL.                             -999.25 : NULL VALUE
 COMP.      Magnolia Oil & Gas             : COMPANY
 WELL.      Grand Canyon A 1H              : WELL
  FLD.      Giddings                       : FIELD
  LOC.      Washington County              : LOCATION
 CNTY.      Washington County              : PARISH/COUNTY
 STAT.      Texas                          : STATE
 CTRY.      USA                            : COUNTRY
" SRVC.      PetroLog International, Inc.   : SERVICE COMPANY"
 DATE.      06/22/2020                     : LOG DATE
  API.      42-477-31136                   : API REFERENCE NUMBER
#___________________________________________________________________________
~CURVE INFORMATION
#MNEM.UNITS                                : DESCRIPTION
DEPTH.F                                    :  1 DEPTH
 TGAS.Units                                :  2 Chromatograph_TotalGas
 MTHX.PPM                                  :  3 Chromatograph_MethanePPMMax
 ETHX.PPM                                  :  4 Chromatograph_EthanePPMMax
 PRPX.PPM                                  :  5 Chromatograph_PropanePPMMax
 IBTX.PPM                                  :  6 Chromatograph_IButanePPMMax
 NBTX.PPM                                  :  7 Chromatograph_NButanePPMMax
CEMNT.%                                    :  8 Lithology_Cement
SHALE.%                                    :  9 Lithology_Shale
SILTST.%                                   : 10 Lithology_Siltstone
 SAND.%                                    : 11 Lithology_Sand
 LIME.%                                    : 12 Lithology_Lime
 CHLK.%                                    : 13 Lithology_Chalk
  ASH.%                                    : 14 Lithology_Ash
 FRAC.%                                    : 15 Fracture
Kick/Loss.----                             : 16 Kick/Loss
#___________________________________________________________________________
~A        DEPTH           TGAS           MTHX           ETHX           PRPX           IBTX           NBTX          CEMNT          SHALE         SILTST           SAND           LIME           CHLK            ASH           FRAC      Kick/Loss
# ...
          15843      1264.3500    120539.0000     41373.0000     16419.0000      2603.0000      4954.0000              0              0              0              0              0            100              0           1.00         0.0000
          15844      1271.0500    120539.0000     41373.0000     16419.0000      2603.0000      4954.0000              0              0              0              0              0            100              0           1.00         0.0000
          15845      1291.8000    101802.0000     30770.0000     10654.0000      1589.0000      2765.0000              0              0              0              0              0            100              0           1.00         0.0000
          15846      1316.2500    101802.0000     30770.0000     10654.0000      1589.0000      2765.0000              0              0              0              0              0            100              0           1.00         0.0000
          15847      1345.5500    101802.0000     30770.0000     10654.0000      1589.0000      2765.0000              0              0              0              0              0            100              0           1.00         0.0000
          15848      1393.1500    101802.0000     30770.0000     10654.0000      1589.0000      2765.0000              0              0              0              0              0            100              0           1.00         0.0000
          15849      1400.5000    101802.0000     30770.0000     10654.0000      1589.0000      2765.0000              0              0              0              0              0            100              0           1.00         0.0000
          15850      1394.4000    101802.0000     30770.0000     10654.0000      1589.0000      2765.0000              0              0              0              0              0            100              0           1.00         0.0000
          15851      1373.0250    101802.0000     30770.0000     10654.0000      1589.0000      2765.0000              0              0              0              0              0            100              0           0.00         0.0000
          15852      1338.2000    101802.0000     30770.0000     10654.0000      1589.0000      2765.0000              0              0              0              0              0            100              0           0.00         0.0000
          15853      1339.4250    101802.0000     30770.0000     10654.0000      1589.0000      2765.0000              0              0              0              0              0            100              0           0.00         0.0000
          15854      1362.6500    101802.0000     30770.0000     10654.0000      1589.0000      2765.0000              0              0              0              0              0            100              0           0.00         0.0000
          15855      1371.2000    101802.0000     30770.0000     10654.0000      1589.0000      2765.0000              0              0              0              0              0            100              0           0.00         0.0000
          15856      1376.0500    101802.0000     30770.0000     10654.0000      1589.0000      2765.0000              0              0              0              0              0            100              0           0.00         0.0000
          15857      1376.0500    101802.0000     30770.0000     10654.0000      1589.0000      2765.0000              0              0              0              0              0            100              0           0.00         0.0000
          15858      1360.8000    101802.0000     30770.0000     10654.0000      1589.0000      2765.0000              0              0              0              0              0            100              0           0.00         0.0000
          15859      1354.1000    101802.0000     30770.0000     10654.0000      1589.0000      2765.0000              0              0              0              0              0            100              0           0.00         0.0000
          15860      1372.4000    101802.0000     30770.0000     10654.0000      1589.0000      2765.0000              0              0              0              0              0            100              0           0.00         0.0000
          15861      1379.1250    101802.0000     30770.0000     10654.0000      1589.0000      2765.0000              0              0              0              0              0            100              0           0.00         0.0000
          15862      1390.7000    101802.0000     30770.0000     10654.0000      1589.0000      2765.0000              0              0              0              0              0            100              0           0.00         0.0000
          15863      1394.4000    101802.0000     30770.0000     10654.0000      1589.0000      2765.0000              0              0              0              0              0            100              0           0.00         0.0000
          15864      1400.5000    101802.0000     30770.0000     10654.0000      1589.0000      2765.0000              0              0              0              0              0            100              0           0.00         0.0000
          15865      1464.0000    101802.0000     30770.0000     10654.0000      1589.0000      2765.0000              0              0              0              0              0            100              0           0.00         0.0000
          15866      1490.2250    101802.0000     30770.0000     10654.0000      1589.0000      2765.0000              0              0              0              0              0            100              0           0.00         0.0000
          15867      1489.6000    101802.0000     30770.0000     10654.0000      1589.0000      2765.0000              0              0              0              0              0            100              0           0.00         0.0000
          15868      1462.7500    101802.0000     30770.0000     10654.0000      1589.0000      2765.0000              0              0              0              0              0            100              0           0.00         0.0000
          15869      1423.7000    130398.0000     32129.0000     10654.0000      1589.0000      2765.0000              0              0              0              0              0            100              0           0.00         0.0000
          15870      1389.5000    130398.0000     32129.0000      9668.0000      1463.0000      2615.0000              0              0              0              0              0            100              0           0.00         0.0000
          15871      1400.5000    130398.0000     32129.0000      9668.0000      1463.0000      2615.0000              0              0              0              0              0            100              0           0.00         0.0000
          15872      1435.9000    130398.0000     32129.0000      9668.0000      1463.0000      2615.0000              0              0              0              0              0            100              0           0.00         0.0000
          15873      1505.5000    130398.0000     32129.0000      9668.0000      1463.0000      2615.0000              0              0              0              0              0            100              0           0.00         0.0000
          15874      1561.6750    130398.0000     32129.0000      9668.0000      1463.0000      2615.0000              0              0              0              0              0            100              0           0.00         0.0000
          15875      1576.3000    130398.0000     32129.0000      9668.0000      1463.0000      2615.0000              0              0              0              0              0            100              0           0.00         0.0000
          15876      1556.8000    130398.0000     32129.0000      9668.0000      1463.0000      2615.0000              0              0              0              0              0            100              0           0.00         0.0000
