#___________________________________________________________________________
~VERSION INFORMATION
 VERS.                                 2.0 : CWLS LOG ASCII STANDARD - VERSION 2.0
 WRAP.                                  NO : ONE LINE PER DEPTH STEP
#___________________________________________________________________________
~WELL INFORMATION
 STRT.F                           10335.00 : START DEPTH
 STOP.F                           17886.00 : STOP DEPTH
 STEP.F                                  1 : STEP VALUE
 NULL.                             -999.25 : NULL VALUE
 COMP.      Magnolia Oil & Gas             : COMPANY
 WELL.      Grand Canyon A 1H              : WELL
  FLD.      Giddings                       : FIELD
  LOC.      Washington County              : LOCATION
 CNTY.      Washington County              : PARISH/COUNTY
 STAT.      Texas                          : STATE
 CTRY.      USA                            : COUNTRY
" SRVC.      PetroLog International, Inc.   : SERVICE COMPANY"
 DATE.      06/22/2020                     : LOG DATE
  API.      42-477-31136                   : API REFERENCE NUMBER
#___________________________________________________________________________
~CURVE INFORMATION
#MNEM.UNITS                                : DESCRIPTION
DEPTH.F                                    :  1 DEPTH
 TGAS.Units                                :  2 Chromatograph_TotalGas
 MTHX.PPM                                  :  3 Chromatograph_MethanePPMMax
 ETHX.PPM                                  :  4 Chromatograph_EthanePPMMax
 PRPX.PPM                                  :  5 Chromatograph_PropanePPMMax
 IBTX.PPM                                  :  6 Chromatograph_IButanePPMMax
 NBTX.PPM                                  :  7 Chromatograph_NButanePPMMax
CEMNT.%                                    :  8 Lithology_Cement
SHALE.%                                    :  9 Lithology_Shale
SILTST.%                                   : 10 Lithology_Siltstone
 SAND.%                                    : 11 Lithology_Sand
 LIME.%                                    : 12 Lithology_Lime
 CHLK.%                                    : 13 Lithology_Chalk
  ASH.%                                    : 14 Lithology_Ash
 FRAC.%                                    : 15 Fracture
Kick/Loss.----                             : 16 Kick/Loss
#___________________________________________________________________________
~A        DEPTH           TGAS           MTHX           ETHX           PRPX           IBTX           NBTX          CEMNT          SHALE         SILTST           SAND           LIME           CHLK            ASH           FRAC      Kick/Loss
# ...
          16353      1043.3500     72934.0000     21852.0000      7638.0000      1128.0000      1751.0000              0              0              0              0              0            100              0           0.00         0.0000
          16354       899.9000     72934.0000     21852.0000      7638.0000      1128.0000      1751.0000              0              0              0              0              0            100              0           0.00         0.0000
          16355       697.2000     72934.0000     21852.0000      7638.0000      1128.0000      1751.0000              0              0              0              0              0            100              0           0.00         0.0000
          16356       485.9500     72934.0000     21852.0000      7638.0000      1128.0000      1751.0000              0              0              0              0              0            100              0           0.00         0.0000
          16357       366.3000     72934.0000     21852.0000      7638.0000      1128.0000      1751.0000              0              0              0              0              0            100              0           0.00         0.0000
          16358       274.7250     72934.0000     21852.0000      7638.0000      1128.0000      1751.0000              0              0              0              0              0            100              0           0.00         0.0000
          16359       231.3750     72934.0000     21852.0000      7638.0000      1128.0000      1751.0000              0              0              0              0              0            100              0           0.00         0.0000
          16360       311.3500     72934.0000     21852.0000      7638.0000      1128.0000      1751.0000              0              0              0              0              0            100              0           0.00         0.0000
          16361       427.9500     72934.0000     21852.0000      7638.0000      1128.0000      1751.0000              0              0              0              0              0            100              0           0.00         0.0000
          16362       747.2500     32134.0000     10436.0000      3596.0000       455.0000       426.0000              0              0              0              0              0            100              0           0.00         0.0000
          16363      1785.1000     32134.0000     10436.0000      3596.0000       455.0000       426.0000              0              0              0              0              0            100              0           0.00         0.0000
          16364      1675.2000    128897.0000     47058.0000     17056.0000      2618.0000      4158.0000              0              0              0              0              0            100              0           0.00         0.0000
          16365      1481.1000    128897.0000     47058.0000     17056.0000      2618.0000      4158.0000              0              0              0              0              0            100              0           0.00         0.0000
          16366      1438.3500    128897.0000     47058.0000     17056.0000      2618.0000      4158.0000              0              0              0              0              0            100              0           0.00         0.0000
          16367      1409.0500    128897.0000     47058.0000     17056.0000      2618.0000      4158.0000              0              0              0              0              0            100              0           0.00         0.0000
          16368      1367.5250    128897.0000     47058.0000     17056.0000      2618.0000      4158.0000              0              0              0              0              0            100              0           0.00         0.0000
          16369      1341.9000    128897.0000     47058.0000     17056.0000      2618.0000      4158.0000              0              0              0              0              0            100              0           0.00         0.0000
          16370      1340.6500    128897.0000     47058.0000     17056.0000      2618.0000      4158.0000              0              0              0              0              0            100              0           0.00         0.0000
          16371      1343.1000    128897.0000     47058.0000     17056.0000      2618.0000      4158.0000              0              0              0              0              0            100              0           0.00         0.0000
          16372      1373.6500    128897.0000     47058.0000     17056.0000      2618.0000      4158.0000              0              0              0              0              0            100              0           0.00         0.0000
          16373      1395.0000    128897.0000     47058.0000     17056.0000      2618.0000      4158.0000              0              0              0              0              0            100              0           0.00         0.0000
          16374      1412.7000    128897.0000     47058.0000     17056.0000      2618.0000      4158.0000              0              0              0              0              0            100              0           0.00         0.0000
          16375      1481.1000    128897.0000     47058.0000     17056.0000      2618.0000      4158.0000              0              0              0              0              0            100              0           0.00         0.0000
          16376      1555.5750    128897.0000     47058.0000     17056.0000      2618.0000      4158.0000              0              0              0              0              0            100              0           0.00         0.0000
          16377      1631.2750    128897.0000     47058.0000     17056.0000      2618.0000      4158.0000              0              0              0              0              0            100              0           0.00         0.0000
          16378      1675.8250    128897.0000     47058.0000     17056.0000      2618.0000      4158.0000              0              0              0              0              0            100              0           0.00         0.0000
          16379      1690.4750    128897.0000     47058.0000     17056.0000      2618.0000      4158.0000              0              0              0              0              0            100              0           0.00         0.0000
          16380      1807.1000    128897.0000     47058.0000     17056.0000      2618.0000      4368.0000              0              0              0              0              0            100              0           0.00         0.0000
          16381      1485.9500    123643.0000     41473.0000     15230.0000      2359.0000      4368.0000              0              0              0              0              0            100              0           0.00         0.0000
          16382      1366.3000    123643.0000     41473.0000     15230.0000      2359.0000      4368.0000              0              0              0              0              0            100              0           0.00         0.0000
          16383      1254.5750    123643.0000     41473.0000     15230.0000      2359.0000      4368.0000              0              0              0              0              0            100              0           0.00         0.0000
          16384      1213.0750    123643.0000     41473.0000     15230.0000      2359.0000      4368.0000              0              0              0              0              0            100              0           0.00         0.0000
          16385      1211.8500    123643.0000     41473.0000     15230.0000      2359.0000      4368.0000              0              0              0              0              0            100              0           0.00         0.0000
          16386      1263.7250    123643.0000     41473.0000     15230.0000      2359.0000      4368.0000              0              0              0              0              0            100              0           0.00         0.0000
