#___________________________________________________________________________
~VERSION INFORMATION
 VERS.                                 2.0 : CWLS LOG ASCII STANDARD - VERSION 2.0
 WRAP.                                  NO : ONE LINE PER DEPTH STEP
#___________________________________________________________________________
~WELL INFORMATION
 STRT.F                           10335.00 : START DEPTH
 STOP.F                           17886.00 : STOP DEPTH
 STEP.F                                  1 : STEP VALUE
 NULL.                             -999.25 : NULL VALUE
 COMP.      Magnolia Oil & Gas             : COMPANY
 WELL.      Grand Canyon A 1H              : WELL
  FLD.      Giddings                       : FIELD
  LOC.      Washington County              : LOCATION
 CNTY.      Washington County              : PARISH/COUNTY
 STAT.      Texas                          : STATE
 CTRY.      USA                            : COUNTRY
" SRVC.      PetroLog International, Inc.   : SERVICE COMPANY"
 DATE.      06/22/2020                     : LOG DATE
  API.      42-477-31136                   : API REFERENCE NUMBER
#___________________________________________________________________________
~CURVE INFORMATION
#MNEM.UNITS                                : DESCRIPTION
DEPTH.F                                    :  1 DEPTH
 TGAS.Units                                :  2 Chromatograph_TotalGas
 MTHX.PPM                                  :  3 Chromatograph_MethanePPMMax
 ETHX.PPM                                  :  4 Chromatograph_EthanePPMMax
 PRPX.PPM                                  :  5 Chromatograph_PropanePPMMax
 IBTX.PPM                                  :  6 Chromatograph_IButanePPMMax
 NBTX.PPM                                  :  7 Chromatograph_NButanePPMMax
CEMNT.%                                    :  8 Lithology_Cement
SHALE.%                                    :  9 Lithology_Shale
SILTST.%                                   : 10 Lithology_Siltstone
 SAND.%                                    : 11 Lithology_Sand
 LIME.%                                    : 12 Lithology_Lime
 CHLK.%                                    : 13 Lithology_Chalk
  ASH.%                                    : 14 Lithology_Ash
 FRAC.%                                    : 15 Fracture
Kick/Loss.----                             : 16 Kick/Loss
#___________________________________________________________________________
~A        DEPTH           TGAS           MTHX           ETHX           PRPX           IBTX           NBTX          CEMNT          SHALE         SILTST           SAND           LIME           CHLK            ASH           FRAC      Kick/Loss
# ...
          16863      1158.7500    108028.0000     25521.0000      8706.0000      1418.0000      2568.0000              0              0              0              0              0            100              0           0.00         0.0000
          16864      1163.6000    108028.0000     25521.0000      8706.0000      1418.0000      2568.0000              0              0              0              0              0            100              0           0.00         0.0000
          16865      1163.6000    108028.0000     25521.0000      8706.0000      1418.0000      2568.0000              0              0              0              0              0            100              0           0.00         0.0000
          16866      1154.4500    108028.0000     25521.0000      8706.0000      1418.0000      2568.0000              0              0              0              0              0            100              0           0.00         0.0000
          16867      1144.1000    108028.0000     25521.0000      8706.0000      1418.0000      2568.0000              0              0              0              0              0            100              0           0.00         0.0000
          16868      1138.0000    108028.0000     25521.0000      8706.0000      1418.0000      2568.0000              0              0              0              0              0            100              0           0.00         0.0000
          16869      1139.2000    108028.0000     25521.0000      8706.0000      1418.0000      2568.0000              0              0              0              0              0            100              0           0.00         0.0000
          16870      1152.6500    108028.0000     25521.0000      8706.0000      1418.0000      2568.0000              0              0              0              0              0            100              0           0.00         0.0000
          16871      1167.3000    108028.0000     25521.0000      8706.0000      1418.0000      2568.0000              0              0              0              0              0            100              0           0.00         0.0000
          16872      1166.0500    108028.0000     25521.0000      8706.0000      1418.0000      2568.0000              0              0              0              0              0            100              0           0.00         0.0000
          16873      1144.1000    108028.0000     25521.0000      8706.0000      1418.0000      2568.0000              0              0              0              0              0            100              0           0.00         0.0000
          16874      1179.5000    108028.0000     25521.0000      8706.0000      1418.0000      2568.0000              0              0              0              0              0            100              0           0.00         0.0000
          16875      1194.1500    108028.0000     25521.0000      8706.0000      1418.0000      2568.0000              0              0              0              0              0            100              0           0.00         0.0000
          16876      1194.1500    108028.0000     25521.0000      8706.0000      1418.0000      2568.0000              0              0              0              0              0            100              0           0.00         0.0000
          16877      1189.2500    108028.0000     25521.0000      8706.0000      1418.0000      2568.0000              0              0              0              0              0            100              0           0.00         0.0000
          16878      1163.6000    108028.0000     25521.0000      8706.0000      1418.0000      2568.0000              0              0              0              0              0            100              0           0.00         0.0000
          16879      1142.8500    108028.0000     25521.0000      8706.0000      1418.0000      2568.0000              0              0              0              0              0            100              0           0.00         0.0000
          16880      1127.6000    108189.0000     25521.0000      8706.0000      1418.0000      2603.0000              0              0              0              0              0            100              0           0.00         0.0000
          16881      1130.0500    108189.0000     24816.0000      8502.0000      1409.0000      2603.0000              0              0              0              0              0            100              0           0.00         0.0000
          16882      1194.1500    108189.0000     24816.0000      8502.0000      1409.0000      2603.0000              0              0              0              0              0            100              0           0.00         0.0000
          16883      1223.4500    108189.0000     24816.0000      8502.0000      1409.0000      2603.0000              0              0              0              0              0            100              0           0.00         0.0000
          16884      1078.1500    108189.0000     24816.0000      8502.0000      1409.0000      2603.0000              0              0              0              0              0            100              0           0.00         0.0000
          16885       916.9500    108189.0000     24816.0000      8502.0000      1409.0000      2603.0000              0              0              0              0              0            100              0           0.00         0.0000
          16886       681.3250    108189.0000     24816.0000      8502.0000      1409.0000      2603.0000              0              0              0              0              0            100              0           0.00         0.0000
          16887       489.6000    108189.0000     24816.0000      8502.0000      1409.0000      2603.0000              0              0              0              0              0            100              0           0.00         0.0000
          16888       343.7250    108189.0000     24816.0000      8502.0000      1409.0000      2603.0000              0              0              0              0              0            100              0           0.00         0.0000
          16889       263.7500    108189.0000     24816.0000      8502.0000      1409.0000      2603.0000              0              0              0              0              0            100              0           0.00         0.0000
          16890       210.0000    108189.0000     24816.0000      8502.0000      1409.0000      2603.0000              0              0              0              0              0            100              0           0.00         0.0000
          16891       180.7250    108189.0000     24816.0000      8502.0000      1409.0000      2603.0000              0              0              0              0              0            100              0           0.00         0.0000
          16892       156.3000      2066.0000      1117.0000       872.0000       131.0000       784.0000              0              0              0              0              0            100              0           0.00         0.0000
          16893       151.4000      2066.0000      1117.0000       872.0000       131.0000       784.0000              0              0              0              0              0            100              0           0.00         0.0000
          16894       180.7250      2066.0000      1117.0000       872.0000       131.0000       784.0000              0              0              0              0              0            100              0           0.00         0.0000
          16895       399.2500      2066.0000      1117.0000       872.0000       131.0000       784.0000              0              0              0              0              0            100              0           0.00         0.0000
          16896       593.4000      2066.0000      1117.0000       872.0000       131.0000       784.0000              0              0              0              0              0            100              0           0.00         0.0000
