#___________________________________________________________________________
~VERSION INFORMATION
 VERS.                                 2.0 : CWLS LOG ASCII STANDARD - VERSION 2.0
 WRAP.                                  NO : ONE LINE PER DEPTH STEP
#___________________________________________________________________________
~WELL INFORMATION
 STRT.F                           10335.00 : START DEPTH
 STOP.F                           17886.00 : STOP DEPTH
 STEP.F                                  1 : STEP VALUE
 NULL.                             -999.25 : NULL VALUE
 COMP.      Magnolia Oil & Gas             : COMPANY
 WELL.      Grand Canyon A 1H              : WELL
  FLD.      Giddings                       : FIELD
  LOC.      Washington County              : LOCATION
 CNTY.      Washington County              : PARISH/COUNTY
 STAT.      Texas                          : STATE
 CTRY.      USA                            : COUNTRY
" SRVC.      PetroLog International, Inc.   : SERVICE COMPANY"
 DATE.      06/22/2020                     : LOG DATE
  API.      42-477-31136                   : API REFERENCE NUMBER
#___________________________________________________________________________
~CURVE INFORMATION
#MNEM.UNITS                                : DESCRIPTION
DEPTH.F                                    :  1 DEPTH
 TGAS.Units                                :  2 Chromatograph_TotalGas
 MTHX.PPM                                  :  3 Chromatograph_MethanePPMMax
 ETHX.PPM                                  :  4 Chromatograph_EthanePPMMax
 PRPX.PPM                                  :  5 Chromatograph_PropanePPMMax
 IBTX.PPM                                  :  6 Chromatograph_IButanePPMMax
 NBTX.PPM                                  :  7 Chromatograph_NButanePPMMax
CEMNT.%                                    :  8 Lithology_Cement
SHALE.%                                    :  9 Lithology_Shale
SILTST.%                                   : 10 Lithology_Siltstone
 SAND.%                                    : 11 Lithology_Sand
 LIME.%                                    : 12 Lithology_Lime
 CHLK.%                                    : 13 Lithology_Chalk
  ASH.%                                    : 14 Lithology_Ash
 FRAC.%                                    : 15 Fracture
Kick/Loss.----                             : 16 Kick/Loss
#___________________________________________________________________________
~A        DEPTH           TGAS           MTHX           ETHX           PRPX           IBTX           NBTX          CEMNT          SHALE         SILTST           SAND           LIME           CHLK            ASH           FRAC      Kick/Loss
# ...
          17849      1207.5500    175552.0000     56321.0000      5170.0000      2316.0000      4345.0000              0              0              0              0              0            100              0           0.00         0.0000
          17850      1214.3000    176190.0000     55309.0000      5171.0000      2561.0000      4418.0000              0              0              0              0              0            100              0           0.00         0.0000
          17851      1213.6750    173241.0000     54478.0000      5068.0000      2475.0000      4274.0000              0              0              0              0              0            100              0           0.00         0.0000
          17852      1174.6250    175344.0000     55944.0000      5103.0000      2321.0000      4275.0000              0              0              0              0              0            100              0           0.00         0.0000
          17853      1115.4000    172925.0000     55412.0000      5156.0000      2460.0000      4422.0000              0              0              0              0              0            100              0           0.00         0.0000
          17854      1135.5500    175261.0000     56102.0000      5056.0000      2539.0000      4468.0000              0              0              0              0              0            100              0           0.00         0.0000
          17855      1136.7500    173174.0000     55454.0000      5138.0000      2304.0000      4255.0000              0              0              0              0              0            100              0           0.00         0.0000
          17856      1136.7500    174513.0000     55978.0000      5051.0000      2512.0000      4407.0000              0              0              0              0              0            100              0           0.00         0.0000
          17857      1141.6500    172561.0000     55825.0000      5152.0000      2271.0000      4232.0000              0              0              0              0              0            100              0           0.00         0.0000
          17858      1151.4000    174529.0000     54862.0000      5227.0000      2507.0000      4401.0000              0              0              0              0              0            100              0           0.00         0.0000
          17859      1149.5750    175370.0000     55304.0000      5118.0000      2533.0000      4250.0000              0              0              0              0              0            100              0           0.00         0.0000
          17860      1114.8000    174913.0000     55399.0000      5183.0000      2370.0000      4347.0000              0              0              0              0              0            100              0           0.00         0.0000
          17861      1056.7750    172395.0000     55627.0000      5230.0000      2296.0000      4487.0000              0              0              0              0              0            100              0           0.00         0.0000
          17862      1055.5500    175027.0000     55579.0000      5205.0000      2280.0000      4348.0000              0              0              0              0              0            100              0           0.00         0.0000
          17863      1050.6750    175455.0000     55690.0000      5064.0000      2566.0000      4409.0000              0              0              0              0              0            100              0           0.00         0.0000
          17864      1042.1250    174235.0000     54843.0000      5211.0000      2356.0000      4376.0000              0              0              0              0              0            100              0           0.00         0.0000
          17865      1073.2500    175040.0000     55964.0000      5089.0000      2338.0000      4475.0000              0              0              0              0              0            100              0           0.00         0.0000
          17866      1103.7750    175481.0000     55050.0000      5238.0000      2480.0000      4384.0000              0              0              0              0              0            100              0           0.00         0.0000
          17867      1154.4500    175190.0000     54830.0000      5066.0000      2292.0000      4226.0000              0              0              0              0              0            100              0           0.00         0.0000
          17868      1163.6000    176063.0000     54975.0000      5091.0000      2445.0000      4419.0000              0              0              0              0              0            100              0           0.00         0.0000
          17869      1188.0500    173446.0000     54541.0000      5074.0000      2482.0000      4477.0000              0              0              0              0              0            100              0           0.00         0.0000
          17870      1191.1000    174551.0000     56356.0000      5123.0000      2458.0000      4228.0000              0              0              0              0              0            100              0           0.00         0.0000
          17871      1159.3500    175123.0000     55806.0000      5194.0000      2530.0000      4488.0000              0              0              0              0              0            100              0           0.00         0.0000
          17872      1102.5750    175232.0000     55009.0000      5256.0000      2550.0000      4476.0000              0              0              0              0              0            100              0           0.00         0.0000
          17873      1111.7250    175938.0000     54954.0000      5071.0000      2318.0000      4287.0000              0              0              0              0              0            100              0           0.00         0.0000
          17874      1120.9000    173819.0000     54603.0000      5077.0000      2452.0000      4367.0000              0              0              0              0              0            100              0           0.00         0.0000
          17875      1141.6500    173430.0000     56170.0000      5116.0000      2461.0000      4408.0000              0              0              0              0              0            100              0           0.00         0.0000
          17876      1206.3500    175631.0000     54430.0000      5215.0000      2520.0000      4416.0000              0              0              0              0              0            100              0           0.00         0.0000
          17877      1241.7500    175772.0000     55269.0000      5193.0000      2581.0000      4467.0000              0              0              0              0              0            100              0           0.00         0.0000
          17878      1306.4500    174318.0000     54686.0000      5099.0000      2549.0000      4314.0000              0              0              0              0              0            100              0           0.00         0.0000
          17879      1250.3250    174791.0000     55922.0000      5107.0000      2408.0000      4286.0000              0              0              0              0              0            100              0           0.00         0.0000
          17880       689.8750    176229.0000     55174.0000      5243.0000      2506.0000      4445.0000              0              0              0              0              0            100              0           0.00         0.0000
          17881       752.7500    172947.0000     54459.0000      5052.0000      2299.0000      4455.0000              0              0              0              0              0            100              0           0.00         0.0000
          17882       782.6500    176047.0000     54670.0000      5075.0000      2338.0000      4350.0000              0              0              0              0              0            100              0           0.00         0.0000
