#___________________________________________________________________________
~VERSION INFORMATION
 VERS.                                 2.0 : CWLS LOG ASCII STANDARD - VERSION 2.0
 WRAP.                                  NO : ONE LINE PER DEPTH STEP
#___________________________________________________________________________
~WELL INFORMATION
 STRT.F                           10335.00 : START DEPTH
 STOP.F                           17886.00 : STOP DEPTH
 STEP.F                                  1 : STEP VALUE
 NULL.                             -999.25 : NULL VALUE
 COMP.      Magnolia Oil & Gas             : COMPANY
 WELL.      Grand Canyon A 1H              : WELL
  FLD.      Giddings                       : FIELD
  LOC.      Washington County              : LOCATION
 CNTY.      Washington County              : PARISH/COUNTY
 STAT.      Texas                          : STATE
 CTRY.      USA                            : COUNTRY
" SRVC.      PetroLog International, Inc.   : SERVICE COMPANY"
 DATE.      06/22/2020                     : LOG DATE
  API.      42-477-31136                   : API REFERENCE NUMBER
#___________________________________________________________________________
~CURVE INFORMATION
#MNEM.UNITS                                : DESCRIPTION
DEPTH.F                                    :  1 DEPTH
 TGAS.Units                                :  2 Chromatograph_TotalGas
 MTHX.PPM                                  :  3 Chromatograph_MethanePPMMax
 ETHX.PPM                                  :  4 Chromatograph_EthanePPMMax
 PRPX.PPM                                  :  5 Chromatograph_PropanePPMMax
 IBTX.PPM                                  :  6 Chromatograph_IButanePPMMax
 NBTX.PPM                                  :  7 Chromatograph_NButanePPMMax
CEMNT.%                                    :  8 Lithology_Cement
SHALE.%                                    :  9 Lithology_Shale
SILTST.%                                   : 10 Lithology_Siltstone
 SAND.%                                    : 11 Lithology_Sand
 LIME.%                                    : 12 Lithology_Lime
 CHLK.%                                    : 13 Lithology_Chalk
  ASH.%                                    : 14 Lithology_Ash
 FRAC.%                                    : 15 Fracture
Kick/Loss.----                             : 16 Kick/Loss
#___________________________________________________________________________
~A        DEPTH           TGAS           MTHX           ETHX           PRPX           IBTX           NBTX          CEMNT          SHALE         SILTST           SAND           LIME           CHLK            ASH           FRAC      Kick/Loss
# ...
          11831      1136.7500    126354.0000     18622.0000      5285.0000       743.0000      1288.0000              0              0              0              0              0            100              0           0.00         0.0000
          11832      1136.7500    126354.0000     18622.0000      5285.0000       743.0000      1288.0000              0              0              0              0              0            100              0           0.00         0.0000
          11833      1116.0000    126354.0000     18622.0000      5285.0000       743.0000      1288.0000              0              0              0              0              0            100              0           0.00         0.0000
          11834      1083.0250    126354.0000     18622.0000      5285.0000       743.0000      1288.0000              0              0              0              0              0            100              0           0.00         0.0000
          11835      1043.3500    126354.0000     18622.0000      5285.0000       743.0000      1288.0000              0              0              0              0              0            100              0           0.00         0.0000
          11836      1005.5000    126354.0000     18622.0000      5285.0000       743.0000      1288.0000              0              0              0              0              0            100              0           0.00         0.0000
          11837       964.6000    126354.0000     18622.0000      5285.0000       743.0000      1288.0000              0              0              0              0              0            100              0           0.00         0.0000
          11838       926.7500    126354.0000     18622.0000      5285.0000       743.0000      1288.0000              0              0              0              0              0            100              0           0.00         0.0000
          11839       896.2000    126354.0000     18622.0000      5285.0000       743.0000      1288.0000              0              0              0              0              0            100              0           0.00         0.0000
          11840       874.2500    126354.0000     18622.0000      5285.0000       743.0000      1288.0000              0              0              0              0              0            100              0           0.00         0.0000
          11841       884.0000    100482.0000     16250.0000      4823.0000       645.0000      1244.0000              0              0              0              0              0            100              0           0.00         0.0000
          11842       899.9000    100482.0000     16250.0000      4823.0000       645.0000      1244.0000              0              0              0              0              0            100              0           0.00         0.0000
          11843       912.1000    100482.0000     16250.0000      4823.0000       645.0000      1244.0000              0              0              0              0              0            100              0           0.00         0.0000
          11844       912.1000    100482.0000     16250.0000      4823.0000       645.0000      1244.0000              0              0              0              0              0            100              0           0.00         0.0000
          11845       903.5500    100482.0000     16250.0000      4823.0000       645.0000      1244.0000              0              0              0              0              0            100              0           0.00         0.0000
          11846       888.9000    100482.0000     16250.0000      4823.0000       645.0000      1244.0000              0              0              0              0              0            100              0           0.00         0.0000
          11847       882.8000    100482.0000     16250.0000      4823.0000       645.0000      1244.0000              0              0              0              0              0            100              0           0.00         0.0000
          11848       898.6500    100482.0000     16250.0000      4823.0000       645.0000      1244.0000              0              0              0              0              0            100              0           0.00         0.0000
          11849       907.8250    100482.0000     16250.0000      4823.0000       645.0000      1244.0000              0              0              0              0              0            100              0           0.00         0.0000
          11850       908.4500    100482.0000     16250.0000      4823.0000       645.0000      1244.0000              0              0              0              0              0            100              0           0.00         0.0000
          11851       906.0000    100482.0000     16250.0000      4823.0000       645.0000      1244.0000              0              0              0              0              0            100              0           0.00         0.0000
          11852       898.0500    100482.0000     16250.0000      4823.0000       645.0000      1244.0000              0              0              0              0              0            100              0           0.00         0.0000
          11853       901.1000    100482.0000     16250.0000      4823.0000       645.0000      1244.0000              0              0              0              0              0            100              0           0.00         0.0000
          11854       907.2000    100482.0000     16250.0000      4823.0000       645.0000      1244.0000              0              0              0              0              0            100              0           0.00         0.0000
          11855       912.1000    100482.0000     16250.0000      4823.0000       645.0000      1244.0000              0              0              0              0              0            100              0           0.00         0.0000
          11856       912.1000    100482.0000     16250.0000      4823.0000       645.0000      1244.0000              0              0              0              0              0            100              0           0.00         0.0000
          11857       907.8250    100482.0000     16250.0000      4823.0000       645.0000      1244.0000              0              0              0              0              0            100              0           0.00         0.0000
          11858       904.1500    100482.0000     16250.0000      4823.0000       645.0000      1244.0000              0              0              0              0              0            100              0           0.00         0.0000
          11859       912.1000    100482.0000     16250.0000      4823.0000       645.0000      1244.0000              0              0              0              0              0            100              0           0.00         0.0000
          11860       924.9000    100482.0000     16250.0000      4823.0000       645.0000      1244.0000              0              0              0              0              0            100              0           0.00         0.0000
          11861       943.8500    100482.0000     16250.0000      4823.0000       645.0000      1244.0000              0              0              0              0              0            100              0           0.00         0.0000
          11862       960.3250    100482.0000     16250.0000      4823.0000       645.0000      1244.0000              0              0              0              0              0            100              0           0.00         0.0000
          11863       962.7500    100482.0000     16250.0000      4823.0000       645.0000      1244.0000              0              0              0              0              0            100              0           0.00         0.0000
          11864       957.2500    100482.0000     16250.0000      4823.0000       645.0000      1244.0000              0              0              0              0              0            100              0           0.00         0.0000
