#___________________________________________________________________________
~VERSION INFORMATION
 VERS.                                 2.0 : CWLS LOG ASCII STANDARD - VERSION 2.0
 WRAP.                                  NO : ONE LINE PER DEPTH STEP
#___________________________________________________________________________
~WELL INFORMATION
 STRT.F                           10335.00 : START DEPTH
 STOP.F                           17886.00 : STOP DEPTH
 STEP.F                                  1 : STEP VALUE
 NULL.                             -999.25 : NULL VALUE
 COMP.      Magnolia Oil & Gas             : COMPANY
 WELL.      Grand Canyon A 1H              : WELL
  FLD.      Giddings                       : FIELD
  LOC.      Washington County              : LOCATION
 CNTY.      Washington County              : PARISH/COUNTY
 STAT.      Texas                          : STATE
 CTRY.      USA                            : COUNTRY
" SRVC.      PetroLog International, Inc.   : SERVICE COMPANY"
 DATE.      06/22/2020                     : LOG DATE
  API.      42-477-31136                   : API REFERENCE NUMBER
#___________________________________________________________________________
~CURVE INFORMATION
#MNEM.UNITS                                : DESCRIPTION
DEPTH.F                                    :  1 DEPTH
 TGAS.Units                                :  2 Chromatograph_TotalGas
 MTHX.PPM                                  :  3 Chromatograph_MethanePPMMax
 ETHX.PPM                                  :  4 Chromatograph_EthanePPMMax
 PRPX.PPM                                  :  5 Chromatograph_PropanePPMMax
 IBTX.PPM                                  :  6 Chromatograph_IButanePPMMax
 NBTX.PPM                                  :  7 Chromatograph_NButanePPMMax
CEMNT.%                                    :  8 Lithology_Cement
SHALE.%                                    :  9 Lithology_Shale
SILTST.%                                   : 10 Lithology_Siltstone
 SAND.%                                    : 11 Lithology_Sand
 LIME.%                                    : 12 Lithology_Lime
 CHLK.%                                    : 13 Lithology_Chalk
  ASH.%                                    : 14 Lithology_Ash
 FRAC.%                                    : 15 Fracture
Kick/Loss.----                             : 16 Kick/Loss
#___________________________________________________________________________
~A        DEPTH           TGAS           MTHX           ETHX           PRPX           IBTX           NBTX          CEMNT          SHALE         SILTST           SAND           LIME           CHLK            ASH           FRAC      Kick/Loss
# ...
          17339      1727.7000    153818.0000     43695.0000     15926.0000      2295.0000      4332.0000              0              0              0              0              0            100              0           0.00         0.0000
          17340      1727.1000    153818.0000     43695.0000     15926.0000      2295.0000      4332.0000              0              0              0              0              0            100              0           0.00         0.0000
          17341      1705.7500    153818.0000     43695.0000     15926.0000      2295.0000      4332.0000              0              0              0              0              0            100              0           0.00         0.0000
          17342      1688.6500    153818.0000     43695.0000     15926.0000      2295.0000      4332.0000              0              0              0              0              0            100              0           0.00         0.0000
          17343      1698.4000    153818.0000     43695.0000     15926.0000      2295.0000      4332.0000              0              0              0              0              0            100              0           0.00         0.0000
          17344      1701.4750    153818.0000     43695.0000     15926.0000      2295.0000      4332.0000              0              0              0              0              0            100              0           0.00         0.0000
          17345      1681.3000    153818.0000     43695.0000     15926.0000      2295.0000      4332.0000              0              0              0              0              0            100              0           0.00         0.0000
          17346      1647.1500    153818.0000     43695.0000     15926.0000      2295.0000      4332.0000              0              0              0              0              0            100              0           0.00         0.0000
          17347      1652.0000    153818.0000     43695.0000     15926.0000      2295.0000      4332.0000              0              0              0              0              0            100              0           0.00         0.0000
          17348      1653.2500    153818.0000     43695.0000     15926.0000      2295.0000      4332.0000              0              0              0              0              0            100              0           0.00         0.0000
          17349      1655.7000    153818.0000     43695.0000     15926.0000      2295.0000      4332.0000              0              0              0              0              0            100              0           0.00         0.0000
          17350      1655.7000    153818.0000     43695.0000     15926.0000      2295.0000      4332.0000              0              0              0              0              0            100              0           0.00         0.0000
          17351      1634.9000    153818.0000     43695.0000     15926.0000      2295.0000      4332.0000              0              0              0              0              0            100              0           0.00         0.0000
          17352      1643.4500    153818.0000     43695.0000     15926.0000      2295.0000      4332.0000              0              0              0              0              0            100              0           0.00         0.0000
          17353      1653.2500    153818.0000     43695.0000     15926.0000      2295.0000      4332.0000              0              0              0              0              0            100              0           0.00         0.0000
          17354      1650.2000    153818.0000     43695.0000     15926.0000      2295.0000      4332.0000              0              0              0              0              0            100              0           0.00         0.0000
          17355      1622.7000    153818.0000     43695.0000     15926.0000      2295.0000      4332.0000              0              0              0              0              0            100              0           0.00         0.0000
          17356      1622.7000    159380.0000     43695.0000     15926.0000      2295.0000      4332.0000              0              0              0              0              0            100              0           0.00         0.0000
          17357      1592.2000    159380.0000     38440.0000     12655.0000      1836.0000      3438.0000              0              0              0              0              0            100              0           0.00         0.0000
          17358      1600.1250    159380.0000     38440.0000     12655.0000      1836.0000      3438.0000              0              0              0              0              0            100              0           0.00         0.0000
          17359      1607.4500    159380.0000     38440.0000     12655.0000      1836.0000      3438.0000              0              0              0              0              0            100              0           0.00         0.0000
          17360      1595.8500    159380.0000     38440.0000     12655.0000      1836.0000      3438.0000              0              0              0              0              0            100              0           0.00         0.0000
          17361      1577.5250    159380.0000     38440.0000     12655.0000      1836.0000      3438.0000              0              0              0              0              0            100              0           0.00         0.0000
          17362      1588.5500    159380.0000     38440.0000     12655.0000      1836.0000      3438.0000              0              0              0              0              0            100              0           0.00         0.0000
          17363      1590.9500    159380.0000     38440.0000     12655.0000      1836.0000      3438.0000              0              0              0              0              0            100              0           0.00         0.0000
          17364      1589.7500    159380.0000     38440.0000     12655.0000      1836.0000      3438.0000              0              0              0              0              0            100              0           0.00         0.0000
          17365      1592.2000    159380.0000     38440.0000     12655.0000      1836.0000      3438.0000              0              0              0              0              0            100              0           0.00         0.0000
          17366      1603.2000    159380.0000     38440.0000     12655.0000      1836.0000      3438.0000              0              0              0              0              0            100              0           0.00         0.0000
          17367      1602.5750    159380.0000     38440.0000     12655.0000      1836.0000      3438.0000              0              0              0              0              0            100              0           0.00         0.0000
          17368      1586.1000    159380.0000     38440.0000     12655.0000      1836.0000      3438.0000              0              0              0              0              0            100              0           0.00         0.0000
          17369      1588.5500    159380.0000     38440.0000     12655.0000      1836.0000      3438.0000              0              0              0              0              0            100              0           0.00         0.0000
          17370      1583.6500    159380.0000     38440.0000     12655.0000      1836.0000      3438.0000              0              0              0              0              0            100              0           0.00         0.0000
          17371      1564.1000    159380.0000     38440.0000     12655.0000      1836.0000      3438.0000              0              0              0              0              0            100              0           0.00         0.0000
          17372      1581.8000    159380.0000     38440.0000     12655.0000      1836.0000      3438.0000              0              0              0              0              0            100              0           0.00         0.0000
