#___________________________________________________________________________
~VERSION INFORMATION
 VERS.                                 2.0 : CWLS LOG ASCII STANDARD - VERSION 2.0
 WRAP.                                  NO : ONE LINE PER DEPTH STEP
#___________________________________________________________________________
~WELL INFORMATION
 STRT.F                           10335.00 : START DEPTH
 STOP.F                           17886.00 : STOP DEPTH
 STEP.F                                  1 : STEP VALUE
 NULL.                             -999.25 : NULL VALUE
 COMP.      Magnolia Oil & Gas             : COMPANY
 WELL.      Grand Canyon A 1H              : WELL
  FLD.      Giddings                       : FIELD
  LOC.      Washington County              : LOCATION
 CNTY.      Washington County              : PARISH/COUNTY
 STAT.      Texas                          : STATE
 CTRY.      USA                            : COUNTRY
" SRVC.      PetroLog International, Inc.   : SERVICE COMPANY"
 DATE.      06/22/2020                     : LOG DATE
  API.      42-477-31136                   : API REFERENCE NUMBER
#___________________________________________________________________________
~CURVE INFORMATION
#MNEM.UNITS                                : DESCRIPTION
DEPTH.F                                    :  1 DEPTH
 TGAS.Units                                :  2 Chromatograph_TotalGas
 MTHX.PPM                                  :  3 Chromatograph_MethanePPMMax
 ETHX.PPM                                  :  4 Chromatograph_EthanePPMMax
 PRPX.PPM                                  :  5 Chromatograph_PropanePPMMax
 IBTX.PPM                                  :  6 Chromatograph_IButanePPMMax
 NBTX.PPM                                  :  7 Chromatograph_NButanePPMMax
CEMNT.%                                    :  8 Lithology_Cement
SHALE.%                                    :  9 Lithology_Shale
SILTST.%                                   : 10 Lithology_Siltstone
 SAND.%                                    : 11 Lithology_Sand
 LIME.%                                    : 12 Lithology_Lime
 CHLK.%                                    : 13 Lithology_Chalk
  ASH.%                                    : 14 Lithology_Ash
 FRAC.%                                    : 15 Fracture
Kick/Loss.----                             : 16 Kick/Loss
#___________________________________________________________________________
~A        DEPTH           TGAS           MTHX           ETHX           PRPX           IBTX           NBTX          CEMNT          SHALE         SILTST           SAND           LIME           CHLK            ASH           FRAC      Kick/Loss
# ...
          13327      1181.9500    150501.0000     27629.0000      7757.0000      1164.0000      1908.0000              0              0              0              0              0            100              0           0.00         0.0000
          13328      1185.6000    150501.0000     27629.0000      7757.0000      1164.0000      1908.0000              0              0              0              0              0            100              0           0.00         0.0000
          13329      1178.2500    150501.0000     27629.0000      7757.0000      1164.0000      1908.0000              0              0              0              0              0            100              0           0.00         0.0000
          13330      1139.8250    150501.0000     27629.0000      7757.0000      1164.0000      1908.0000              0              0              0              0              0            100              0           0.00         0.0000
          13331      1397.4500    150501.0000     38251.0000     12708.0000      1971.0000      3030.0000              0              0              0              0              0            100              0           0.00         0.0000
          13332       324.1750    139011.0000     38251.0000     12708.0000      1971.0000      3030.0000              0              0              0              0              0            100              0           0.00         0.0000
          13333       260.6750    139011.0000     38251.0000     12708.0000      1971.0000      3030.0000              0              0              0              0              0            100              0           0.00         0.0000
          13334       227.1000    139011.0000     38251.0000     12708.0000      1971.0000      3030.0000              0              0              0              0              0            100              0           0.00         0.0000
          13335       206.9500    139011.0000     38251.0000     12708.0000      1971.0000      3030.0000              0              0              0              0              0            100              0           0.00         0.0000
          13336       183.1500    139011.0000     38251.0000     12708.0000      1971.0000      3030.0000              0              0              0              0              0            100              0           0.00         0.0000
          13337       170.9500    139011.0000     38251.0000     12708.0000      1971.0000      3030.0000              0              0              0              0              0            100              0           0.00         0.0000
          13338       158.7500    139011.0000     38251.0000     12708.0000      1971.0000      3030.0000              0              0              0              0              0            100              0           0.00         0.0000
          13339       152.6500    139011.0000     38251.0000     12708.0000      1971.0000      3030.0000              0              0              0              0              0            100              0           0.00         0.0000
          13340       148.9500    139011.0000     38251.0000     12708.0000      1971.0000      3030.0000              0              0              0              0              0            100              0           0.00         0.0000
          13341       142.8500    139011.0000     38251.0000     12708.0000      1971.0000      3030.0000              0              0              0              0              0            100              0           0.00         0.0000
          13342       145.3000    139011.0000     38251.0000     12708.0000      1971.0000      3030.0000              0              0              0              0              0            100              0           0.00         0.0000
          13343       184.3500    139011.0000     38251.0000     12708.0000      1971.0000      3030.0000              0              0              0              0              0            100              0           0.00         0.0000
          13344       248.4750    139011.0000     38251.0000     12708.0000      1971.0000      3030.0000              0              0              0              0              0            100              0           0.00         0.0000
          13345       331.5000    139011.0000     38251.0000     12708.0000      1971.0000      3030.0000              0              0              0              0              0            100              0           0.00         0.0000
          13346       421.2500    139011.0000     38251.0000     12708.0000      1971.0000      3030.0000              0              0              0              0              0            100              0           0.00         0.0000
          13347       498.7750    139011.0000     38251.0000     12708.0000      1971.0000      3030.0000              0              0              0              0              0            100              0           0.00         0.0000
          13348       586.1000    139011.0000     38251.0000     12708.0000      1971.0000      3030.0000              0              0              0              0              0            100              0           0.00         0.0000
          13349       642.8750     45196.0000     11574.0000      3842.0000       540.0000       383.0000              0              0              0              0              0            100              0           0.00         0.0000
          13350       748.4750     45196.0000     11574.0000      3842.0000       540.0000       383.0000              0              0              0              0              0            100              0           0.00         0.0000
          13351       815.6250     45196.0000     11574.0000      3842.0000       540.0000       383.0000              0              0              0              0              0            100              0           0.00         0.0000
          13352       924.9250     45196.0000     11574.0000      3842.0000       540.0000       383.0000              0              0              0              0              0            100              0           0.00         0.0000
          13353       971.9250     45196.0000     11574.0000      3842.0000       540.0000       383.0000              0              0              0              0              0            100              0           0.00         0.0000
          13354      1026.8500     45196.0000     11574.0000      3842.0000       540.0000       383.0000              0              0              0              0              0            100              0           0.00         0.0000
          13355      1060.4250     45196.0000     11574.0000      3842.0000       540.0000       383.0000              0              0              0              0              0            100              0           0.00         0.0000
          13356      1108.0500     45196.0000     11574.0000      3842.0000       540.0000       383.0000              0              0              0              0              0            100              0           0.00         0.0000
          13357      1129.4500     45196.0000     11574.0000      3842.0000       540.0000       383.0000              0              0              0              0              0            100              0           0.00         0.0000
          13358      1153.8500     45196.0000     11574.0000      3842.0000       540.0000       383.0000              0              0              0              0              0            100              0           0.00         0.0000
          13359      1180.7000     45196.0000     11574.0000      3842.0000       540.0000       383.0000              0              0              0              0              0            100              0           0.00         0.0000
          13360      1207.5500     45196.0000     11574.0000      3842.0000       540.0000       383.0000              0              0              0              0              0            100              0           0.00         0.0000
