#___________________________________________________________________________
~VERSION INFORMATION
 VERS.                                 2.0 : CWLS LOG ASCII STANDARD - VERSION 2.0
 WRAP.                                  NO : ONE LINE PER DEPTH STEP
#___________________________________________________________________________
~WELL INFORMATION
 STRT.F                           10335.00 : START DEPTH
 STOP.F                           17886.00 : STOP DEPTH
 STEP.F                                  1 : STEP VALUE
 NULL.                             -999.25 : NULL VALUE
 COMP.      Magnolia Oil & Gas             : COMPANY
 WELL.      Grand Canyon A 1H              : WELL
  FLD.      Giddings                       : FIELD
  LOC.      Washington County              : LOCATION
 CNTY.      Washington County              : PARISH/COUNTY
 STAT.      Texas                          : STATE
 CTRY.      USA                            : COUNTRY
" SRVC.      PetroLog International, Inc.   : SERVICE COMPANY"
 DATE.      06/22/2020                     : LOG DATE
  API.      42-477-31136                   : API REFERENCE NUMBER
#___________________________________________________________________________
~CURVE INFORMATION
#MNEM.UNITS                                : DESCRIPTION
DEPTH.F                                    :  1 DEPTH
 TGAS.Units                                :  2 Chromatograph_TotalGas
 MTHX.PPM                                  :  3 Chromatograph_MethanePPMMax
 ETHX.PPM                                  :  4 Chromatograph_EthanePPMMax
 PRPX.PPM                                  :  5 Chromatograph_PropanePPMMax
 IBTX.PPM                                  :  6 Chromatograph_IButanePPMMax
 NBTX.PPM                                  :  7 Chromatograph_NButanePPMMax
CEMNT.%                                    :  8 Lithology_Cement
SHALE.%                                    :  9 Lithology_Shale
SILTST.%                                   : 10 Lithology_Siltstone
 SAND.%                                    : 11 Lithology_Sand
 LIME.%                                    : 12 Lithology_Lime
 CHLK.%                                    : 13 Lithology_Chalk
  ASH.%                                    : 14 Lithology_Ash
 FRAC.%                                    : 15 Fracture
Kick/Loss.----                             : 16 Kick/Loss
#___________________________________________________________________________
~A        DEPTH           TGAS           MTHX           ETHX           PRPX           IBTX           NBTX          CEMNT          SHALE         SILTST           SAND           LIME           CHLK            ASH           FRAC      Kick/Loss
# ...
          10845       494.5000     47835.0000      6423.0000      2041.0000       266.0000       262.0000              0              0              0              0              0            100              0           0.00         0.0000
          10846       488.4000     47835.0000      6423.0000      2041.0000       266.0000       202.0000              0              0              0              0              0            100              0           0.00         0.0000
          10847       487.8000     47835.0000      6423.0000      2041.0000       266.0000       202.0000              0              0              0              0              0            100              0           0.00         0.0000
          10848       465.2000     47835.0000      6423.0000      2041.0000       266.0000       202.0000              0              0              0              0              0            100              0           0.00         0.0000
          10849       444.4500     47835.0000      6423.0000      2041.0000       266.0000       202.0000              0              0              0              0              0            100              0           0.00         0.0000
          10850       445.6500     47835.0000      6423.0000      2041.0000       266.0000       202.0000              0              0              0              0              0            100              0           0.00         0.0000
          10851       467.6500     47835.0000      6423.0000      2041.0000       266.0000       202.0000              0              0              0              0              0            100              0           0.00         0.0000
          10852       493.2750     47835.0000      6423.0000      2041.0000       266.0000       326.0000              0              0              0              0              0            100              0           0.00         0.0000
          10853       501.8500     44084.0000      5978.0000      2000.0000       149.0000       326.0000              0              0              0              0              0            100              0           0.00         0.0000
          10854       517.7000     44084.0000      5978.0000      2000.0000       149.0000       326.0000              0              0              0              0              0            100              0           0.00         0.0000
          10855       517.7000     44084.0000      5978.0000      2000.0000       149.0000       326.0000              0              0              0              0              0            100              0           0.00         0.0000
          10856       527.5000     44084.0000      5978.0000      2000.0000       149.0000       326.0000              0              0              0              0              0            100              0           0.00         0.0000
          10857       527.5000     44084.0000      5978.0000      2000.0000       149.0000       326.0000              0              0              0              0              0            100              0           0.00         0.0000
          10858       528.7000     44084.0000      5978.0000      2000.0000       149.0000       326.0000              0              0              0              0              0            100              0           0.00         0.0000
          10859       520.1500     49513.0000      6728.0000      2128.0000       149.0000       326.0000              0              0              0              0              0            100              0           0.00         0.0000
          10860       531.7500     49513.0000      6728.0000      2128.0000       110.0000       248.0000              0              0              0              0              0            100              0           0.00         0.0000
          10861       543.9500     49513.0000      6728.0000      2128.0000       110.0000       248.0000              0              0              0              0              0            100              0           0.00         0.0000
          10862      2061.0500     75826.0000     43218.0000     23791.0000      3395.0000      7310.0000              0              0              0              0              0            100              0           0.00         0.0000
          10863       163.6000     13197.0000      3797.0000       949.0000        54.0000       111.0000              0              0              0              0              0            100              0           0.00         0.0000
          10864       162.4000     12566.0000      2605.0000       600.0000         0.0000        72.0000              0              0              0              0              0            100              0           0.00         0.0000
          10865       157.5000     12566.0000      2285.0000       514.0000         0.0000         0.0000              0              0              0              0              0            100              0           0.00         0.0000
          10866       152.6500     12566.0000      2285.0000       514.0000         0.0000         0.0000              0              0              0              0              0            100              0           0.00         0.0000
          10867       155.0500     12079.0000      1948.0000       453.0000         0.0000         0.0000              0              0              0              0              0            100              0           0.00         0.0000
          10868       152.6500     12079.0000      1948.0000       453.0000         0.0000         0.0000              0              0              0              0              0            100              0           0.00         0.0000
          10869       147.7500     11570.0000      1738.0000       403.0000         0.0000         0.0000              0              0              0              0              0            100              0           0.00         0.0000
          10870       147.7500     11570.0000      1738.0000       403.0000         0.0000         0.0000              0              0              0              0              0            100              0           0.00         0.0000
          10871       158.7500     12434.0000      1738.0000       458.0000         0.0000        52.0000              0              0              0              0              0             97              3           0.00         0.0000
          10872       145.3000     10620.0000      1294.0000       386.0000         0.0000         0.0000              0              0              0              0              0             97              3           0.00         0.0000
          10873       148.9750     11016.0000      1339.0000       408.0000         0.0000         0.0000              0              0              0              0              0             97              3           0.00         0.0000
          10874       153.8500     11016.0000      1339.0000       408.0000         0.0000         0.0000              0              0              0              0              0             97              3           0.00         0.0000
          10875       158.7500     11791.0000      1605.0000       585.0000         0.0000         0.0000              0              0              0              0              0             97              3           0.00         0.0000
          10876       170.9500     11791.0000      1605.0000       585.0000         0.0000         0.0000              0              0              0              0              0             97              3           0.00         0.0000
          10877       181.3250     11791.0000      1949.0000       912.0000        61.0000       127.0000              0              0              0              0              0             97              3           0.00         0.0000
          10878       190.5000     11659.0000      1949.0000       912.0000        61.0000       127.0000              0              0              0              0              0             97              3           0.00         0.0000
