#___________________________________________________________________________
~VERSION INFORMATION
 VERS.                                 2.0 : CWLS LOG ASCII STANDARD - VERSION 2.0
 WRAP.                                  NO : ONE LINE PER DEPTH STEP
#___________________________________________________________________________
~WELL INFORMATION
 STRT.F                           10335.00 : START DEPTH
 STOP.F                           17886.00 : STOP DEPTH
 STEP.F                                  1 : STEP VALUE
 NULL.                             -999.25 : NULL VALUE
 COMP.      Magnolia Oil & Gas             : COMPANY
 WELL.      Grand Canyon A 1H              : WELL
  FLD.      Giddings                       : FIELD
  LOC.      Washington County              : LOCATION
 CNTY.      Washington County              : PARISH/COUNTY
 STAT.      Texas                          : STATE
 CTRY.      USA                            : COUNTRY
" SRVC.      PetroLog International, Inc.   : SERVICE COMPANY"
 DATE.      06/22/2020                     : LOG DATE
  API.      42-477-31136                   : API REFERENCE NUMBER
#___________________________________________________________________________
~CURVE INFORMATION
#MNEM.UNITS                                : DESCRIPTION
DEPTH.F                                    :  1 DEPTH
 TGAS.Units                                :  2 Chromatograph_TotalGas
 MTHX.PPM                                  :  3 Chromatograph_MethanePPMMax
 ETHX.PPM                                  :  4 Chromatograph_EthanePPMMax
 PRPX.PPM                                  :  5 Chromatograph_PropanePPMMax
 IBTX.PPM                                  :  6 Chromatograph_IButanePPMMax
 NBTX.PPM                                  :  7 Chromatograph_NButanePPMMax
CEMNT.%                                    :  8 Lithology_Cement
SHALE.%                                    :  9 Lithology_Shale
SILTST.%                                   : 10 Lithology_Siltstone
 SAND.%                                    : 11 Lithology_Sand
 LIME.%                                    : 12 Lithology_Lime
 CHLK.%                                    : 13 Lithology_Chalk
  ASH.%                                    : 14 Lithology_Ash
 FRAC.%                                    : 15 Fracture
Kick/Loss.----                             : 16 Kick/Loss
#___________________________________________________________________________
~A        DEPTH           TGAS           MTHX           ETHX           PRPX           IBTX           NBTX          CEMNT          SHALE         SILTST           SAND           LIME           CHLK            ASH           FRAC      Kick/Loss
# ...
          15333      1732.6000    120000.0000     35611.0000     13318.0000      2203.0000      3646.0000              0              0              0              0              0            100              0           0.25         0.0000
          15334      1850.4250    120000.0000     35611.0000     13318.0000      2203.0000      3646.0000              0              0              0              0              0            100              0           0.25         0.0000
          15335      1895.0000    120000.0000     35611.0000     13318.0000      2203.0000      3646.0000              0              0              0              0              0            100              0           0.25         0.0000
          15336      1895.0000    120000.0000     35611.0000     13318.0000      2203.0000      3646.0000              0              0              0              0              0            100              0           0.25         0.0000
          15337      1864.4500    120000.0000     35611.0000     13318.0000      2203.0000      3646.0000              0              0              0              0              0            100              0           0.25         0.0000
          15338      1792.4250    120000.0000     35611.0000     13318.0000      2203.0000      3646.0000              0              0              0              0              0            100              0           0.25         0.0000
          15339      1746.0250    120000.0000     35611.0000     13318.0000      2203.0000      3646.0000              0              0              0              0              0            100              0           0.25         0.0000
          15340      1710.6500    120000.0000     35611.0000     13318.0000      2203.0000      3646.0000              0              0              0              0              0            100              0           0.25         0.0000
          15341      1754.6000    120000.0000     35611.0000     13318.0000      2203.0000      3646.0000              0              0              0              0              0            100              0           0.25         0.0000
          15342      1830.3000    120000.0000     35611.0000     13318.0000      2203.0000      3646.0000              0              0              0              0              0            100              0           0.25         0.0000
          15343      1868.1500    120000.0000     35611.0000     13318.0000      2203.0000      3646.0000              0              0              0              0              0            100              0           0.25         0.0000
          15344      1865.0750    120000.0000     35611.0000     13318.0000      2203.0000      3646.0000              0              0              0              0              0            100              0           0.25         0.0000
          15345      1844.9500    120000.0000     35611.0000     13318.0000      2203.0000      3646.0000              0              0              0              0              0            100              0           0.25         0.0000
          15346      1862.6500    120000.0000     35611.0000     13318.0000      2203.0000      3646.0000              0              0              0              0              0            100              0           0.25         0.0000
          15347      1859.6000    120000.0000     35611.0000     13318.0000      2203.0000      3646.0000              0              0              0              0              0            100              0           0.25         0.0000
          15348      1744.8250    120000.0000     35611.0000     13318.0000      2203.0000      3646.0000              0              0              0              0              0            100              0           0.25         0.0000
          15349      1578.1250    120000.0000     35611.0000     13318.0000      2203.0000      3646.0000              0              0              0              0              0            100              0           0.25         0.0000
          15350      1382.8000    120000.0000     35611.0000     13318.0000      2203.0000      3646.0000              0              0              0              0              0            100              0           0.25         0.0000
          15351      1252.7500    120000.0000     35611.0000     13318.0000      2203.0000      3646.0000              0              0              0              0              0            100              0           0.25         0.0000
          15352      1208.8000    120000.0000     35611.0000     13318.0000      2203.0000      3646.0000              0              0              0              0              0            100              0           0.25         0.0000
          15353      1216.7250    120000.0000     35611.0000     13318.0000      2203.0000      3646.0000              0              0              0              0              0            100              0           0.25         0.0000
          15354      1200.2500     88752.0000     35611.0000     13318.0000      2203.0000      3646.0000              0              0              0              0              0            100              0           0.25         0.0000
          15355      1317.4500     88752.0000     32717.0000     12548.0000      2003.0000      3205.0000              0              0              0              0              0            100              0           0.25         0.0000
          15356      1539.7000     88752.0000     32717.0000     12548.0000      2003.0000      3205.0000              0              0              0              0              0            100              0           0.25         0.0000
          15357      1464.0000     88752.0000     32717.0000     12548.0000      2003.0000      3205.0000              0              0              0              0              0            100              0           0.25         0.0000
          15358      1277.1500     88752.0000     32717.0000     12548.0000      2003.0000      3205.0000              0              0              0              0              0            100              0           0.25         0.0000
          15359       951.1500     88752.0000     32717.0000     12548.0000      2003.0000      3205.0000              0              0              0              0              0            100              0           0.25         0.0000
          15360       689.2750     88752.0000     32717.0000     12548.0000      2003.0000      3205.0000              0              0              0              0              0            100              0           0.25         0.0000
          15361       518.3000     88752.0000     32717.0000     12548.0000      2003.0000      3205.0000              0              0              0              0              0            100              0           0.25         0.0000
          15362       412.0750     88752.0000     32717.0000     12548.0000      2003.0000      3205.0000              0              0              0              0              0            100              0           0.25         0.0000
          15363       339.4250     88752.0000     32717.0000     12548.0000      2003.0000      3205.0000              0              0              0              0              0            100              0           0.25         0.0000
          15364       289.4000     88752.0000     32717.0000     12548.0000      2003.0000      3205.0000              0              0              0              0              0            100              0           0.25         0.0000
          15365       256.4000     88752.0000     32717.0000     12548.0000      2003.0000      3205.0000              0              0              0              0              0            100              0           0.25         0.0000
          15366       238.1000     88752.0000     32717.0000     12548.0000      2003.0000      3205.0000              0              0              0              0              0            100              0           0.25         0.0000
