#___________________________________________________________________________
~VERSION INFORMATION
 VERS.                                 2.0 : CWLS LOG ASCII STANDARD - VERSION 2.0
 WRAP.                                  NO : ONE LINE PER DEPTH STEP
#___________________________________________________________________________
~WELL INFORMATION
 STRT.F                           10335.00 : START DEPTH
 STOP.F                           17886.00 : STOP DEPTH
 STEP.F                                  1 : STEP VALUE
 NULL.                             -999.25 : NULL VALUE
 COMP.      Magnolia Oil & Gas             : COMPANY
 WELL.      Grand Canyon A 1H              : WELL
  FLD.      Giddings                       : FIELD
  LOC.      Washington County              : LOCATION
 CNTY.      Washington County              : PARISH/COUNTY
 STAT.      Texas                          : STATE
 CTRY.      USA                            : COUNTRY
" SRVC.      PetroLog International, Inc.   : SERVICE COMPANY"
 DATE.      06/22/2020                     : LOG DATE
  API.      42-477-31136                   : API REFERENCE NUMBER
#___________________________________________________________________________
~CURVE INFORMATION
#MNEM.UNITS                                : DESCRIPTION
DEPTH.F                                    :  1 DEPTH
 TGAS.Units                                :  2 Chromatograph_TotalGas
 MTHX.PPM                                  :  3 Chromatograph_MethanePPMMax
 ETHX.PPM                                  :  4 Chromatograph_EthanePPMMax
 PRPX.PPM                                  :  5 Chromatograph_PropanePPMMax
 IBTX.PPM                                  :  6 Chromatograph_IButanePPMMax
 NBTX.PPM                                  :  7 Chromatograph_NButanePPMMax
CEMNT.%                                    :  8 Lithology_Cement
SHALE.%                                    :  9 Lithology_Shale
SILTST.%                                   : 10 Lithology_Siltstone
 SAND.%                                    : 11 Lithology_Sand
 LIME.%                                    : 12 Lithology_Lime
 CHLK.%                                    : 13 Lithology_Chalk
  ASH.%                                    : 14 Lithology_Ash
 FRAC.%                                    : 15 Fracture
Kick/Loss.----                             : 16 Kick/Loss
#___________________________________________________________________________
~A        DEPTH           TGAS           MTHX           ETHX           PRPX           IBTX           NBTX          CEMNT          SHALE         SILTST           SAND           LIME           CHLK            ASH           FRAC      Kick/Loss
# ...
          11321       158.1250     68924.0000      9623.0000      3138.0000       357.0000       794.0000              0              0              0              0              0            100              0           0.50         0.0000
          11322       136.1500     68924.0000      9623.0000      3138.0000       357.0000       794.0000              0              0              0              0              0            100              0           0.50         0.0000
          11323       129.4500     68924.0000      9623.0000      3138.0000       357.0000       794.0000              0              0              0              0              0            100              0           0.50         0.0000
          11324       119.6500     68924.0000      9623.0000      3138.0000       357.0000       794.0000              0              0              0              0              0            100              0           0.50         0.0000
          11325       111.1000      3567.0000       590.0000       271.0000         0.0000        66.0000              0              0              0              0              0            100              0           0.50         0.0000
          11326       102.5500      3567.0000       590.0000       271.0000         0.0000        66.0000              0              0              0              0              0            100              0           0.50         0.0000
          11327        95.2500      3567.0000       590.0000       271.0000         0.0000        66.0000              0              0              0              0              0            100              0           0.50         0.0000
          11328        95.2500      3567.0000       590.0000       271.0000         0.0000        66.0000              0              0              0              0              0            100              0           0.50         0.0000
          11329       116.6000      3567.0000       590.0000       271.0000         0.0000        66.0000              0              0              0              0              0            100              0           0.50         0.0000
          11330       147.7500      3567.0000       590.0000       271.0000         0.0000        66.0000              0              0              0              0              0            100              0           0.50         0.0000
          11331       153.8500      3567.0000       590.0000       271.0000         0.0000        66.0000              0              0              0              0              0            100              0           0.50         0.0000
          11332       147.7500      3567.0000       590.0000       271.0000         0.0000        66.0000              0              0              0              0              0            100              0           0.50         0.0000
          11333       127.0000      3567.0000       590.0000       271.0000         0.0000        66.0000              0              0              0              0              0            100              0           0.50         0.0000
          11334       111.7250      3567.0000       590.0000       271.0000         0.0000        66.0000              0              0              0              0              0            100              0           0.50         0.0000
          11335        97.7000      3567.0000       590.0000       271.0000         0.0000        66.0000              0              0              0              0              0            100              0           0.50         0.0000
          11336        92.8000      3567.0000       590.0000       271.0000         0.0000        66.0000              0              0              0              0              0            100              0           0.50         0.0000
          11337        86.7000      3567.0000       590.0000       271.0000         0.0000        66.0000              0              0              0              0              0            100              0           0.50         0.0000
          11338       681.3000     75782.0000     10800.0000      3346.0000       351.0000       683.0000              0              0              0              0              0            100              0           0.50         0.0000
          11339       689.8500     75782.0000     10800.0000      3346.0000       351.0000       683.0000              0              0              0              0              0            100              0           0.50         0.0000
          11340       691.1000     75782.0000     10800.0000      3346.0000       351.0000       683.0000              0              0              0              0              0            100              0           0.50         0.0000
          11341       694.7500     75782.0000     10800.0000      3346.0000       351.0000       683.0000              0              0              0              0              0            100              0           0.50         0.0000
          11342       700.8500     75782.0000     10800.0000      3346.0000       351.0000       683.0000              0              0              0              0              0            100              0           0.50         0.0000
          11343       702.1000     75782.0000     10800.0000      3346.0000       351.0000       683.0000              0              0              0              0              0            100              0           0.50         0.0000
          11344       699.0250     75782.0000     10800.0000      3346.0000       351.0000       683.0000              0              0              0              0              0            100              0           0.50         0.0000
          11345       684.3750     75782.0000     10800.0000      3346.0000       351.0000       683.0000              0              0              0              0              0            100              0           0.50         0.0000
          11346       675.8250     75782.0000     10800.0000      3346.0000       351.0000       683.0000              0              0              0              0              0            100              0           0.50         0.0000
          11347       696.5750     75782.0000     10800.0000      3346.0000       351.0000       683.0000              0              0              0              0              0            100              0           0.50         0.0000
          11348       719.1500     75782.0000     10800.0000      3346.0000       351.0000       683.0000              0              0              0              0              0            100              0           0.50         0.0000
          11349       744.8000     75782.0000     10800.0000      3346.0000       351.0000       683.0000              0              0              0              0              0            100              0           0.50         0.0000
          11350       777.8000     75782.0000     10800.0000      3346.0000       351.0000       683.0000              0              0              0              0              0            100              0           0.50         0.0000
          11351       812.5750     75782.0000     10800.0000      3346.0000       351.0000       683.0000              0              0              0              0              0            100              0           0.50         0.0000
          11352       838.8500     75782.0000     10800.0000      3346.0000       351.0000       683.0000              0              0              0              0              0            100              0           0.50         0.0000
          11353       862.0500     75782.0000     10800.0000      3346.0000       351.0000       683.0000              0              0              0              0              0            100              0           0.50         0.0000
          11354       885.2500     75782.0000     10800.0000      3346.0000       351.0000       683.0000              0              0              0              0              0            100              0           0.50         0.0000
