#___________________________________________________________________________
~VERSION INFORMATION
 VERS.                                 2.0 : CWLS LOG ASCII STANDARD - VERSION 2.0
 WRAP.                                  NO : ONE LINE PER DEPTH STEP
#___________________________________________________________________________
~WELL INFORMATION
 STRT.F                           10335.00 : START DEPTH
 STOP.F                           17886.00 : STOP DEPTH
 STEP.F                                  1 : STEP VALUE
 NULL.                             -999.25 : NULL VALUE
 COMP.      Magnolia Oil & Gas             : COMPANY
 WELL.      Grand Canyon A 1H              : WELL
  FLD.      Giddings                       : FIELD
  LOC.      Washington County              : LOCATION
 CNTY.      Washington County              : PARISH/COUNTY
 STAT.      Texas                          : STATE
 CTRY.      USA                            : COUNTRY
" SRVC.      PetroLog International, Inc.   : SERVICE COMPANY"
 DATE.      06/22/2020                     : LOG DATE
  API.      42-477-31136                   : API REFERENCE NUMBER
#___________________________________________________________________________
~CURVE INFORMATION
#MNEM.UNITS                                : DESCRIPTION
DEPTH.F                                    :  1 DEPTH
 TGAS.Units                                :  2 Chromatograph_TotalGas
 MTHX.PPM                                  :  3 Chromatograph_MethanePPMMax
 ETHX.PPM                                  :  4 Chromatograph_EthanePPMMax
 PRPX.PPM                                  :  5 Chromatograph_PropanePPMMax
 IBTX.PPM                                  :  6 Chromatograph_IButanePPMMax
 NBTX.PPM                                  :  7 Chromatograph_NButanePPMMax
CEMNT.%                                    :  8 Lithology_Cement
SHALE.%                                    :  9 Lithology_Shale
SILTST.%                                   : 10 Lithology_Siltstone
 SAND.%                                    : 11 Lithology_Sand
 LIME.%                                    : 12 Lithology_Lime
 CHLK.%                                    : 13 Lithology_Chalk
  ASH.%                                    : 14 Lithology_Ash
 FRAC.%                                    : 15 Fracture
Kick/Loss.----                             : 16 Kick/Loss
#___________________________________________________________________________
~A        DEPTH           TGAS           MTHX           ETHX           PRPX           IBTX           NBTX          CEMNT          SHALE         SILTST           SAND           LIME           CHLK            ASH           FRAC      Kick/Loss
# ...
          14347      1238.6248    136524.0000     29364.0000      8531.0000      1424.0000      2241.0000              0              0              0              0              0            100              0           0.00         0.0000
          14348      1223.2691    136524.0000     29364.0000      8531.0000      1424.0000      2241.0000              0              0              0              0              0            100              0           0.00         0.0000
          14349      1228.8398    136524.0000     29364.0000      8531.0000      1424.0000      2241.0000              0              0              0              0              0            100              0           0.00         0.0000
          14350      1221.6208    136524.0000     29364.0000      8531.0000      1424.0000      2241.0000              0              0              0              0              0            100              0           0.00         0.0000
          14351      1228.4073    136524.0000     29364.0000      8531.0000      1424.0000      2241.0000              0              0              0              0              0            100              0           2.00         0.0000
          14352      1222.9185    136524.0000     29364.0000      8531.0000      1424.0000      2241.0000              0              0              0              0              0            100              0           2.00         0.0000
          14353      1213.0750    136524.0000     29364.0000      8531.0000      1424.0000      2241.0000              0              0              0              0              0            100              0           2.00         0.0000
          14354      1239.3000    136524.0000     29364.0000      8531.0000      1424.0000      2241.0000              0              0              0              0              0            100              0           2.00         0.0000
          14355      1246.6500    136524.0000     29364.0000      8531.0000      1424.0000      2241.0000              0              0              0              0              0            100              0           2.00         0.0000
          14356      1245.4000    136524.0000     29364.0000      8531.0000      1424.0000      2241.0000              0              0              0              0              0            100              0           2.00         0.0000
          14357      1220.4000    136524.0000     29364.0000      8531.0000      1424.0000      2241.0000              0              0              0              0              0            100              0           2.00         0.0000
          14358      1283.2750    136524.0000     29364.0000      8531.0000      1424.0000      2241.0000              0              0              0              0              0            100              0           2.00         0.0000
          14359      1307.7000    136524.0000     29364.0000      8531.0000      1424.0000      2241.0000              0              0              0              0              0            100              0           2.00         0.0000
          14360      1296.7000    136524.0000     29364.0000      8531.0000      1424.0000      2241.0000              0              0              0              0              0            100              0           2.00         0.0000
          14361      1240.5500    136524.0000     29364.0000      8531.0000      1424.0000      2241.0000              0              0              0              0              0            100              0           2.00         0.0000
          14362      1305.2500    136524.0000     29364.0000      8531.0000      1424.0000      2241.0000              0              0              0              0              0            100              0           2.00         0.0000
          14363      1379.1250    136524.0000     29364.0000      8531.0000      1424.0000      2241.0000              0              0              0              0              0            100              0           2.00         0.0000
          14364      1384.6000    136524.0000     29364.0000      8531.0000      1424.0000      2241.0000              0              0              0              0              0            100              0           2.00         0.0000
          14365      1345.5500    158635.0000     31870.0000      8850.0000      1347.0000      2121.0000              0              0              0              0              0            100              0           2.00         0.0000
          14366      1323.5500    158635.0000     31870.0000      8850.0000      1347.0000      2121.0000              0              0              0              0              0            100              0           2.00         0.0000
          14367      1334.5500    158635.0000     31870.0000      8850.0000      1347.0000      2121.0000              0              0              0              0              0            100              0           2.00         0.0000
          14368      1418.2000    158635.0000     31870.0000      8850.0000      1347.0000      2121.0000              0              0              0              0              0            100              0           2.00         0.0000
          14369      1494.5000    158635.0000     31870.0000      8850.0000      1347.0000      2121.0000              0              0              0              0              0            100              0           2.00         0.0000
          14370      1687.4500    158635.0000     35616.0000     11829.0000      1947.0000      3146.0000              0              0              0              0              0            100              0           2.00         0.0000
          14371      1223.4500    127710.0000     35616.0000     11829.0000      1947.0000      3146.0000              0              0              0              0              0            100              0           2.00         0.0000
          14372      1080.6000    127710.0000     35616.0000     11829.0000      1947.0000      3146.0000              0              0              0              0              0            100              0           2.00         0.0000
          14373      1023.8000    127710.0000     35616.0000     11829.0000      1947.0000      3146.0000              0              0              0              0              0            100              0           2.00         0.0000
          14374      1065.9500    127710.0000     35616.0000     11829.0000      1947.0000      3146.0000              0              0              0              0              0            100              0           2.00         0.0000
          14375      1140.4000    127710.0000     35616.0000     11829.0000      1947.0000      3146.0000              0              0              0              0              0            100              0           2.00         0.0000
          14376      1202.0750    127710.0000     35616.0000     11829.0000      1947.0000      3146.0000              0              0              0              0              0            100              0           2.00         0.0000
          14377      1263.7500    127710.0000     35616.0000     11829.0000      1947.0000      3146.0000              0              0              0              0              0            100              0           2.00         0.0000
          14378      1347.3750    127710.0000     35616.0000     11829.0000      1947.0000      3146.0000              0              0              0              0              0            100              0           2.00         0.0000
          14379      1415.1500    127710.0000     35616.0000     11829.0000      1947.0000      3146.0000              0              0              0              0              0            100              0           2.00         0.0000
          14380      1459.1000    127710.0000     35616.0000     11829.0000      1947.0000      3146.0000              0              0              0              0              0            100              0           2.00         0.0000
