#___________________________________________________________________________
~VERSION INFORMATION
 VERS.                                 2.0 : CWLS LOG ASCII STANDARD - VERSION 2.0
 WRAP.                                  NO : ONE LINE PER DEPTH STEP
#___________________________________________________________________________
~WELL INFORMATION
 STRT.F                           10335.00 : START DEPTH
 STOP.F                           17886.00 : STOP DEPTH
 STEP.F                                  1 : STEP VALUE
 NULL.                             -999.25 : NULL VALUE
 COMP.      Magnolia Oil & Gas             : COMPANY
 WELL.      Grand Canyon A 1H              : WELL
  FLD.      Giddings                       : FIELD
  LOC.      Washington County              : LOCATION
 CNTY.      Washington County              : PARISH/COUNTY
 STAT.      Texas                          : STATE
 CTRY.      USA                            : COUNTRY
" SRVC.      PetroLog International, Inc.   : SERVICE COMPANY"
 DATE.      06/22/2020                     : LOG DATE
  API.      42-477-31136                   : API REFERENCE NUMBER
#___________________________________________________________________________
~CURVE INFORMATION
#MNEM.UNITS                                : DESCRIPTION
DEPTH.F                                    :  1 DEPTH
 TGAS.Units                                :  2 Chromatograph_TotalGas
 MTHX.PPM                                  :  3 Chromatograph_MethanePPMMax
 ETHX.PPM                                  :  4 Chromatograph_EthanePPMMax
 PRPX.PPM                                  :  5 Chromatograph_PropanePPMMax
 IBTX.PPM                                  :  6 Chromatograph_IButanePPMMax
 NBTX.PPM                                  :  7 Chromatograph_NButanePPMMax
CEMNT.%                                    :  8 Lithology_Cement
SHALE.%                                    :  9 Lithology_Shale
SILTST.%                                   : 10 Lithology_Siltstone
 SAND.%                                    : 11 Lithology_Sand
 LIME.%                                    : 12 Lithology_Lime
 CHLK.%                                    : 13 Lithology_Chalk
  ASH.%                                    : 14 Lithology_Ash
 FRAC.%                                    : 15 Fracture
Kick/Loss.----                             : 16 Kick/Loss
#___________________________________________________________________________
~A        DEPTH           TGAS           MTHX           ETHX           PRPX           IBTX           NBTX          CEMNT          SHALE         SILTST           SAND           LIME           CHLK            ASH           FRAC      Kick/Loss
# ...
          14857      1355.3000    137164.0000     25434.0000      7105.0000      1078.0000      1845.0000              0              0              0              0              0            100              0           0.00        -1.0000
          14858      1406.6000    137164.0000     25434.0000      7105.0000      1078.0000      1878.0000              0              0              0              0              0            100              0           0.00        -1.0000
          14859      1283.8750    119182.0000     22921.0000      6843.0000       999.0000      1878.0000              0              0              0              0              0            100              0           0.00        -1.0000
          14860      1318.7000    135909.0000     26557.0000      7761.0000      1154.0000      1890.0000              0              0              0              0              0            100              0           0.00        -1.0000
          14861      1304.6500    135909.0000     26557.0000      7761.0000      1154.0000      1890.0000              0              0              0              0              0            100              0           0.00        -1.0000
          14862      1315.0000    135909.0000     27394.0000      8274.0000      1238.0000      2033.0000              0              0              0              0              0            100              0           0.00        -1.0000
          14863       683.7500    129737.0000     27394.0000      8274.0000      1238.0000      2033.0000              0              0              0              0              0            100              0           0.00        -1.0000
          14864      1211.2500      3015.0000      1049.0000       666.0000        73.0000       394.0000              0              0              0              0              0            100              0           0.00        -1.0000
          14865      1415.1500    126321.0000     28324.0000      8473.0000      1247.0000      2058.0000              0              0              0              0              0            100              0           0.00        -1.0000
          14866      1354.1000    126321.0000     28324.0000      8473.0000      1247.0000      2058.0000              0              0              0              0              0            100              0           0.00        -1.0000
          14867      1339.4500    128053.0000     29547.0000      8937.0000      1307.0000      2146.0000              0              0              0              0              0            100              0           0.00        -1.0000
          14868      1302.8000    128053.0000     29547.0000      8937.0000      1307.0000      2146.0000              0              0              0              0              0            100              0           0.00        -1.0000
          14869      1280.8500    128053.0000     29547.0000      8937.0000      1307.0000      2182.0000              0              0              0              0              0            100              0           0.00        -1.0000
          14870      1282.0500    118428.0000     28223.0000      8722.0000      1280.0000      2182.0000              0              0              0              0              0            100              0           0.00        -1.0000
          14871      1332.1000    118428.0000     28223.0000      8722.0000      1280.0000      2182.0000              0              0              0              0              0            100              0           0.00        -1.0000
          14872      1340.0500    118428.0000     28223.0000      8722.0000      1280.0000      2182.0000              0              0              0              0              0            100              0           0.00        -1.0000
          14873      1333.9500    118428.0000     28223.0000      8722.0000      1280.0000      2182.0000              0              0              0              0              0            100              0           0.00        -1.0000
          14874      1329.6500    118428.0000     28223.0000      8722.0000      1280.0000      2182.0000              0              0              0              0              0            100              0           0.00        -1.0000
          14875      1329.6500    118428.0000     28223.0000      8722.0000      1280.0000      2182.0000              0              0              0              0              0            100              0           0.00        -1.0000
          14876      1324.8000    118428.0000     28223.0000      8722.0000      1280.0000      2182.0000              0              0              0              0              0            100              0           0.00        -1.0000
          14877      1313.2000    118428.0000     28223.0000      8722.0000      1280.0000      2182.0000              0              0              0              0              0            100              0           0.00        -1.0000
          14878      1292.4250    118428.0000     28223.0000      8722.0000      1280.0000      2182.0000              0              0              0              0              0            100              0           0.00        -1.0000
          14879      1264.9500    118428.0000     28223.0000      8722.0000      1280.0000      2182.0000              0              0              0              0              0            100              0           0.00        -1.0000
          14880      1266.2000    118428.0000     28223.0000      8722.0000      1280.0000      2182.0000              0              0              0              0              0            100              0           0.00        -1.0000
          14881      1269.8500    118428.0000     28223.0000      8722.0000      1280.0000      2182.0000              0              0              0              0              0            100              0           0.00        -1.0000
          14882      1271.0500    118428.0000     28223.0000      8722.0000      1280.0000      2182.0000              0              0              0              0              0            100              0           0.00        -1.0000
          14883      1280.8500    118428.0000     28223.0000      8722.0000      1280.0000      2182.0000              0              0              0              0              0            100              0           0.00        -1.0000
          14884      1294.8750    125355.0000     29013.0000      8722.0000      1280.0000      2182.0000              0              0              0              0              0            100              0           0.00        -1.0000
          14885      1344.3000    125355.0000     29013.0000      8711.0000      1243.0000      2130.0000              0              0              0              0              0            100              0           0.00        -1.0000
          14886      1349.2000    125355.0000     29013.0000      8711.0000      1243.0000      2130.0000              0              0              0              0              0            100              0           0.00        -1.0000
          14887      1349.2000    125355.0000     29013.0000      8711.0000      1243.0000      2130.0000              0              0              0              0              0            100              0           0.00        -1.0000
          14888      1344.3000    125355.0000     29013.0000      8711.0000      1243.0000      2130.0000              0              0              0              0              0            100              0           0.00        -1.0000
          14889      1342.5000    125355.0000     29013.0000      8711.0000      1243.0000      2130.0000              0              0              0              0              0            100              0           0.00        -1.0000
          14890      1344.3000    125355.0000     29013.0000      8711.0000      1243.0000      2130.0000              0              0              0              0              0            100              0           0.00        -1.0000
