#___________________________________________________________________________
~VERSION INFORMATION
 VERS.                                 2.0 : CWLS LOG ASCII STANDARD - VERSION 2.0
 WRAP.                                  NO : ONE LINE PER DEPTH STEP
#___________________________________________________________________________
~WELL INFORMATION
 STRT.F                           10335.00 : START DEPTH
 STOP.F                           17886.00 : STOP DEPTH
 STEP.F                                  1 : STEP VALUE
 NULL.                             -999.25 : NULL VALUE
 COMP.      Magnolia Oil & Gas             : COMPANY
 WELL.      Grand Canyon A 1H              : WELL
  FLD.      Giddings                       : FIELD
  LOC.      Washington County              : LOCATION
 CNTY.      Washington County              : PARISH/COUNTY
 STAT.      Texas                          : STATE
 CTRY.      USA                            : COUNTRY
" SRVC.      PetroLog International, Inc.   : SERVICE COMPANY"
 DATE.      06/22/2020                     : LOG DATE
  API.      42-477-31136                   : API REFERENCE NUMBER
#___________________________________________________________________________
~CURVE INFORMATION
#MNEM.UNITS                                : DESCRIPTION
DEPTH.F                                    :  1 DEPTH
 TGAS.Units                                :  2 Chromatograph_TotalGas
 MTHX.PPM                                  :  3 Chromatograph_MethanePPMMax
 ETHX.PPM                                  :  4 Chromatograph_EthanePPMMax
 PRPX.PPM                                  :  5 Chromatograph_PropanePPMMax
 IBTX.PPM                                  :  6 Chromatograph_IButanePPMMax
 NBTX.PPM                                  :  7 Chromatograph_NButanePPMMax
CEMNT.%                                    :  8 Lithology_Cement
SHALE.%                                    :  9 Lithology_Shale
SILTST.%                                   : 10 Lithology_Siltstone
 SAND.%                                    : 11 Lithology_Sand
 LIME.%                                    : 12 Lithology_Lime
 CHLK.%                                    : 13 Lithology_Chalk
  ASH.%                                    : 14 Lithology_Ash
 FRAC.%                                    : 15 Fracture
Kick/Loss.----                             : 16 Kick/Loss
#___________________________________________________________________________
~A        DEPTH           TGAS           MTHX           ETHX           PRPX           IBTX           NBTX          CEMNT          SHALE         SILTST           SAND           LIME           CHLK            ASH           FRAC      Kick/Loss
# ...
          12341      1118.4500    123749.0000     19415.0000      5607.0000       930.0000      1543.0000              0              0              0              0              0            100              0           0.00         0.0000
          12342      1112.3500    123749.0000     19415.0000      5607.0000       930.0000      1543.0000              0              0              0              0              0            100              0           0.00         0.0000
          12343      1130.6500    123749.0000     19415.0000      5607.0000       930.0000      1543.0000              0              0              0              0              0            100              0           0.00         0.0000
          12344      1155.0500    123749.0000     19415.0000      5607.0000       930.0000      1543.0000              0              0              0              0              0            100              0           0.00         0.0000
          12345      1174.6000    123749.0000     19415.0000      5607.0000       930.0000      1543.0000              0              0              0              0              0            100              0           0.00         0.0000
          12346      1173.4000    123749.0000     19415.0000      5607.0000       930.0000      1543.0000              0              0              0              0              0            100              0           0.00         0.0000
          12347      1159.9500    123749.0000     19415.0000      5607.0000       930.0000      1543.0000              0              0              0              0              0            100              0           0.00         0.0000
          12348      1131.8500    123749.0000     19415.0000      5607.0000       930.0000      1543.0000              0              0              0              0              0            100              0           0.00         0.0000
          12349      1111.1000    123749.0000     19415.0000      5607.0000       930.0000      1543.0000              0              0              0              0              0            100              0           0.00         0.0000
          12350      1117.2000    123749.0000     19415.0000      5607.0000       930.0000      1543.0000              0              0              0              0              0            100              0           0.00         0.0000
          12351      1118.4500    123749.0000     19415.0000      5607.0000       930.0000      1543.0000              0              0              0              0              0            100              0           0.00         0.0000
          12352      1113.5500    123749.0000     19415.0000      5607.0000       930.0000      1543.0000              0              0              0              0              0            100              0           0.00         0.0000
          12353      1111.1000    123749.0000     19415.0000      5607.0000       930.0000      1543.0000              0              0              0              0              0            100              0           0.00         0.0000
          12354      1106.8500    123749.0000     19415.0000      5607.0000       930.0000      1543.0000              0              0              0              0              0            100              0           0.00         0.0000
          12355      1101.3500    123749.0000     19415.0000      5607.0000       930.0000      1543.0000              0              0              0              0              0            100              0           0.00         0.0000
          12356      1080.6000    123749.0000     19415.0000      5607.0000       930.0000      1543.0000              0              0              0              0              0            100              0           0.00         0.0000
          12357      1051.3000    123749.0000     19415.0000      5607.0000       930.0000      1543.0000              0              0              0              0              0            100              0           0.00         0.0000
          12358      1040.9000    123749.0000     19415.0000      5607.0000       930.0000      1543.0000              0              0              0              0              0            100              0           0.00         0.0000
          12359      1042.7500    123749.0000     19415.0000      5607.0000       930.0000      1543.0000              0              0              0              0              0            100              0           0.00         0.0000
          12360      1043.3500    123749.0000     19415.0000      5607.0000       930.0000      1543.0000              0              0              0              0              0            100              0           0.00         0.0000
          12361      1042.7500    123749.0000     19415.0000      5607.0000       930.0000      1543.0000              0              0              0              0              0            100              0           0.00         0.0000
          12362      1047.6000    123749.0000     19415.0000      5607.0000       930.0000      1543.0000              0              0              0              0              0            100              0           0.00         0.0000
          12363      1055.5500    123749.0000     19415.0000      5607.0000       930.0000      1543.0000              0              0              0              0              0            100              0           0.00         0.0000
          12364      1067.1500    123749.0000     19415.0000      5607.0000       930.0000      1543.0000              0              0              0              0              0            100              0           0.00         0.0000
          12365      1082.4250    124444.0000     19415.0000      5607.0000       930.0000      1543.0000              0              0              0              0              0            100              0           0.00         0.0000
          12366      1082.4250    124444.0000     18612.0000      5387.0000       849.0000      1441.0000              0              0              0              0              0            100              0           0.00         0.0000
          12367      1070.8000    124444.0000     18612.0000      5387.0000       849.0000      1441.0000              0              0              0              0              0            100              0           0.00         0.0000
          12368      1048.8500    124444.0000     18612.0000      5387.0000       849.0000      1441.0000              0              0              0              0              0            100              0           0.00         0.0000
          12369      1043.3500    124444.0000     18612.0000      5387.0000       849.0000      1441.0000              0              0              0              0              0            100              0           0.00         0.0000
          12370      1062.8750    124444.0000     18612.0000      5387.0000       849.0000      1441.0000              0              0              0              0              0            100              0           0.00         0.0000
          12371      1081.8000    124444.0000     18612.0000      5387.0000       849.0000      1441.0000              0              0              0              0              0            100              0           0.00         0.0000
          12372      1087.3000    124444.0000     18612.0000      5387.0000       849.0000      1441.0000              0              0              0              0              0            100              0           0.00         0.0000
          12373      1087.3000    124444.0000     18612.0000      5387.0000       849.0000      1441.0000              0              0              0              0              0            100              0           0.00         0.0000
          12374      1085.4500    124444.0000     18612.0000      5387.0000       849.0000      1441.0000              0              0              0              0              0            100              0           0.00         0.0000
