#___________________________________________________________________________
~VERSION INFORMATION
 VERS.                                 2.0 : CWLS LOG ASCII STANDARD - VERSION 2.0
 WRAP.                                  NO : ONE LINE PER DEPTH STEP
#___________________________________________________________________________
~WELL INFORMATION
 STRT.F                           10335.00 : START DEPTH
 STOP.F                           17886.00 : STOP DEPTH
 STEP.F                                  1 : STEP VALUE
 NULL.                             -999.25 : NULL VALUE
 COMP.      Magnolia Oil & Gas             : COMPANY
 WELL.      Grand Canyon A 1H              : WELL
  FLD.      Giddings                       : FIELD
  LOC.      Washington County              : LOCATION
 CNTY.      Washington County              : PARISH/COUNTY
 STAT.      Texas                          : STATE
 CTRY.      USA                            : COUNTRY
" SRVC.      PetroLog International, Inc.   : SERVICE COMPANY"
 DATE.      06/22/2020                     : LOG DATE
  API.      42-477-31136                   : API REFERENCE NUMBER
#___________________________________________________________________________
~CURVE INFORMATION
#MNEM.UNITS                                : DESCRIPTION
DEPTH.F                                    :  1 DEPTH
 TGAS.Units                                :  2 Chromatograph_TotalGas
 MTHX.PPM                                  :  3 Chromatograph_MethanePPMMax
 ETHX.PPM                                  :  4 Chromatograph_EthanePPMMax
 PRPX.PPM                                  :  5 Chromatograph_PropanePPMMax
 IBTX.PPM                                  :  6 Chromatograph_IButanePPMMax
 NBTX.PPM                                  :  7 Chromatograph_NButanePPMMax
CEMNT.%                                    :  8 Lithology_Cement
SHALE.%                                    :  9 Lithology_Shale
SILTST.%                                   : 10 Lithology_Siltstone
 SAND.%                                    : 11 Lithology_Sand
 LIME.%                                    : 12 Lithology_Lime
 CHLK.%                                    : 13 Lithology_Chalk
  ASH.%                                    : 14 Lithology_Ash
 FRAC.%                                    : 15 Fracture
Kick/Loss.----                             : 16 Kick/Loss
#___________________________________________________________________________
~A        DEPTH           TGAS           MTHX           ETHX           PRPX           IBTX           NBTX          CEMNT          SHALE         SILTST           SAND           LIME           CHLK            ASH           FRAC      Kick/Loss
          10335       120.9000      1674.0000       146.0000        83.0000         0.0000         0.0000              0              0              0              0              0            100              0           0.00         0.0000
          10336       120.2750      1674.0000       146.0000        83.0000         0.0000         0.0000              0              0              0              0              0            100              0           0.00         0.0000
          10337       120.2750      1674.0000       146.0000        83.0000         0.0000         0.0000              0              0              0              0              0            100              0           0.00         0.0000
          10338       122.1000      1674.0000       146.0000        83.0000         0.0000         0.0000              0              0              0              0              0            100              0           0.00         0.0000
          10339       133.1000      1674.0000       146.0000        83.0000         0.0000         0.0000              0              0              0              0              0            100              0           0.00         0.0000
          10340       135.5500      4846.0000       266.0000        97.0000         0.0000         0.0000              0              0              0              0              0            100              0           0.00         0.0000
          10341       124.5500      4846.0000       266.0000        97.0000         0.0000         0.0000              0              0              0              0              0            100              0           0.00         0.0000
          10342       120.9000      4846.0000       266.0000        97.0000         0.0000         0.0000              0              0              0              0              0            100              0           0.00         0.0000
          10343       119.6500      4846.0000       266.0000        97.0000         0.0000         0.0000              0              0              0              0              0            100              0           0.00         0.0000
          10344       123.3000      4846.0000       266.0000        97.0000         0.0000         0.0000              0              0              0              0              0            100              0           0.00         0.0000
          10345        98.9000      1351.0000         0.0000         0.0000         0.0000         0.0000              0              0              0              0              0            100              0           0.00         0.0000
          10346       103.8000       568.0000         0.0000         0.0000         0.0000         0.0000              0              0              0              0              0            100              0           0.00         0.0000
          10347       107.4500       473.0000         0.0000         0.0000         0.0000         0.0000              0              0              0              0              0            100              0           0.00         0.0000
          10348       109.9000       473.0000         0.0000         0.0000         0.0000         0.0000              0              0              0              0              0            100              0           0.00         0.0000
          10349       111.1000      1007.0000         0.0000         0.0000         0.0000         0.0000              0              0              0              0              0            100              0           0.00         0.0000
          10350       112.3500      1007.0000         0.0000         0.0000         0.0000         0.0000              0              0              0              0              0            100              0           0.00         0.0000
          10351       113.5500      1007.0000         0.0000         0.0000         0.0000         0.0000              0              0              0              0              0            100              0           0.00         0.0000
          10352       114.8000      1675.0000       101.0000         0.0000         0.0000         0.0000              0              0              0              0              0            100              0           0.00         0.0000
          10353       116.0000      1675.0000       101.0000         0.0000         0.0000         0.0000              0              0              0              0              0            100              0           0.00         0.0000
          10354       120.9000      1675.0000       101.0000         0.0000         0.0000         0.0000              0              0              0              0              0            100              0           0.00         0.0000
          10355       128.2000      1676.0000         0.0000         0.0000         0.0000         0.0000              0              0              0              0              0            100              0           0.00         0.0000
          10356       133.1000      1676.0000         0.0000         0.0000         0.0000         0.0000              0              0              0              0              0            100              0           0.00         0.0000
          10357       135.5500      1676.0000         0.0000         0.0000         0.0000         0.0000              0              0              0              0              0            100              0           0.00         0.0000
          10358       114.8000      1676.0000         0.0000         0.0000         0.0000         0.0000              0              0              0              0              0            100              0           0.00         0.0000
          10359       111.1000       908.0000         0.0000         0.0000         0.0000         0.0000              0              0              0              0              0            100              0           0.00         0.0000
          10360       111.7250       908.0000         0.0000         0.0000         0.0000         0.0000              0              0              0              0              0            100              0           0.00         0.0000
          10361       113.5500       884.0000         0.0000         0.0000         0.0000         0.0000              0              0              0              0              0            100              0           0.00         0.0000
          10362       113.5500       654.0000         0.0000         0.0000         0.0000         0.0000              0              0              0              0              0            100              0           0.00         0.0000
          10363       117.2000       896.0000         0.0000         0.0000         0.0000         0.0000              0              0              0              0              0            100              0           0.00         0.0000
          10364       117.8250       896.0000         0.0000         0.0000         0.0000         0.0000              0              0              0              0              0            100              0           0.00         0.0000
          10365       118.4500       914.0000         0.0000         0.0000         0.0000         0.0000              0              0              0              0              0            100              0           0.00         0.0000
          10366       119.6500       914.0000         0.0000         0.0000         0.0000         0.0000              0              0              0              0              0            100              0           0.00         0.0000
          10367       120.9000       942.0000         0.0000         0.0000         0.0000         0.0000              0              0              0              0              0            100              0           0.00         0.0000
          10368       119.6500       942.0000         0.0000         0.0000         0.0000         0.0000              0              0              0              0              0            100              0           0.00         0.0000
