#___________________________________________________________________________
~VERSION INFORMATION
 VERS.                                 2.0 : CWLS LOG ASCII STANDARD - VERSION 2.0
 WRAP.                                  NO : ONE LINE PER DEPTH STEP
#___________________________________________________________________________
~WELL INFORMATION
 STRT.F                           10335.00 : START DEPTH
 STOP.F                           17886.00 : STOP DEPTH
 STEP.F                                  1 : STEP VALUE
 NULL.                             -999.25 : NULL VALUE
 COMP.      Magnolia Oil & Gas             : COMPANY
 WELL.      Grand Canyon A 1H              : WELL
  FLD.      Giddings                       : FIELD
  LOC.      Washington County              : LOCATION
 CNTY.      Washington County              : PARISH/COUNTY
 STAT.      Texas                          : STATE
 CTRY.      USA                            : COUNTRY
" SRVC.      PetroLog International, Inc.   : SERVICE COMPANY"
 DATE.      06/22/2020                     : LOG DATE
  API.      42-477-31136                   : API REFERENCE NUMBER
#___________________________________________________________________________
~CURVE INFORMATION
#MNEM.UNITS                                : DESCRIPTION
DEPTH.F                                    :  1 DEPTH
 TGAS.Units                                :  2 Chromatograph_TotalGas
 MTHX.PPM                                  :  3 Chromatograph_MethanePPMMax
 ETHX.PPM                                  :  4 Chromatograph_EthanePPMMax
 PRPX.PPM                                  :  5 Chromatograph_PropanePPMMax
 IBTX.PPM                                  :  6 Chromatograph_IButanePPMMax
 NBTX.PPM                                  :  7 Chromatograph_NButanePPMMax
CEMNT.%                                    :  8 Lithology_Cement
SHALE.%                                    :  9 Lithology_Shale
SILTST.%                                   : 10 Lithology_Siltstone
 SAND.%                                    : 11 Lithology_Sand
 LIME.%                                    : 12 Lithology_Lime
 CHLK.%                                    : 13 Lithology_Chalk
  ASH.%                                    : 14 Lithology_Ash
 FRAC.%                                    : 15 Fracture
Kick/Loss.----                             : 16 Kick/Loss
#___________________________________________________________________________
~A        DEPTH           TGAS           MTHX           ETHX           PRPX           IBTX           NBTX          CEMNT          SHALE         SILTST           SAND           LIME           CHLK            ASH           FRAC      Kick/Loss
# ...
          13837      1291.8000    153852.0000     39422.0000     12110.0000      1949.0000      3080.0000              0              0              0              0              0            100              0           0.00         0.0000
          13838      1296.1000    153852.0000     39422.0000     12110.0000      1949.0000      3080.0000              0              0              0              0              0            100              0           0.00         0.0000
          13839      1310.1500    153852.0000     39422.0000     12110.0000      1949.0000      3080.0000              0              0              0              0              0            100              0           0.00         0.0000
          13840      1322.3500    153852.0000     39422.0000     12110.0000      1949.0000      3080.0000              0              0              0              0              0            100              0           0.00         0.0000
          13841      1322.3500    153852.0000     39422.0000     12110.0000      1949.0000      3080.0000              0              0              0              0              0            100              0           0.00         0.0000
          13842      1322.3500    153852.0000     39422.0000     12110.0000      1949.0000      3080.0000              0              0              0              0              0            100              0           0.00         0.0000
          13843      1297.3250    153852.0000     39422.0000     12110.0000      1949.0000      3080.0000              0              0              0              0              0            100              0           0.00         0.0000
          13844      1266.8000    153852.0000     39422.0000     12110.0000      1949.0000      3080.0000              0              0              0              0              0            100              0           0.00         0.0000
          13845      1266.2000    153852.0000     39422.0000     12110.0000      1949.0000      3080.0000              0              0              0              0              0            100              0           0.00         0.0000
          13846      1266.8000    153852.0000     39422.0000     12110.0000      1949.0000      3080.0000              0              0              0              0              0            100              0           0.00         0.0000
          13847      1259.4750    153852.0000     39422.0000     12110.0000      1949.0000      3080.0000              0              0              0              0              0            100              0           0.00         0.0000
          13848      1261.3000    153852.0000     39422.0000     12110.0000      1949.0000      3080.0000              0              0              0              0              0            100              0           0.00         0.0000
          13849      1275.9500    153852.0000     39422.0000     12110.0000      1949.0000      3080.0000              0              0              0              0              0            100              0           0.00         0.0000
          13850      1282.0500    153852.0000     39422.0000     12110.0000      1949.0000      3080.0000              0              0              0              0              0            100              0           0.00         0.0000
          13851      1282.0500    153852.0000     39422.0000     12110.0000      1949.0000      3080.0000              0              0              0              0              0            100              0           0.00         0.0000
          13852      1275.9500    153852.0000     39422.0000     12110.0000      1949.0000      3080.0000              0              0              0              0              0            100              0           0.00         0.0000
          13853      1268.6000    153852.0000     39422.0000     12110.0000      1949.0000      3080.0000              0              0              0              0              0            100              0           0.00         0.0000
          13854      1263.7500    153852.0000     39422.0000     12110.0000      1949.0000      3080.0000              0              0              0              0              0            100              0           0.00         0.0000
          13855      1243.6000    153852.0000     39422.0000     12110.0000      1949.0000      3080.0000              0              0              0              0              0            100              0           0.00         0.0000
          13856      1210.0000    139092.0000     26630.0000      7304.0000      1136.0000      1873.0000              0              0              0              0              0            100              0           0.00         0.0000
          13857      1221.0000    139092.0000     26630.0000      7304.0000      1136.0000      1873.0000              0              0              0              0              0            100              0           0.00         0.0000
          13858      1219.8000    139092.0000     26630.0000      7304.0000      1136.0000      1873.0000              0              0              0              0              0            100              0           0.00         0.0000
          13859      1217.3500    139092.0000     26630.0000      7304.0000      1136.0000      1873.0000              0              0              0              0              0            100              0           0.00         0.0000
          13860      1282.0500    139092.0000     26630.0000      7304.0000      1136.0000      1873.0000              0              0              0              0              0            100              0           0.00         0.0000
          13861      1292.4250    139092.0000     26630.0000      7304.0000      1136.0000      1873.0000              0              0              0              0              0            100              0           0.00         0.0000
          13862      1294.2500    139092.0000     26630.0000      7304.0000      1136.0000      1873.0000              0              0              0              0              0            100              0           0.00         0.0000
          13863      1293.0500    139092.0000     26630.0000      7304.0000      1136.0000      1873.0000              0              0              0              0              0            100              0           0.00         0.0000
          13864      1286.9500    139092.0000     26630.0000      7304.0000      1136.0000      1873.0000              0              0              0              0              0            100              0           0.00         0.0000
          13865      1268.6000    139092.0000     26630.0000      7304.0000      1136.0000      1873.0000              0              0              0              0              0            100              0           0.00         0.0000
          13866      1266.2000    139092.0000     26630.0000      7304.0000      1136.0000      1873.0000              0              0              0              0              0            100              0           0.00         0.0000
          13867      1264.9500    139092.0000     26630.0000      7304.0000      1136.0000      1873.0000              0              0              0              0              0            100              0           0.00         0.0000
          13868      1257.6500    139092.0000     26630.0000      7304.0000      1136.0000      1873.0000              0              0              0              0              0            100              0           0.00         0.0000
          13869      1239.9250    139092.0000     26630.0000      7304.0000      1136.0000      1873.0000              0              0              0              0              0            100              0           0.00         0.0000
          13870      1243.0000    139092.0000     26630.0000      7304.0000      1136.0000      1873.0000              0              0              0              0              0            100              0           0.00         0.0000
