#___________________________________________________________________________
~VERSION INFORMATION
 VERS.                                 2.0 : CWLS LOG ASCII STANDARD - VERSION 2.0
 WRAP.                                  NO : ONE LINE PER DEPTH STEP
#___________________________________________________________________________
~WELL INFORMATION
 STRT.F                           10335.00 : START DEPTH
 STOP.F                           17886.00 : STOP DEPTH
 STEP.F                                  1 : STEP VALUE
 NULL.                             -999.25 : NULL VALUE
 COMP.      Magnolia Oil & Gas             : COMPANY
 WELL.      Grand Canyon A 1H              : WELL
  FLD.      Giddings                       : FIELD
  LOC.      Washington County              : LOCATION
 CNTY.      Washington County              : PARISH/COUNTY
 STAT.      Texas                          : STATE
 CTRY.      USA                            : COUNTRY
" SRVC.      PetroLog International, Inc.   : SERVICE COMPANY"
 DATE.      06/22/2020                     : LOG DATE
  API.      42-477-31136                   : API REFERENCE NUMBER
#___________________________________________________________________________
~CURVE INFORMATION
#MNEM.UNITS                                : DESCRIPTION
DEPTH.F                                    :  1 DEPTH
 TGAS.Units                                :  2 Chromatograph_TotalGas
 MTHX.PPM                                  :  3 Chromatograph_MethanePPMMax
 ETHX.PPM                                  :  4 Chromatograph_EthanePPMMax
 PRPX.PPM                                  :  5 Chromatograph_PropanePPMMax
 IBTX.PPM                                  :  6 Chromatograph_IButanePPMMax
 NBTX.PPM                                  :  7 Chromatograph_NButanePPMMax
CEMNT.%                                    :  8 Lithology_Cement
SHALE.%                                    :  9 Lithology_Shale
SILTST.%                                   : 10 Lithology_Siltstone
 SAND.%                                    : 11 Lithology_Sand
 LIME.%                                    : 12 Lithology_Lime
 CHLK.%                                    : 13 Lithology_Chalk
  ASH.%                                    : 14 Lithology_Ash
 FRAC.%                                    : 15 Fracture
Kick/Loss.----                             : 16 Kick/Loss
#___________________________________________________________________________
~A        DEPTH           TGAS           MTHX           ETHX           PRPX           IBTX           NBTX          CEMNT          SHALE         SILTST           SAND           LIME           CHLK            ASH           FRAC      Kick/Loss
# ...
          12851       851.0500       754.0000       181.0000        70.0000         0.0000        54.0000              0              0              0              0              0            100              0           0.00         0.0000
          12852      1034.2000       754.0000       181.0000        70.0000         0.0000        54.0000              0              0              0              0              0            100              0           0.00         0.0000
          12853      1132.4750       754.0000       181.0000        70.0000         0.0000        54.0000              0              0              0              0              0            100              0           0.00         0.0000
          12854      1191.7000       754.0000       181.0000        70.0000         0.0000        54.0000              0              0              0              0              0            100              0           0.00         0.0000
          12855      1380.3500    160043.0000     24364.0000      6072.0000       989.0000      1439.0000              0              0              0              0              0            100              0           0.00         0.0000
          12856      1409.0500    160043.0000     24364.0000      6072.0000       989.0000      1439.0000              0              0              0              0              0            100              0           0.00         0.0000
          12857      1210.0000    160043.0000     24364.0000      6072.0000       989.0000      1439.0000              0              0              0              0              0            100              0           0.00         0.0000
          12858      1072.0500    160043.0000     24364.0000      6072.0000       989.0000      1439.0000              0              0              0              0              0            100              0           0.00         0.0000
          12859      1011.0000    160043.0000     24364.0000      6072.0000       989.0000      1439.0000              0              0              0              0              0            100              0           0.00         0.0000
          12860      1054.9500    160043.0000     24364.0000      6072.0000       989.0000      1439.0000              0              0              0              0              0            100              0           0.00         0.0000
          12861      1095.2500    160043.0000     24364.0000      6072.0000       989.0000      1439.0000              0              0              0              0              0            100              0           0.00         0.0000
          12862      1134.3000    160043.0000     24364.0000      6072.0000       989.0000      1439.0000              0              0              0              0              0            100              0           0.00         0.0000
          12863      1169.7000    160043.0000     24364.0000      6072.0000       989.0000      1439.0000              0              0              0              0              0            100              0           0.00         0.0000
          12864      1200.2500    160043.0000     24364.0000      6072.0000       989.0000      1439.0000              0              0              0              0              0            100              0           0.00         0.0000
          12865      1247.8750    160043.0000     24364.0000      6072.0000       989.0000      1439.0000              0              0              0              0              0            100              0           0.00         0.0000
          12866      1288.1500    160043.0000     24364.0000      6072.0000       989.0000      1439.0000              0              0              0              0              0            100              0           0.00         0.0000
          12867      1348.0000    160043.0000     24364.0000      6072.0000       989.0000      1439.0000              0              0              0              0              0            100              0           0.00         0.0000
          12868      1371.2000    160043.0000     24364.0000      6072.0000       989.0000      1439.0000              0              0              0              0              0            100              0           0.00         0.0000
          12869      1393.1500    160043.0000     24364.0000      6072.0000       989.0000      1439.0000              0              0              0              0              0            100              0           0.00         0.0000
          12870      1426.7500    160043.0000     24364.0000      6072.0000       989.0000      1439.0000              0              0              0              0              0            100              0           0.00         0.0000
          12871      1461.5500    160043.0000     24364.0000      6072.0000       989.0000      1439.0000              0              0              0              0              0            100              0           0.00         0.0000
          12872      1495.7500    160043.0000     24364.0000      6072.0000       989.0000      1439.0000              0              0              0              0              0            100              0           0.00         0.0000
          12873      1539.7000    160043.0000     24364.0000      6072.0000       989.0000      1439.0000              0              0              0              0              0            100              0           0.00         0.0000
          12874      1551.9000    160043.0000     24364.0000      6072.0000       989.0000      1439.0000              0              0              0              0              0            100              0           0.00         0.0000
          12875      1558.0000    160043.0000     24364.0000      6072.0000       989.0000      1439.0000              0              0              0              0              0            100              0           0.00         0.0000
          12876      1555.5500    160043.0000     24364.0000      6072.0000       989.0000      1439.0000              0              0              0              0              0            100              0           0.00         0.0000
          12877      1540.9000    160043.0000     24364.0000      6072.0000       989.0000      1439.0000              0              0              0              0              0            100              0           0.00         0.0000
          12878      1521.9750    160043.0000     24364.0000      6072.0000       989.0000      1439.0000              0              0              0              0              0            100              0           0.00         0.0000
          12879      1493.3000    160043.0000     24364.0000      6072.0000       989.0000      1439.0000              0              0              0              0              0            100              0           0.00         0.0000
          12880      1444.4500    160043.0000     24364.0000      6072.0000       989.0000      1439.0000              0              0              0              0              0            100              0           0.00         0.0000
          12881      1383.4000    160043.0000     24364.0000      6072.0000       989.0000      1439.0000              0              0              0              0              0            100              0           0.00         0.0000
          12882      1335.8000    160043.0000     27868.0000      8203.0000      1420.0000      2190.0000              0              0              0              0              0            100              0           0.00         0.0000
          12883      1279.0000    141413.0000     27868.0000      8203.0000      1420.0000      2190.0000              0              0              0              0              0            100              0           0.00         0.0000
          12884      1279.6250    141413.0000     27868.0000      8203.0000      1420.0000      2190.0000              0              0              0              0              0            100              0           0.00         0.0000
