#___________________________________________________________________________
~VERSION INFORMATION
 VERS.                                 2.0 : CWLS LOG ASCII STANDARD - VERSION 2.0
 WRAP.                                  NO : ONE LINE PER DEPTH STEP
#___________________________________________________________________________
~WELL INFORMATION
 STRT.F                           10160.00 : START DEPTH
 STOP.F                           19983.00 : STOP DEPTH
 STEP.F                                  1 : STEP VALUE
 NULL.                             -999.25 : NULL VALUE
 COMP.      Magnolia Oil & Gas             : COMPANY
 WELL.      Klondike Rush H06 KL           : WELL
  FLD.      Giddings (AC)                  : FIELD
  LOC.      Washington County              : LOCATION
 CNTY.      Washington County              : PARISH/COUNTY
 STAT.      Texas                          : STATE
 CTRY.      USA                            : COUNTRY
" SRVC.      PetroLog International, Inc.   : SERVICE COMPANY"
 DATE.      03/10/2022                     : LOG DATE
  API.      42-477-31192                   : API REFERENCE NUMBER
#___________________________________________________________________________
~CURVE INFORMATION
#MNEM.UNITS                                : DESCRIPTION
DEPTH.F                                    :  1 DEPTH
 TGAS.Units                                :  2 Chromatograph_TotalGas
 MTHX.PPM                                  :  3 Chromatograph_MethanePPMMax
 ETHX.PPM                                  :  4 Chromatograph_EthanePPMMax
 PRPX.PPM                                  :  5 Chromatograph_PropanePPMMax
 IBTX.PPM                                  :  6 Chromatograph_IButanePPMMax
 NBTX.PPM                                  :  7 Chromatograph_NButanePPMMax
     .----                                 :  8 Lithology_Cement
     .----                                 :  9 Lithology_Shale
     .----                                 : 10 Lithology_Siltstone				
     .----                                 : 11 Lithology_Sand				
     .----                                 : 12 Lithology_Lime				
     .----                                 : 13 Lithology_Chalk				
     .----                                 : 14 Lithology_Tuff				Ash
     .----                                 : 15 Lithology_Calcimetry		 	15 Fracture	
 PAGL.BBLS                                 : 16 Mud_PitActiveGainLoss			16 Kick / 	Loss
#___________________________________________________________________________				
~A        DEPTH           TGAS           MTHX           ETHX           PRPX           IBTX           NBTX                                                                                                                                   PAGL				
# ...
          10806       153.8500     14597.0000      2349.0000         0.0000         0.0000        18.0000              0              0              0              0              0            100              0           0.00         0.0000
          10807       157.5000     14597.0000      2349.0000         0.0000         0.0000        18.0000              0              0              0              0              0            100              0           0.00         0.0000
          10808       161.1500     14597.0000      2349.0000         0.0000         0.0000        18.0000              0              0              0              0              0            100              0           0.00         0.0000
          10809       159.9500     14597.0000      2349.0000         0.0000         0.0000        18.0000              0              0              0              0              0            100              0           0.00         0.0000
          10810       163.0000     14597.0000      2349.0000         0.0000         0.0000        18.0000              0              0              0              0              0            100              0           0.00         0.0000
          10811       163.6000     14597.0000      2349.0000         0.0000         0.0000        18.0000              0              0              0              0              0            100              0           0.00         0.0000
          10812       164.8500     14597.0000      2349.0000         0.0000         0.0000        18.0000              0              0              0              0              0            100              0           0.00         0.0000
          10813       164.8500     14597.0000      2349.0000         0.0000         0.0000        18.0000              0              0              0              0              0            100              0           0.00         0.0000
          10814       160.5500     14597.0000      2349.0000         0.0000         0.0000        18.0000              0              0              0              0              0            100              0           0.00         0.0000
          10815       152.6500     14597.0000      2349.0000         0.0000         0.0000        18.0000              0              0              0              0              0            100              0           0.00         0.0000
          10816       152.6500     14597.0000      2349.0000         0.0000         0.0000        18.0000              0              0              0              0              0            100              0           0.00         0.0000
          10817       151.4000     14597.0000      2349.0000         0.0000         0.0000        18.0000              0              0              0              0              0            100              0           0.00         0.0000
          10818       152.6500     15166.0000      2519.0000       764.0000         0.0000        44.0000              0              0              0              0              0            100              0           0.00         0.0000
          10819       154.4500     15166.0000      2519.0000       764.0000         0.0000        44.0000              0              0              0              0              0            100              0           0.00         0.0000
          10820       155.0500     15166.0000      2519.0000       764.0000         0.0000        44.0000              0              0              0              0              0            100              0           0.00         0.0000
          10821       150.2000     15166.0000      2519.0000       764.0000         0.0000        44.0000              0              0              0              0              0            100              0           0.00         0.0000
          10822       145.3000     15166.0000      2519.0000       764.0000         0.0000        44.0000              0              0              0              0              0            100              0           0.00         0.0000
          10823       166.0750     15535.0000      2619.0000       781.0000         0.0000        44.0000              0              0              0              0              0            100              0           0.00         0.0000
          10824        86.0750     11739.0000      2012.0000       608.0000         0.0000        20.0000              0              0              0              0              0            100              0           0.00         0.0000
          10825        86.7000     11739.0000      2012.0000       608.0000         0.0000        20.0000              0              0              0              0              0            100              0           0.00         0.0000
          10826        86.7000     11739.0000      2012.0000       608.0000         0.0000        20.0000              0              0              0              0              0            100              0           0.00         0.0000
          10827        84.2500     11739.0000      2012.0000       608.0000         0.0000        20.0000              0              0              0              0              0            100              0           0.00         0.0000
          10828        86.7000      7480.0000      1131.0000       270.0000         0.0000         0.0000              0              0              0              0              0            100              0           0.00         0.0000
          10829        86.7000      7480.0000      1131.0000       270.0000         0.0000         0.0000              0              0              0              0              0            100              0           0.00         0.0000
          10830        86.7000      7480.0000      1131.0000       270.0000         0.0000         0.0000              0              0              0              0              0            100              0           0.00         0.0000
          10831        86.7000      7480.0000      1131.0000       270.0000         0.0000         0.0000              0              0              0              0              0            100              0           0.00         0.0000
          10832        84.2500      7480.0000      1131.0000       270.0000         0.0000         0.0000              0              0              0              0              0            100              0           0.00         0.0000
          10833        81.8000      7480.0000      1131.0000       270.0000         0.0000         0.0000              0              0              0              0              0            100              0           0.00         0.0000
          10834        83.0500      7480.0000      1131.0000       270.0000         0.0000         0.0000              0              0              0              0              0            100              0           0.00         0.0000
          10835        84.2500      7480.0000      1131.0000       270.0000         0.0000         0.0000              0              0              0              0              0            100              0           0.00         0.0000
          10836        89.1500      7480.0000      1131.0000       270.0000         0.0000         0.0000              0              0              0              0              0            100              0           0.00         0.0000
          10837        95.2500      7480.0000      1131.0000       270.0000         0.0000         0.0000              0              0              0              0              0            100              0           0.00         0.0000
          10838       123.3250      7480.0000      1131.0000       270.0000         0.0000         0.0000              0              0              0              0              0            100              0           0.00         0.0000
          10839       181.9500      7480.0000      1131.0000       270.0000         0.0000         0.0000              0              0              0              0              0            100              0           0.00         0.0000
