#___________________________________________________________________________
~VERSION INFORMATION
 VERS.                                 2.0 : CWLS LOG ASCII STANDARD - VERSION 2.0
 WRAP.                                  NO : ONE LINE PER DEPTH STEP
#___________________________________________________________________________
~WELL INFORMATION
 STRT.F                           10235.00 : START DEPTH
 STOP.F                           15217.00 : STOP DEPTH
 STEP.F                                  1 : STEP VALUE
 NULL.                             -999.25 : NULL VALUE
 COMP.      Magnolia Oil & Gas             : COMPANY
 WELL.      Klondike Mill H08 KL           : WELL
  FLD.      Giddings (AC)                  : FIELD
  LOC.      Washington County              : LOCATION
 CNTY.      Washington County              : PARISH/COUNTY
 STAT.      Texas                          : STATE
 CTRY.      USA                            : COUNTRY
" SRVC.      PetroLog International, Inc.   : SERVICE COMPANY"
 DATE.      03/17/2022                     : LOG DATE
  API.      42-477-31194                   : API REFERENCE NUMBER
#___________________________________________________________________________
~CURVE INFORMATION
#MNEM.UNITS                                : DESCRIPTION
DEPTH.F                                    :  1 DEPTH
 TGAS.Units                                :  2 Chromatograph_TotalGas
 MTHX.PPM                                  :  3 Chromatograph_MethanePPMMax
 ETHX.PPM                                  :  4 Chromatograph_EthanePPMMax
 PRPX.PPM                                  :  5 Chromatograph_PropanePPMMax
 IBTX.PPM                                  :  6 Chromatograph_IButanePPMMax
 NBTX.PPM                                  :  7 Chromatograph_NButanePPMMax
     .----                                 :  8 Lithology_Cement
     .----                                 :  9 Lithology_Shale
     .----                                 : 10 Lithology_Siltstone				
     .----                                 : 11 Lithology_Sand				
     .----                                 : 12 Lithology_Lime				
     .----                                 : 13 Lithology_Chalk				
     .----                                 : 14 Lithology_Tuff				Ash
     .----                                 : 15 Lithology_Calcimetry		 	15 Fracture	 
 PAGL.BBLS                                 : 16 Mud_PitActiveGainLoss			16 Kick  /  Loss	Loss
#___________________________________________________________________________				
~A        DEPTH           TGAS           MTHX           ETHX           PRPX           IBTX           NBTX                                                                                                                                   PAGL				
# ...
          11901      2769.2500     68494.0000     51149.0000     40425.0000      7089.0000     17055.0000              0              0              0              0              0            100              0           0.00         0.0000
          11902      2799.7750     68494.0000     51149.0000     40425.0000      7089.0000     17055.0000              0              0              0              0              0            100              0           0.00         0.0000
          11903      2816.8500     68494.0000     51149.0000     40425.0000      7089.0000     17055.0000              0              0              0              0              0            100              0           0.00         0.0000
          11904      2862.6500     68494.0000     51149.0000     40425.0000      7089.0000     17055.0000              0              0              0              0              0            100              0           0.00         0.0000
          11905      2887.6500     68494.0000     51149.0000     40425.0000      7089.0000     17055.0000              0              0              0              0              0            100              0           0.00         0.0000
          11906      2896.2250     68494.0000     51149.0000     40425.0000      7089.0000     17055.0000              0              0              0              0              0            100              0           0.00         0.0000
          11907      2898.6500     68494.0000     51149.0000     40425.0000      7089.0000     17055.0000              0              0              0              0              0            100              0           0.00         0.0000
          11908      2902.3000     68494.0000     51149.0000     40425.0000      7089.0000     17055.0000              0              0              0              0              0            100              0           0.00         0.0000
          11909      2908.4500     68494.0000     51149.0000     40425.0000      7089.0000     17055.0000              0              0              0              0              0            100              0           0.00         0.0000
          11910      2899.9000     68494.0000     51149.0000     40425.0000      7089.0000     17055.0000              0              0              0              0              0            100              0           0.00         0.0000
          11911      2881.5500     68494.0000     51149.0000     40425.0000      7089.0000     17055.0000              0              0              0              0              0            100              0           0.00         0.0000
          11912      2893.8000     68494.0000     51149.0000     40425.0000      7089.0000     17055.0000              0              0              0              0              0            100              0           0.00         0.0000
          11913      2899.9000     68494.0000     51149.0000     40425.0000      7089.0000     17055.0000              0              0              0              0              0            100              0           0.00         0.0000
          11914      2910.8500     68494.0000     51149.0000     40425.0000      7089.0000     17055.0000              0              0              0              0              0            100              0           0.00         0.0000
          11915      2934.0500     68494.0000     51149.0000     40425.0000      7089.0000     17055.0000              0              0              0              0              0            100              0           0.00         0.0000
          11916      2929.2000     82845.0000     58544.0000     44209.0000      7648.0000     18203.0000              0              0              0              0              0            100              0           0.00         0.0000
          11917       691.7000     82845.0000     58544.0000     44209.0000      7648.0000     18203.0000              0              0              0              0              0            100              0           0.00         0.0000
          11918       621.5000     82845.0000     58544.0000     44209.0000      7648.0000     18203.0000              0              0              0              0              0            100              0           0.00         0.0000
          11919       566.5500     82845.0000     58544.0000     44209.0000      7648.0000     18203.0000              0              0              0              0              0            100              0           0.00         0.0000
          11920       517.7250     82845.0000     58544.0000     44209.0000      7648.0000     18203.0000              0              0              0              0              0            100              0           0.00         0.0000
          11921       494.2150     82845.0000     58544.0000     44209.0000      7648.0000     18203.0000              0              0              0              0              0            100              0           0.00         0.0000
          11922       464.6000     82845.0000     58544.0000     44209.0000      7648.0000     18203.0000              0              0              0              0              0            100              0           0.00         0.0000
          11923       446.2750     82845.0000     58544.0000     44209.0000      7648.0000     18203.0000              0              0              0              0              0            100              0           0.00         0.0000
          11924       426.1500     82845.0000     58544.0000     44209.0000      7648.0000     18203.0000              0              0              0              0              0            100              0           0.00         0.0000
          11925       409.6500     82845.0000     58544.0000     44209.0000      7648.0000     18203.0000              0              0              0              0              0            100              0           0.00         0.0000
          11926       398.0500     82845.0000     58544.0000     44209.0000      7648.0000     18203.0000              0              0              0              0              0            100              0           0.00         0.0000
          11927       385.8500     82845.0000     58544.0000     44209.0000      7648.0000     18203.0000              0              0              0              0              0            100              0           0.00         0.0000
          11928       377.3000     82845.0000     58544.0000     44209.0000      7648.0000     18203.0000              0              0              0              0              0            100              0           0.00         0.0000
          11929       367.5000     82845.0000     58544.0000     44209.0000      7648.0000     18203.0000              0              0              0              0              0            100              0           0.00         0.0000
          11930       360.2000     82845.0000     58544.0000     44209.0000      7648.0000     18203.0000              0              0              0              0              0            100              0           0.00         0.0000
          11931       358.9750     82845.0000     58544.0000     44209.0000      7648.0000     18203.0000              0              0              0              0              0            100              0           0.00         0.0000
          11932       416.9750     82845.0000     58544.0000     44209.0000      7648.0000     18203.0000              0              0              0              0              0            100              0           0.00         0.0000
          11933       499.4000     82845.0000     58544.0000     44209.0000      7648.0000     18203.0000              0              0              0              0              0            100              0           0.00         0.0000
          11934       538.4500     82845.0000     58544.0000     44209.0000      7648.0000     18203.0000              0              0              0              0              0            100              0           0.00         0.0000
