#___________________________________________________________________________
~VERSION INFORMATION
 VERS.                                 2.0 : CWLS LOG ASCII STANDARD - VERSION 2.0
 WRAP.                                  NO : ONE LINE PER DEPTH STEP
#___________________________________________________________________________
~WELL INFORMATION
 STRT.F                           10160.00 : START DEPTH
 STOP.F                           19983.00 : STOP DEPTH
 STEP.F                                  1 : STEP VALUE
 NULL.                             -999.25 : NULL VALUE
 COMP.      Magnolia Oil & Gas             : COMPANY
 WELL.      Klondike Rush H06 KL           : WELL
  FLD.      Giddings (AC)                  : FIELD
  LOC.      Washington County              : LOCATION
 CNTY.      Washington County              : PARISH/COUNTY
 STAT.      Texas                          : STATE
 CTRY.      USA                            : COUNTRY
" SRVC.      PetroLog International, Inc.   : SERVICE COMPANY"
 DATE.      03/10/2022                     : LOG DATE
  API.      42-477-31192                   : API REFERENCE NUMBER
#___________________________________________________________________________
~CURVE INFORMATION
#MNEM.UNITS                                : DESCRIPTION
DEPTH.F                                    :  1 DEPTH
 TGAS.Units                                :  2 Chromatograph_TotalGas
 MTHX.PPM                                  :  3 Chromatograph_MethanePPMMax
 ETHX.PPM                                  :  4 Chromatograph_EthanePPMMax
 PRPX.PPM                                  :  5 Chromatograph_PropanePPMMax
 IBTX.PPM                                  :  6 Chromatograph_IButanePPMMax
 NBTX.PPM                                  :  7 Chromatograph_NButanePPMMax
     .----                                 :  8 Lithology_Cement
     .----                                 :  9 Lithology_Shale
     .----                                 : 10 Lithology_Siltstone				
     .----                                 : 11 Lithology_Sand				
     .----                                 : 12 Lithology_Lime				
     .----                                 : 13 Lithology_Chalk				
     .----                                 : 14 Lithology_Tuff				Ash
     .----                                 : 15 Lithology_Calcimetry		 	15 Fracture	
 PAGL.BBLS                                 : 16 Mud_PitActiveGainLoss			16 Kick / 	Loss
#___________________________________________________________________________				
~A        DEPTH           TGAS           MTHX           ETHX           PRPX           IBTX           NBTX                                                                                                                                   PAGL				
# ...
          16042      2067.7750    112376.0000     48341.0000     20066.0000      2145.0000      4827.0000              0              0              0              0              0            100              0           0.00         0.0000
          16043      2067.1500    112376.0000     48341.0000     20066.0000      2145.0000      4827.0000              0              0              0              0              0            100              0           0.00         0.0000
          16044      2064.7000    112376.0000     48341.0000     20066.0000      2145.0000      4827.0000              0              0              0              0              0            100              0           0.00         0.0000
          16045      2059.8500    112376.0000     48341.0000     20066.0000      2145.0000      4827.0000              0              0              0              0              0            100              0           0.00         0.0000
          16046      2056.1500    112376.0000     48341.0000     20066.0000      2145.0000      4827.0000              0              0              0              0              0            100              0           0.00         0.0000
          16047      2051.3000    112376.0000     48341.0000     20066.0000      2145.0000      4827.0000              0              0              0              0              0            100              0           0.00         0.0000
          16048      2049.4500    112376.0000     48341.0000     20066.0000      2145.0000      4827.0000              0              0              0              0              0            100              0           0.00         0.0000
          16049      2053.7500    112376.0000     48341.0000     20066.0000      2145.0000      4827.0000              0              0              0              0              0            100              0           0.00         0.0000
          16050      2058.0000    112376.0000     48341.0000     20066.0000      2145.0000      4827.0000              0              0              0              0              0            100              0           0.00         0.0000
          16051      2057.4000    112376.0000     48341.0000     20066.0000      2145.0000      4827.0000              0              0              0              0              0            100              0           0.00         0.0000
          16052      2056.1500    112376.0000     48341.0000     20066.0000      2145.0000      4827.0000              0              0              0              0              0            100              0           0.00         0.0000
          16053      2040.3000    112376.0000     48341.0000     20066.0000      2145.0000      4827.0000              0              0              0              0              0            100              0           0.00         0.0000
          16054      2018.3000    112376.0000     48341.0000     20066.0000      2145.0000      4827.0000              0              0              0              0              0            100              0           0.00         0.0000
          16055      2007.9500    112376.0000     48341.0000     20066.0000      2145.0000      4827.0000              0              0              0              0              0            100              0           0.00         0.0000
          16056      2001.2000    112376.0000     48341.0000     20066.0000      2145.0000      4827.0000              0              0              0              0              0            100              0           0.00         0.0000
          16057      1998.8000    112376.0000     48341.0000     20066.0000      2145.0000      4827.0000              0              0              0              0              0            100              0           0.00         0.0000
          16058      1997.5500    112376.0000     48341.0000     20066.0000      2145.0000      4827.0000              0              0              0              0              0            100              0           0.00         0.0000
          16059      2003.6500    112376.0000     48341.0000     20066.0000      2145.0000      4827.0000              0              0              0              0              0            100              0           0.00         0.0000
          16060      2009.1500    112376.0000     48341.0000     20066.0000      2145.0000      4827.0000              0              0              0              0              0            100              0           0.00         0.0000
          16061      2015.9000    112376.0000     48341.0000     20066.0000      2145.0000      4827.0000              0              0              0              0              0            100              0           0.00         0.0000
          16062      2019.5500    112376.0000     48341.0000     20066.0000      2145.0000      4827.0000              0              0              0              0              0            100              0           0.00         0.0000
          16063      2019.5500    112376.0000     48341.0000     20066.0000      2145.0000      4827.0000              0              0              0              0              0            100              0           0.00         0.0000
          16064      2031.1500    112376.0000     48341.0000     20066.0000      2145.0000      4827.0000              0              0              0              0              0            100              0           0.00         0.0000
          16065      2043.9500    112376.0000     48341.0000     20066.0000      2145.0000      4827.0000              0              0              0              0              0            100              0           0.00         0.0000
          16066      2064.7000    118535.0000     48341.0000     20066.0000      2145.0000      4827.0000              0              0              0              0              0            100              0           0.00         0.0000
          16067      2085.4500    118535.0000     47516.0000     19411.0000      2090.0000      4748.0000              0              0              0              0              0            100              0           0.00         0.0000
          16068      2103.8000    118535.0000     47516.0000     19411.0000      2090.0000      4748.0000              0              0              0              0              0            100              0           0.00         0.0000
          16069      2120.9000    118535.0000     47516.0000     19411.0000      2090.0000      4748.0000              0              0              0              0              0            100              0           0.00         0.0000
          16070      2141.0250    118535.0000     47516.0000     19411.0000      2090.0000      4748.0000              0              0              0              0              0            100              0           0.00         0.0000
          16071      2148.1350    118535.0000     47516.0000     19411.0000      2090.0000      4748.0000              0              0              0              0              0            100              0           0.00         0.0000
          16072      2156.2750    118535.0000     47516.0000     19411.0000      2090.0000      4748.0000              0              0              0              0              0            100              0           0.00         0.0000
          16073      2164.8500    118535.0000     47516.0000     19411.0000      2090.0000      4748.0000              0              0              0              0              0            100              0           0.00         0.0000
          16074      2155.6750    118535.0000     47516.0000     19411.0000      2090.0000      4748.0000              0              0              0              0              0            100              0           0.00         0.0000
          16075      2144.1000    118535.0000     47516.0000     19411.0000      2090.0000      4748.0000              0              0              0              0              0            100              0           0.00         0.0000
