#___________________________________________________________________________
~VERSION INFORMATION
 VERS.                                 2.0 : CWLS LOG ASCII STANDARD - VERSION 2.0
 WRAP.                                  NO : ONE LINE PER DEPTH STEP
#___________________________________________________________________________
~WELL INFORMATION
 STRT.F                           10235.00 : START DEPTH
 STOP.F                           15217.00 : STOP DEPTH
 STEP.F                                  1 : STEP VALUE
 NULL.                             -999.25 : NULL VALUE
 COMP.      Magnolia Oil & Gas             : COMPANY
 WELL.      Klondike Mill H08 KL           : WELL
  FLD.      Giddings (AC)                  : FIELD
  LOC.      Washington County              : LOCATION
 CNTY.      Washington County              : PARISH/COUNTY
 STAT.      Texas                          : STATE
 CTRY.      USA                            : COUNTRY
" SRVC.      PetroLog International, Inc.   : SERVICE COMPANY"
 DATE.      03/17/2022                     : LOG DATE
  API.      42-477-31194                   : API REFERENCE NUMBER
#___________________________________________________________________________
~CURVE INFORMATION
#MNEM.UNITS                                : DESCRIPTION
DEPTH.F                                    :  1 DEPTH
 TGAS.Units                                :  2 Chromatograph_TotalGas
 MTHX.PPM                                  :  3 Chromatograph_MethanePPMMax
 ETHX.PPM                                  :  4 Chromatograph_EthanePPMMax
 PRPX.PPM                                  :  5 Chromatograph_PropanePPMMax
 IBTX.PPM                                  :  6 Chromatograph_IButanePPMMax
 NBTX.PPM                                  :  7 Chromatograph_NButanePPMMax
     .----                                 :  8 Lithology_Cement
     .----                                 :  9 Lithology_Shale
     .----                                 : 10 Lithology_Siltstone				
     .----                                 : 11 Lithology_Sand				
     .----                                 : 12 Lithology_Lime				
     .----                                 : 13 Lithology_Chalk				
     .----                                 : 14 Lithology_Tuff				Ash
     .----                                 : 15 Lithology_Calcimetry		 	15 Fracture	 
 PAGL.BBLS                                 : 16 Mud_PitActiveGainLoss			16 Kick  /  Loss	Loss
#___________________________________________________________________________				
~A        DEPTH           TGAS           MTHX           ETHX           PRPX           IBTX           NBTX                                                                                                                                   PAGL				
# ...
          14859      2750.3000    145195.0000     39914.0000     13874.0000      1325.0000      3583.0000              0             30              0              0              0             70              0           0.00         0.0000
          14860      2823.5750    145195.0000     39914.0000     13874.0000      1325.0000      3583.0000              0             30              0              0              0             70              0           0.00         0.0000
          14861      2913.3000    145195.0000     39914.0000     13874.0000      1325.0000      3583.0000              0             30              0              0              0             70              0           0.00         0.0000
          14862      2975.6000    145195.0000     39914.0000     13874.0000      1325.0000      3583.0000              0             30              0              0              0             70              0           0.00         0.0000
          14863      3021.3750    145195.0000     39914.0000     13874.0000      1325.0000      3583.0000              0             30              0              0              0             70              0           0.00         0.0000
          14864      3028.1000    145195.0000     39914.0000     13874.0000      1325.0000      3583.0000              0             30              0              0              0             70              0           0.00         0.0000
          14865      3028.1000    145195.0000     39914.0000     13874.0000      1325.0000      3583.0000              0             30              0              0              0             70              0           0.00         0.0000
          14866      3001.2000    145195.0000     39914.0000     13874.0000      1325.0000      3583.0000              0             30              0              0              0             70              0           0.00         0.0000
          14867      2972.5250    145195.0000     39914.0000     13874.0000      1325.0000      3583.0000              0             30              0              0              0             70              0           0.00         0.0000
          14868      2936.5250    145195.0000     39914.0000     13874.0000      1325.0000      3583.0000              0             30              0              0              0             70              0           0.00         0.0000
          14869      2901.1000    145195.0000     39914.0000     13874.0000      1325.0000      3583.0000              0             30              0              0              0             70              0           0.00         0.0000
          14870      2921.2500    145195.0000     39914.0000     13874.0000      1325.0000      3583.0000              0             30              0              0              0             70              0           0.00         0.0000
          14871      3001.2000    227125.0000     74152.0000     25673.0000      2744.0000      6017.0000              0             30              0              0              0             70              0           0.00         0.0000
          14872      3039.6750    227125.0000     74152.0000     25673.0000      2744.0000      6017.0000              0             30              0              0              0             70              0           0.00         0.0000
          14873      3048.8500    227125.0000     74152.0000     25673.0000      2744.0000      6017.0000              0             30              0              0              0             70              0           0.00         0.0000
          14874      3043.3500    227125.0000     74152.0000     25673.0000      2744.0000      6017.0000              0             30              0              0              0             70              0           0.00         0.0000
          14875      2953.6000    227125.0000     74152.0000     25673.0000      2744.0000      6017.0000              0             30              0              0              0             70              0           0.00         0.0000
          14876      2854.0750    227125.0000     74152.0000     25673.0000      2744.0000      6017.0000              0             30              0              0              0             70              0           0.00         0.0000
          14877      2791.8250    227125.0000     74152.0000     25673.0000      2744.0000      6017.0000              0             30              0              0              0             70              0           0.00         0.0000
          14878      2896.8250    227125.0000     74152.0000     25673.0000      2744.0000      6017.0000              0             30              0              0              0             70              0           0.00         0.0000
          14879      2978.6500    227125.0000     74152.0000     25673.0000      2744.0000      6017.0000              0             30              0              0              0             70              0           0.00         0.0000
          14880      2993.9000    227125.0000     74152.0000     25673.0000      2744.0000      6017.0000              0             30              0              0              0             70              0           0.00         0.0000
          14881      2987.8000    227125.0000     74152.0000     25673.0000      2744.0000      6017.0000              0             30              0              0              0             70              0           0.00         0.0000
          14882      3096.4500    227125.0000     74152.0000     25673.0000      2744.0000      6017.0000              0             30              0              0              0             70              0           0.00         0.0000
          14883      2411.5000       535.0000       517.0000       267.0000         0.0000        28.0000              0             30              0              0              0             70              0           0.00         0.0000
          14884      2849.2000       535.0000       517.0000       267.0000         0.0000        28.0000              0             30              0              0              0             70              0           0.00         0.0000
          14885      2833.3500    229988.0000     57512.0000     18670.0000      1919.0000      4586.0000              0             30              0              0              0             70              0           0.00         0.0000
          14886      2631.2750    229988.0000     57512.0000     18670.0000      1919.0000      4586.0000              0             30              0              0              0             70              0           0.00         0.0000
          14887      2632.5000    229988.0000     57512.0000     18670.0000      1919.0000      4586.0000              0             30              0              0              0             70              0           0.00         0.0000
          14888      2623.9500    229988.0000     57512.0000     18670.0000      1919.0000      4586.0000              0             30              0              0              0             70              0           0.00         0.0000
          14889      2633.7000    210690.0000     54712.0000     18259.0000      1870.0000      4448.0000              0             30              0              0              0             70              0           0.00         0.0000
          14890      2730.7750    210690.0000     54712.0000     18259.0000      1870.0000      4448.0000              0             30              0              0              0             70              0           0.00         0.0000
          14891      2771.7000    210690.0000     54712.0000     18259.0000      1870.0000      4448.0000              0             30              0              0              0             70              0           0.00         0.0000
          14892      2800.9750    210690.0000     54712.0000     18259.0000      1870.0000      4448.0000              0             30              0              0              0             70              0           0.00         0.0000
