#___________________________________________________________________________
~VERSION INFORMATION
 VERS.                                 2.0 : CWLS LOG ASCII STANDARD - VERSION 2.0
 WRAP.                                  NO : ONE LINE PER DEPTH STEP
#___________________________________________________________________________
~WELL INFORMATION
 STRT.F                           10160.00 : START DEPTH
 STOP.F                           19983.00 : STOP DEPTH
 STEP.F                                  1 : STEP VALUE
 NULL.                             -999.25 : NULL VALUE
 COMP.      Magnolia Oil & Gas             : COMPANY
 WELL.      Klondike Rush H06 KL           : WELL
  FLD.      Giddings (AC)                  : FIELD
  LOC.      Washington County              : LOCATION
 CNTY.      Washington County              : PARISH/COUNTY
 STAT.      Texas                          : STATE
 CTRY.      USA                            : COUNTRY
" SRVC.      PetroLog International, Inc.   : SERVICE COMPANY"
 DATE.      03/10/2022                     : LOG DATE
  API.      42-477-31192                   : API REFERENCE NUMBER
#___________________________________________________________________________
~CURVE INFORMATION
#MNEM.UNITS                                : DESCRIPTION
DEPTH.F                                    :  1 DEPTH
 TGAS.Units                                :  2 Chromatograph_TotalGas
 MTHX.PPM                                  :  3 Chromatograph_MethanePPMMax
 ETHX.PPM                                  :  4 Chromatograph_EthanePPMMax
 PRPX.PPM                                  :  5 Chromatograph_PropanePPMMax
 IBTX.PPM                                  :  6 Chromatograph_IButanePPMMax
 NBTX.PPM                                  :  7 Chromatograph_NButanePPMMax
     .----                                 :  8 Lithology_Cement
     .----                                 :  9 Lithology_Shale
     .----                                 : 10 Lithology_Siltstone				
     .----                                 : 11 Lithology_Sand				
     .----                                 : 12 Lithology_Lime				
     .----                                 : 13 Lithology_Chalk				
     .----                                 : 14 Lithology_Tuff				Ash
     .----                                 : 15 Lithology_Calcimetry		 	15 Fracture	
 PAGL.BBLS                                 : 16 Mud_PitActiveGainLoss			16 Kick / 	Loss
#___________________________________________________________________________				
~A        DEPTH           TGAS           MTHX           ETHX           PRPX           IBTX           NBTX                                                                                                                                   PAGL				
# ...
          15396      1568.9750    160282.0000     49140.0000     17278.0000      1705.0000      3795.0000              0              0              0              0              0            100              0           0.00         0.0000
          15397      1711.2500    160282.0000     49140.0000     17278.0000      1705.0000      3795.0000              0              0              0              0              0            100              0           0.00         0.0000
          15398      1830.3000    160282.0000     49140.0000     17278.0000      1705.0000      3795.0000              0              0              0              0              0            100              0           0.00         0.0000
          15399      1914.5500    160282.0000     49140.0000     17278.0000      1705.0000      3795.0000              0              0              0              0              0            100              0           0.00         0.0000
          15400      1958.4750    160282.0000     49140.0000     17278.0000      1705.0000      3795.0000              0              0              0              0              0            100              0           0.00         0.0000
          15401      1962.1500    160282.0000     49140.0000     17278.0000      1705.0000      3795.0000              0              0              0              0              0            100              0           0.00         0.0000
          15402      1959.7000    134108.0000     45855.0000     16763.0000      1593.0000      3392.0000              0              0              0              0              0            100              0           0.00         0.0000
          15403      1959.7000    134108.0000     45855.0000     16763.0000      1593.0000      3392.0000              0              0              0              0              0            100              0           0.00         0.0000
          15404      1956.0500    134108.0000     45855.0000     16763.0000      1593.0000      3392.0000              0              0              0              0              0            100              0           0.00         0.0000
          15405      1942.6000    134108.0000     45855.0000     16763.0000      1593.0000      3392.0000              0              0              0              0              0            100              0           0.00         0.0000
          15406      1919.4000    134108.0000     45855.0000     16763.0000      1593.0000      3392.0000              0              0              0              0              0            100              0           0.00         0.0000
          15407      1903.5500    134108.0000     45855.0000     16763.0000      1593.0000      3392.0000              0              0              0              0              0            100              0           0.00         0.0000
          15408      1901.7000    134108.0000     45855.0000     16763.0000      1593.0000      3392.0000              0              0              0              0              0            100              0           0.00         0.0000
          15409      1933.4500    134108.0000     45855.0000     16763.0000      1593.0000      3392.0000              0              0              0              0              0            100              0           0.00         0.0000
          15410      1973.1500    134108.0000     45855.0000     16763.0000      1593.0000      3392.0000              0              0              0              0              0            100              0           0.00         0.0000
          15411      1996.3500    134108.0000     45855.0000     16763.0000      1593.0000      3392.0000              0              0              0              0              0            100              0           0.00         0.0000
          15412      2023.2000    134108.0000     45855.0000     16763.0000      1593.0000      3392.0000              0              0              0              0              0            100              0           0.00         0.0000
          15413      2043.9500    134108.0000     45855.0000     16763.0000      1593.0000      3392.0000              0              0              0              0              0            100              0           0.00         0.0000
          15414      2057.4000    134108.0000     45855.0000     16763.0000      1593.0000      3392.0000              0              0              0              0              0            100              0           0.00         0.0000
          15415      2078.1500    134108.0000     45855.0000     16763.0000      1593.0000      3392.0000              0              0              0              0              0            100              0           0.00         0.0000
          15416      2091.6000    134108.0000     45855.0000     16763.0000      1593.0000      3392.0000              0              0              0              0              0            100              0           0.00         0.0000
          15417      2097.0750    134108.0000     45855.0000     16763.0000      1593.0000      3392.0000              0              0              0              0              0            100              0           0.00         0.0000
          15418      2105.0000    134108.0000     45855.0000     16763.0000      1593.0000      3392.0000              0              0              0              0              0            100              0           0.00         0.0000
          15419      2112.3500    134108.0000     45855.0000     16763.0000      1593.0000      3392.0000              0              0              0              0              0            100              0           0.00         0.0000
          15420      2118.4500    134108.0000     45855.0000     16763.0000      1593.0000      3392.0000              0              0              0              0              0            100              0           0.00         0.0000
          15421      2119.6500    134108.0000     45855.0000     16763.0000      1593.0000      3392.0000              0              0              0              0              0            100              0           0.00         0.0000
          15422      2146.5250    134108.0000     45855.0000     16763.0000      1593.0000      3392.0000              0              0              0              0              0            100              0           0.00         0.0000
          15423      2178.8750    134108.0000     45855.0000     16763.0000      1593.0000      3392.0000              0              0              0              0              0            100              0           0.00         0.0000
          15424      2195.3750    134108.0000     45855.0000     16763.0000      1593.0000      3392.0000              0              0              0              0              0            100              0           0.00         0.0000
          15425      2197.8000    134108.0000     45855.0000     16763.0000      1593.0000      3392.0000              0              0              0              0              0            100              0           0.00         0.0000
          15426      2190.4750    151383.0000     55382.0000     20015.0000      1879.0000      3865.0000              0              0              0              0              0            100              0           0.00         0.0000
          15427      2185.6000    151383.0000     55382.0000     20015.0000      1879.0000      3865.0000              0              0              0              0              0            100              0           0.00         0.0000
          15428      2200.2500    151383.0000     55382.0000     20015.0000      1879.0000      3865.0000              0              0              0              0              0            100              0           0.00         0.0000
          15429      2203.9000    151383.0000     55382.0000     20015.0000      1879.0000      3865.0000              0              0              0              0              0            100              0           0.00         0.0000
