#___________________________________________________________________________
~VERSION INFORMATION
 VERS.                                 2.0 : CWLS LOG ASCII STANDARD - VERSION 2.0
 WRAP.                                  NO : ONE LINE PER DEPTH STEP
#___________________________________________________________________________
~WELL INFORMATION
 STRT.F                           10235.00 : START DEPTH
 STOP.F                           15217.00 : STOP DEPTH
 STEP.F                                  1 : STEP VALUE
 NULL.                             -999.25 : NULL VALUE
 COMP.      Magnolia Oil & Gas             : COMPANY
 WELL.      Klondike Mill H08 KL           : WELL
  FLD.      Giddings (AC)                  : FIELD
  LOC.      Washington County              : LOCATION
 CNTY.      Washington County              : PARISH/COUNTY
 STAT.      Texas                          : STATE
 CTRY.      USA                            : COUNTRY
" SRVC.      PetroLog International, Inc.   : SERVICE COMPANY"
 DATE.      03/17/2022                     : LOG DATE
  API.      42-477-31194                   : API REFERENCE NUMBER
#___________________________________________________________________________
~CURVE INFORMATION
#MNEM.UNITS                                : DESCRIPTION
DEPTH.F                                    :  1 DEPTH
 TGAS.Units                                :  2 Chromatograph_TotalGas
 MTHX.PPM                                  :  3 Chromatograph_MethanePPMMax
 ETHX.PPM                                  :  4 Chromatograph_EthanePPMMax
 PRPX.PPM                                  :  5 Chromatograph_PropanePPMMax
 IBTX.PPM                                  :  6 Chromatograph_IButanePPMMax
 NBTX.PPM                                  :  7 Chromatograph_NButanePPMMax
     .----                                 :  8 Lithology_Cement
     .----                                 :  9 Lithology_Shale
     .----                                 : 10 Lithology_Siltstone				
     .----                                 : 11 Lithology_Sand				
     .----                                 : 12 Lithology_Lime				
     .----                                 : 13 Lithology_Chalk				
     .----                                 : 14 Lithology_Tuff				Ash
     .----                                 : 15 Lithology_Calcimetry		 	15 Fracture	 
 PAGL.BBLS                                 : 16 Mud_PitActiveGainLoss			16 Kick  /  Loss	Loss
#___________________________________________________________________________				
~A        DEPTH           TGAS           MTHX           ETHX           PRPX           IBTX           NBTX                                                                                                                                   PAGL				
# ...
          10575        81.8000      4030.0000       621.0000       320.0000         0.0000        23.0000              0              0              0              0              0            100              0           0.00         0.0000
          10576        72.0500      4030.0000       621.0000       320.0000         0.0000        23.0000              0              0              0              0              0            100              0           0.00         0.0000
          10577        67.7750      4030.0000       621.0000       320.0000         0.0000        23.0000              0              0              0              0              0            100              0           0.00         0.0000
          10578        64.7250      4030.0000       621.0000       320.0000         0.0000        23.0000              0              0              0              0              0            100              0           0.00         0.0000
          10579        63.5000      4030.0000       621.0000       320.0000         0.0000        23.0000              0              0              0              0              0            100              0           0.00         0.0000
          10580        65.9500      4030.0000       621.0000       320.0000         0.0000        23.0000              0              0              0              0              0            100              0           0.00         0.0000
          10581        74.5000      4030.0000       621.0000       320.0000         0.0000         0.0000              0              0              0              0              0            100              0           0.00         0.0000
          10582        84.8500      4030.0000       621.0000       320.0000         0.0000         0.0000              0              0              0              0              0            100              0           0.00         0.0000
          10583        94.0000      4030.0000       621.0000       320.0000         0.0000         0.0000              0              0              0              0              0            100              0           0.00         0.0000
          10584       100.1000      4030.0000       621.0000       320.0000         0.0000         0.0000              0              0              0              0              0            100              0           0.00         0.0000
          10585       106.2500      4030.0000       621.0000       320.0000         0.0000         0.0000              0              0              0              0              0            100              0           0.00         0.0000
          10586       107.4500      4030.0000       621.0000       320.0000         0.0000         0.0000              0              0              0              0              0            100              0           0.00         0.0000
          10587       109.9000      4030.0000       621.0000       320.0000         0.0000         0.0000              0              0              0              0              0            100              0           0.00         0.0000
          10588       113.5500      4030.0000       621.0000       320.0000         0.0000         0.0000              0              0              0              0              0            100              0           0.00         0.0000
          10589       113.5500      4030.0000       621.0000       320.0000         0.0000         0.0000              0              0              0              0              0            100              0           0.00         0.0000
          10590       114.1750      4030.0000       621.0000       320.0000         0.0000         0.0000              0              0              0              0              0            100              0           0.00         0.0000
          10591       114.1750      4030.0000       621.0000       320.0000         0.0000         0.0000              0              0              0              0              0            100              0           0.00         0.0000
          10592       114.1750      4030.0000       621.0000       320.0000         0.0000         0.0000              0              0              0              0              0            100              0           0.00         0.0000
          10593       112.3500      4030.0000       621.0000       320.0000         0.0000         0.0000              0              0              0              0              0            100              0           0.00         0.0000
          10594       109.9000      4030.0000       621.0000       320.0000         0.0000         0.0000              0              0              0              0              0            100              0           0.00         0.0000
          10595       108.6500      4030.0000       621.0000       320.0000         0.0000         0.0000              0              0              0              0              0            100              0           0.00         0.0000
          10596       109.2750      4030.0000       621.0000       320.0000         0.0000         0.0000              0              0              0              0              0            100              0           0.00         0.0000
          10597       108.6500      4030.0000       621.0000       320.0000         0.0000         0.0000              0              0              0              0              0            100              0           0.00         0.0000
          10598       107.4500      4030.0000       621.0000       320.0000         0.0000         0.0000              0              0              0              0              0            100              0           0.00         0.0000
          10599       109.9000      4030.0000       621.0000       320.0000         0.0000         0.0000              0              0              0              0              0            100              0           0.00         0.0000
          10600       111.1000      4030.0000       621.0000       320.0000         0.0000         0.0000              0              0              0              0              0            100              0           0.00         0.0000
          10601       111.7250      4030.0000       621.0000       320.0000         0.0000         0.0000              0              0              0              0              0            100              0           0.00         0.0000
          10602       109.9000      4030.0000       621.0000       320.0000         0.0000         0.0000              0              0              0              0              0            100              0           0.00         0.0000
          10603       108.0500      4030.0000       621.0000       320.0000         0.0000         0.0000              0              0              0              0              0            100              0           0.00         0.0000
          10604       108.6500      4030.0000       621.0000       320.0000         0.0000         0.0000              0              0              0              0              0            100              0           0.00         0.0000
          10605       107.4500      4030.0000       621.0000       320.0000         0.0000         0.0000              0              0              0              0              0            100              0           0.00         0.0000
          10606       108.6500      4030.0000       621.0000       320.0000         0.0000         0.0000              0              0              0              0              0            100              0           0.00         0.0000
          10607       109.9000      4030.0000       621.0000       320.0000         0.0000         0.0000              0              0              0              0              0            100              0           0.00         0.0000
          10608       109.9000      3745.0000       558.0000       291.0000         0.0000         0.0000              0              0              0              0              0            100              0           0.00         0.0000
