#___________________________________________________________________________
~VERSION INFORMATION
 VERS.                                 2.0 : CWLS LOG ASCII STANDARD - VERSION 2.0
 WRAP.                                  NO : ONE LINE PER DEPTH STEP
#___________________________________________________________________________
~WELL INFORMATION
 STRT.F                           10160.00 : START DEPTH
 STOP.F                           19983.00 : STOP DEPTH
 STEP.F                                  1 : STEP VALUE
 NULL.                             -999.25 : NULL VALUE
 COMP.      Magnolia Oil & Gas             : COMPANY
 WELL.      Klondike Rush H06 KL           : WELL
  FLD.      Giddings (AC)                  : FIELD
  LOC.      Washington County              : LOCATION
 CNTY.      Washington County              : PARISH/COUNTY
 STAT.      Texas                          : STATE
 CTRY.      USA                            : COUNTRY
" SRVC.      PetroLog International, Inc.   : SERVICE COMPANY"
 DATE.      03/10/2022                     : LOG DATE
  API.      42-477-31192                   : API REFERENCE NUMBER
#___________________________________________________________________________
~CURVE INFORMATION
#MNEM.UNITS                                : DESCRIPTION
DEPTH.F                                    :  1 DEPTH
 TGAS.Units                                :  2 Chromatograph_TotalGas
 MTHX.PPM                                  :  3 Chromatograph_MethanePPMMax
 ETHX.PPM                                  :  4 Chromatograph_EthanePPMMax
 PRPX.PPM                                  :  5 Chromatograph_PropanePPMMax
 IBTX.PPM                                  :  6 Chromatograph_IButanePPMMax
 NBTX.PPM                                  :  7 Chromatograph_NButanePPMMax
     .----                                 :  8 Lithology_Cement
     .----                                 :  9 Lithology_Shale
     .----                                 : 10 Lithology_Siltstone				
     .----                                 : 11 Lithology_Sand				
     .----                                 : 12 Lithology_Lime				
     .----                                 : 13 Lithology_Chalk				
     .----                                 : 14 Lithology_Tuff				Ash
     .----                                 : 15 Lithology_Calcimetry		 	15 Fracture	
 PAGL.BBLS                                 : 16 Mud_PitActiveGainLoss			16 Kick / 	Loss
#___________________________________________________________________________				
~A        DEPTH           TGAS           MTHX           ETHX           PRPX           IBTX           NBTX                                                                                                                                   PAGL				
# ...
          17334      2084.2500    109877.0000     49871.0000     20805.0000      2837.0000      5930.0000              0              0              0              0              0            100              0           0.00         0.0000
          17335      2086.0750    109877.0000     49871.0000     20805.0000      2837.0000      5930.0000              0              0              0              0              0            100              0           0.00         0.0000
          17336      2082.4250    109877.0000     49871.0000     20805.0000      2837.0000      5930.0000              0              0              0              0              0            100              0           0.00         0.0000
          17337      2062.2500    109877.0000     49871.0000     20805.0000      2837.0000      5930.0000              0              0              0              0              0            100              0           0.00         0.0000
          17338      2057.4000    109877.0000     49871.0000     20805.0000      2837.0000      5930.0000              0              0              0              0              0            100              0           0.00         0.0000
          17339      2047.0000    109877.0000     49871.0000     20805.0000      2867.0000      5965.0000              0              0              0              0              0            100              0           0.00         0.0000
          17340      2050.0500    102007.0000     48356.0000     20548.0000      2867.0000      5965.0000              0              0              0              0              0            100              0           0.00         0.0000
          17341      2048.2250    102007.0000     48356.0000     20548.0000      2867.0000      5965.0000              0              0              0              0              0            100              0           0.00         0.0000
          17342      2054.9500    102007.0000     48356.0000     20548.0000      2867.0000      5965.0000              0              0              0              0              0            100              0           0.00         0.0000
          17343      2068.4000    102007.0000     48356.0000     20548.0000      2867.0000      5965.0000              0              0              0              0              0            100              0           0.00         0.0000
          17344      2078.1500    102007.0000     48356.0000     20548.0000      2867.0000      5965.0000              0              0              0              0              0            100              0           0.00         0.0000
          17345      2131.8500    102007.0000     48356.0000     20548.0000      2867.0000      5965.0000              0              0              0              0              0            100              0           0.00         0.0000
          17346      2189.2500    111880.0000     50564.0000     20814.0000      2867.0000      5965.0000              0              0              0              0              0            100              0           0.00         0.0000
          17347      2184.3500    111880.0000     50564.0000     20814.0000      2847.0000      5838.0000              0              0              0              0              0            100              0           0.00         0.0000
          17348      2163.0000    111880.0000     50564.0000     20814.0000      2847.0000      5838.0000              0              0              0              0              0            100              0           0.00         0.0000
          17349      2064.1000    111880.0000     50564.0000     20814.0000      2847.0000      5838.0000              0              0              0              0              0            100              0           0.00         0.0000
          17350      1912.1000    111880.0000     50564.0000     20814.0000      2847.0000      5838.0000              0              0              0              0              0            100              0           0.00         0.0000
          17351      1797.3250    111880.0000     50564.0000     20814.0000      2847.0000      5838.0000              0              0              0              0              0            100              0           0.00         0.0000
          17352      1727.1000    111880.0000     50564.0000     20814.0000      2847.0000      5838.0000              0              0              0              0              0            100              0           0.00         0.0000
          17353      1681.9250    111880.0000     50564.0000     20814.0000      2847.0000      5838.0000              0              0              0              0              0            100              0           0.00         0.0000
          17354      1675.8250    111880.0000     50564.0000     20814.0000      2847.0000      5838.0000              0              0              0              0              0            100              0           0.00         0.0000
          17355      1664.2500    111880.0000     50564.0000     20814.0000      2847.0000      5838.0000              0              0              0              0              0            100              0           0.00         0.0000
          17356      1669.1000    111880.0000     50564.0000     20814.0000      2847.0000      5838.0000              0              0              0              0              0            100              0           0.00         0.0000
          17357      1681.3000    111880.0000     50564.0000     20814.0000      2847.0000      5838.0000              0              0              0              0              0            100              0           0.00         0.0000
          17358      1700.8500     70562.0000     36823.0000     17790.0000      2491.0000      5538.0000              0              0              0              0              0            100              0           0.00         0.0000
          17359      1702.7000     70562.0000     36823.0000     17790.0000      2491.0000      5538.0000              0              0              0              0              0            100              0           0.00         0.0000
          17360      1711.2500     70562.0000     36823.0000     17790.0000      2491.0000      5538.0000              0              0              0              0              0            100              0           0.00         0.0000
          17361      1717.9500     70562.0000     36823.0000     17790.0000      2491.0000      5538.0000              0              0              0              0              0            100              0           0.00         0.0000
          17362      1744.2000     70562.0000     36823.0000     17790.0000      2491.0000      5538.0000              0              0              0              0              0            100              0           0.00         0.0000
          17363      1755.8000     70562.0000     36823.0000     17790.0000      2491.0000      5538.0000              0              0              0              0              0            100              0           0.00         0.0000
          17364      1755.8000     70562.0000     36823.0000     17790.0000      2491.0000      5538.0000              0              0              0              0              0            100              0           0.00         0.0000
          17365      1741.1500     70562.0000     36823.0000     17790.0000      2491.0000      5538.0000              0              0              0              0              0            100              0           0.00         0.0000
          17366      1742.3750     70562.0000     36823.0000     17790.0000      2491.0000      5538.0000              0              0              0              0              0            100              0           0.00         0.0000
          17367      1733.8000     70562.0000     36823.0000     17790.0000      2491.0000      5538.0000              0              0              0              0              0            100              0           0.00         0.0000
