#___________________________________________________________________________
~VERSION INFORMATION
 VERS.                                 2.0 : CWLS LOG ASCII STANDARD - VERSION 2.0
 WRAP.                                  NO : ONE LINE PER DEPTH STEP
#___________________________________________________________________________
~WELL INFORMATION
 STRT.F                           10160.00 : START DEPTH
 STOP.F                           19983.00 : STOP DEPTH
 STEP.F                                  1 : STEP VALUE
 NULL.                             -999.25 : NULL VALUE
 COMP.      Magnolia Oil & Gas             : COMPANY
 WELL.      Klondike Rush H06 KL           : WELL
  FLD.      Giddings (AC)                  : FIELD
  LOC.      Washington County              : LOCATION
 CNTY.      Washington County              : PARISH/COUNTY
 STAT.      Texas                          : STATE
 CTRY.      USA                            : COUNTRY
" SRVC.      PetroLog International, Inc.   : SERVICE COMPANY"
 DATE.      03/10/2022                     : LOG DATE
  API.      42-477-31192                   : API REFERENCE NUMBER
#___________________________________________________________________________
~CURVE INFORMATION
#MNEM.UNITS                                : DESCRIPTION
DEPTH.F                                    :  1 DEPTH
 TGAS.Units                                :  2 Chromatograph_TotalGas
 MTHX.PPM                                  :  3 Chromatograph_MethanePPMMax
 ETHX.PPM                                  :  4 Chromatograph_EthanePPMMax
 PRPX.PPM                                  :  5 Chromatograph_PropanePPMMax
 IBTX.PPM                                  :  6 Chromatograph_IButanePPMMax
 NBTX.PPM                                  :  7 Chromatograph_NButanePPMMax
     .----                                 :  8 Lithology_Cement
     .----                                 :  9 Lithology_Shale
     .----                                 : 10 Lithology_Siltstone				
     .----                                 : 11 Lithology_Sand				
     .----                                 : 12 Lithology_Lime				
     .----                                 : 13 Lithology_Chalk				
     .----                                 : 14 Lithology_Tuff				Ash
     .----                                 : 15 Lithology_Calcimetry		 	15 Fracture	
 PAGL.BBLS                                 : 16 Mud_PitActiveGainLoss			16 Kick / 	Loss
#___________________________________________________________________________				
~A        DEPTH           TGAS           MTHX           ETHX           PRPX           IBTX           NBTX                                                                                                                                   PAGL				
# ...
          13424      1520.1500     14334.0000      7860.0000      3782.0000        89.0000       544.0000              0              0              0              0              0            100              0           0.00         0.0000
          13425      1611.7250     14334.0000      7860.0000      3782.0000        89.0000       544.0000              0              0              0              0              0            100              0           0.00         0.0000
          13426      1686.2250     14334.0000      7860.0000      3782.0000        89.0000       544.0000              0              0              0              0              0            100              0           0.00         0.0000
          13427      1760.7000     14334.0000      7860.0000      3782.0000        89.0000       544.0000              0              0              0              0              0            100              0           0.00         0.0000
          13428      1821.1250     14334.0000      7860.0000      3782.0000        89.0000       544.0000              0              0              0              0              0            100              0           0.00         0.0000
          13429      1872.4250     14334.0000      7860.0000      3782.0000        89.0000       544.0000              0              0              0              0              0            100              0           0.00         0.0000
          13430      1913.9250     14334.0000      7860.0000      3782.0000        89.0000       544.0000              0              0              0              0              0            100              0           0.00         0.0000
          13431      1940.7750     14334.0000      7860.0000      3782.0000        89.0000       544.0000              0              0              0              0              0            100              0           0.00         0.0000
          13432      1956.0500     14334.0000      7860.0000      3782.0000        89.0000       544.0000              0              0              0              0              0            100              0           0.00         0.0000
          13433      1960.3250     14334.0000      7860.0000      3782.0000        89.0000       544.0000              0              0              0              0              0            100              0           0.00         0.0000
          13434      1960.9500     14334.0000      7860.0000      3782.0000        89.0000       544.0000              0              0              0              0              0            100              0           0.00         0.0000
          13435      1959.1000     14334.0000      7860.0000      3782.0000        89.0000       544.0000              0              0              0              0              0            100              0           0.00         0.0000
          13436      1955.4500     14334.0000      7860.0000      3782.0000        89.0000       544.0000              0              0              0              0              0            100              0           0.00         0.0000
          13437      1945.0500     14334.0000      7860.0000      3782.0000        89.0000       544.0000              0              0              0              0              0            100              0           0.00         0.0000
          13438      1932.2500     14334.0000      7860.0000      3782.0000        89.0000       544.0000              0              0              0              0              0            100              0           0.00         0.0000
          13439      1926.7500     14334.0000      7860.0000      3782.0000        89.0000       544.0000              0              0              0              0              0            100              0           0.00         0.0000
          13440      1936.5000     14334.0000      7860.0000      3782.0000        89.0000       544.0000              0              0              0              0              0            100              0           0.00         0.0000
          13441      1943.8500     14334.0000      7860.0000      3782.0000        89.0000       544.0000              0              0              0              0              0            100              0           0.00         0.0000
          13442      1957.8750     14334.0000      7860.0000      3782.0000        89.0000       544.0000              0              0              0              0              0            100              0           0.00         0.0000
          13443      1968.2500     14334.0000      7860.0000      3782.0000        89.0000       544.0000              0              0              0              0              0            100              0           0.00         0.0000
          13444      1967.6500     14334.0000      7860.0000      3782.0000        89.0000       544.0000              0              0              0              0              0            100              0           0.00         0.0000
          13445      1956.6500     14334.0000      7860.0000      3782.0000        89.0000       544.0000              0              0              0              0              0            100              0           0.00         0.0000
          13446      1938.9500     14334.0000      7860.0000      3782.0000        89.0000       544.0000              0              0              0              0              0            100              0           0.00         0.0000
          13447      1920.6500     14334.0000      7860.0000      3782.0000        89.0000       544.0000              0              0              0              0              0            100              0           0.00         0.0000
          13448      1910.8500     14334.0000      7860.0000      3782.0000        89.0000       544.0000              0              0              0              0              0            100              0           0.00         0.0000
          13449      1914.5500     14334.0000      7860.0000      3782.0000        89.0000       544.0000              0              0              0              0              0            100              0           0.00         0.0000
          13450      1970.7000     14334.0000      7860.0000      3782.0000        89.0000       544.0000              0              0              0              0              0            100              0           0.00         0.0000
          13451      2067.1500     14334.0000      7860.0000      3782.0000        89.0000       544.0000              0              0              0              0              0            100              0           0.00         0.0000
          13452      2208.1750     62851.0000     34415.0000     19290.0000        89.0000       544.0000              0              0              0              0              0            100              0           0.00         0.0000
          13453      2379.7250     62851.0000     34415.0000     19290.0000         0.0000         0.0000              0              0              0              0              0            100              0           0.00         0.0000
          13454      2499.3750     62851.0000     34415.0000     19290.0000         0.0000         0.0000              0              0              0              0              0            100              0           0.00         0.0000
          13455      2529.9000     62851.0000     34415.0000     19290.0000         0.0000         0.0000              0              0              0              0              0            100              0           0.00         0.0000
          13456      2526.2500     62851.0000     34415.0000     19290.0000         0.0000         0.0000              0              0              0              0              0            100              0           0.00         0.0000
          13457      2460.3000     62851.0000     34415.0000     19290.0000         0.0000         0.0000              0              0              0              0              0            100              0           0.00         0.0000
