#___________________________________________________________________________
~VERSION INFORMATION
 VERS.                                 2.0 : CWLS LOG ASCII STANDARD - VERSION 2.0
 WRAP.                                  NO : ONE LINE PER DEPTH STEP
#___________________________________________________________________________
~WELL INFORMATION
 STRT.F                           10160.00 : START DEPTH
 STOP.F                           19983.00 : STOP DEPTH
 STEP.F                                  1 : STEP VALUE
 NULL.                             -999.25 : NULL VALUE
 COMP.      Magnolia Oil & Gas             : COMPANY
 WELL.      Klondike Rush H06 KL           : WELL
  FLD.      Giddings (AC)                  : FIELD
  LOC.      Washington County              : LOCATION
 CNTY.      Washington County              : PARISH/COUNTY
 STAT.      Texas                          : STATE
 CTRY.      USA                            : COUNTRY
" SRVC.      PetroLog International, Inc.   : SERVICE COMPANY"
 DATE.      03/10/2022                     : LOG DATE
  API.      42-477-31192                   : API REFERENCE NUMBER
#___________________________________________________________________________
~CURVE INFORMATION
#MNEM.UNITS                                : DESCRIPTION
DEPTH.F                                    :  1 DEPTH
 TGAS.Units                                :  2 Chromatograph_TotalGas
 MTHX.PPM                                  :  3 Chromatograph_MethanePPMMax
 ETHX.PPM                                  :  4 Chromatograph_EthanePPMMax
 PRPX.PPM                                  :  5 Chromatograph_PropanePPMMax
 IBTX.PPM                                  :  6 Chromatograph_IButanePPMMax
 NBTX.PPM                                  :  7 Chromatograph_NButanePPMMax
     .----                                 :  8 Lithology_Cement
     .----                                 :  9 Lithology_Shale
     .----                                 : 10 Lithology_Siltstone				
     .----                                 : 11 Lithology_Sand				
     .----                                 : 12 Lithology_Lime				
     .----                                 : 13 Lithology_Chalk				
     .----                                 : 14 Lithology_Tuff				Ash
     .----                                 : 15 Lithology_Calcimetry		 	15 Fracture	
 PAGL.BBLS                                 : 16 Mud_PitActiveGainLoss			16 Kick / 	Loss
#___________________________________________________________________________				
~A        DEPTH           TGAS           MTHX           ETHX           PRPX           IBTX           NBTX                                                                                                                                   PAGL				
# ...
          12778      2144.1000    132678.0000     54350.0000     24767.0000      3406.0000      7390.0000              0              0              0              0              0            100              0           0.00         0.0000
          12779      2073.8750    132678.0000     54350.0000     24767.0000      3406.0000      7390.0000              0              0              0              0              0            100              0           0.00         0.0000
          12780      2450.5500    132678.0000     57350.0000     27008.0000      3599.0000      7390.0000              0              0              0              0              0            100              0           0.00         0.0000
          12781      2459.7000    125738.0000     57350.0000     27008.0000      3599.0000      7293.0000              0              0              0              0              0            100              0           0.00         0.0000
          12782      2430.4000    125738.0000     57350.0000     27008.0000      3599.0000      7293.0000              0              0              0              0              0            100              0           0.00         0.0000
          12783      2233.8250    125738.0000     57350.0000     27008.0000      3599.0000      7293.0000              0              0              0              0              0            100              0           0.00         0.0000
          12784      1829.6750    125738.0000     57350.0000     27008.0000      3599.0000      7293.0000              0              0              0              0              0            100              0           0.00         0.0000
          12785      1412.7000    125738.0000     57350.0000     27008.0000      3599.0000      7293.0000              0              0              0              0              0            100              0           0.00         0.0000
          12786      1058.0000    125738.0000     57350.0000     27008.0000      3599.0000      7293.0000              0              0              0              0              0            100              0           0.00         0.0000
          12787       819.9250    125738.0000     57350.0000     27008.0000      3599.0000      7293.0000              0              0              0              0              0            100              0           0.00         0.0000
          12788       653.8500    125738.0000     57350.0000     27008.0000      3599.0000      7293.0000              0              0              0              0              0            100              0           0.00         0.0000
          12789       534.8000    125738.0000     57350.0000     27008.0000      3599.0000      7293.0000              0              0              0              0              0            100              0           0.00         0.0000
          12790       449.3500    125738.0000     57350.0000     27008.0000      3599.0000      7293.0000              0              0              0              0              0            100              0           0.00         0.0000
          12791       395.6000    125738.0000     57350.0000     27008.0000      3599.0000      7293.0000              0              0              0              0              0            100              0           0.00         0.0000
          12792       358.3750    125738.0000     57350.0000     27008.0000      3599.0000      7293.0000              0              0              0              0              0            100              0           0.00         0.0000
          12793       326.6250    125738.0000     57350.0000     27008.0000      3599.0000      7293.0000              0              0              0              0              0            100              0           0.00         0.0000
          12794       307.0750    125738.0000     57350.0000     27008.0000      3599.0000      7293.0000              0              0              0              0              0            100              0           0.00         0.0000
          12795       291.8000    125738.0000     57350.0000     27008.0000      3599.0000      7293.0000              0              0              0              0              0            100              0           0.00         0.0000
          12796       279.0000    125738.0000     57350.0000     27008.0000      3599.0000      7293.0000              0              0              0              0              0            100              0           0.00         0.0000
          12797       271.0500    125738.0000     57350.0000     27008.0000      3599.0000      7293.0000              0              0              0              0              0            100              0           0.00         0.0000
          12798       299.1500    125738.0000     57350.0000     27008.0000      3599.0000      7293.0000              0              0              0              0              0            100              0           0.00         0.0000
          12799       470.7000    125738.0000     57350.0000     27008.0000      3599.0000      7293.0000              0              0              0              0              0            100              0           0.00         0.0000
          12800      2572.6500    125738.0000     57350.0000     27008.0000      3599.0000      7293.0000              0              0              0              0              0            100              0           0.00         0.0000
          12801      2566.5500    102699.0000     51355.0000     25717.0000      3492.0000      5994.0000              0              0              0              0              0            100              0           0.00         0.0000
          12802      2540.3000    102699.0000     51355.0000     25717.0000      3492.0000      5994.0000              0              0              0              0              0            100              0           0.00         0.0000
          12803      2500.6000    102699.0000     51355.0000     25717.0000      3492.0000      5994.0000              0              0              0              0              0            100              0           0.00         0.0000
          12804      2486.5750    102699.0000     51355.0000     25717.0000      3492.0000      5994.0000              0              0              0              0              0            100              0           0.00         0.0000
          12805      2471.9250    102699.0000     51355.0000     25717.0000      3492.0000      5994.0000              0              0              0              0              0            100              0           0.00         0.0000
          12806      2470.1000    102699.0000     51355.0000     25717.0000      3492.0000      5994.0000              0              0              0              0              0            100              0           0.00         0.0000
          12807      2410.2500    102699.0000     51355.0000     25717.0000      3492.0000      5994.0000              0              0              0              0              0            100              0           0.00         0.0000
          12808      2213.0500    102699.0000     51355.0000     25717.0000      3492.0000      5994.0000              0              0              0              0              0            100              0           0.00         0.0000
          12809      2023.2000    102699.0000     51355.0000     25717.0000      3492.0000      5994.0000              0              0              0              0              0            100              0           0.00         0.0000
          12810      2011.3210    102699.0000     51355.0000     25717.0000      3492.0000      5994.0000              0              0              0              0              0            100              0           0.00         0.0000
          12811      2003.4600    102699.0000     51355.0000     25717.0000      3492.0000      5994.0000              0              0              0              0              0            100              0           0.00         0.0000
