#___________________________________________________________________________
~VERSION INFORMATION
 VERS.                                 2.0 : CWLS LOG ASCII STANDARD - VERSION 2.0
 WRAP.                                  NO : ONE LINE PER DEPTH STEP
#___________________________________________________________________________
~WELL INFORMATION
 STRT.F                           10235.00 : START DEPTH
 STOP.F                           15217.00 : STOP DEPTH
 STEP.F                                  1 : STEP VALUE
 NULL.                             -999.25 : NULL VALUE
 COMP.      Magnolia Oil & Gas             : COMPANY
 WELL.      Klondike Mill H08 KL           : WELL
  FLD.      Giddings (AC)                  : FIELD
  LOC.      Washington County              : LOCATION
 CNTY.      Washington County              : PARISH/COUNTY
 STAT.      Texas                          : STATE
 CTRY.      USA                            : COUNTRY
" SRVC.      PetroLog International, Inc.   : SERVICE COMPANY"
 DATE.      03/17/2022                     : LOG DATE
  API.      42-477-31194                   : API REFERENCE NUMBER
#___________________________________________________________________________
~CURVE INFORMATION
#MNEM.UNITS                                : DESCRIPTION
DEPTH.F                                    :  1 DEPTH
 TGAS.Units                                :  2 Chromatograph_TotalGas
 MTHX.PPM                                  :  3 Chromatograph_MethanePPMMax
 ETHX.PPM                                  :  4 Chromatograph_EthanePPMMax
 PRPX.PPM                                  :  5 Chromatograph_PropanePPMMax
 IBTX.PPM                                  :  6 Chromatograph_IButanePPMMax
 NBTX.PPM                                  :  7 Chromatograph_NButanePPMMax
     .----                                 :  8 Lithology_Cement
     .----                                 :  9 Lithology_Shale
     .----                                 : 10 Lithology_Siltstone				
     .----                                 : 11 Lithology_Sand				
     .----                                 : 12 Lithology_Lime				
     .----                                 : 13 Lithology_Chalk				
     .----                                 : 14 Lithology_Tuff				Ash
     .----                                 : 15 Lithology_Calcimetry		 	15 Fracture	 
 PAGL.BBLS                                 : 16 Mud_PitActiveGainLoss			16 Kick  /  Loss	Loss
#___________________________________________________________________________				
~A        DEPTH           TGAS           MTHX           ETHX           PRPX           IBTX           NBTX                                                                                                                                   PAGL				
# ...
          13227       339.4500    104871.0000     47703.0000     22844.0000      3242.0000      8018.0000              0              0              0              0              0            100              0           0.00         0.0000
          13228       328.4500    104871.0000     47703.0000     22844.0000      3242.0000      8018.0000              0              0              0              0              0            100              0           0.00         0.0000
          13229       319.3000    104871.0000     47703.0000     22844.0000      3242.0000      8018.0000              0              0              0              0              0            100              0           0.00         0.0000
          13230       313.2000    104871.0000     47703.0000     22844.0000      3242.0000      8018.0000              0              0              0              0              0            100              0           0.00         0.0000
          13231       301.6000    104871.0000     47703.0000     22844.0000      3242.0000      8018.0000              0              0              0              0              0            100              0           0.00         0.0000
          13232       304.0500    104871.0000     47703.0000     22844.0000      3242.0000      8018.0000              0              0              0              0              0            100              0           0.00         0.0000
          13233       330.9000      1815.0000      1297.0000       860.0000         0.0000       172.0000              0              0              0              0              0            100              0           0.00         0.0000
          13234       409.6500      1815.0000      1297.0000       860.0000         0.0000       172.0000              0              0              0              0              0            100              0           0.00         0.0000
          13235       597.7000      1815.0000      1297.0000       860.0000         0.0000       172.0000              0              0              0              0              0            100              0           0.00         0.0000
          13236       909.6500      1815.0000      1297.0000       860.0000         0.0000       172.0000              0              0              0              0              0            100              0           0.00         0.0000
          13237      1158.7500      1815.0000      1297.0000       860.0000         0.0000       172.0000              0              0              0              0              0            100              0           0.00         0.0000
          13238      1395.6000      1815.0000      1297.0000       860.0000         0.0000       172.0000              0              0              0              0              0            100              0           0.00         0.0000
          13239      1553.7250      1815.0000      1297.0000       860.0000         0.0000       172.0000              0              0              0              0              0            100              0           0.00         0.0000
          13240      1673.3750      1815.0000      1297.0000       860.0000         0.0000       172.0000              0              0              0              0              0            100              0           0.00         0.0000
          13241      1771.7000      1815.0000      1297.0000       860.0000         0.0000       172.0000              0              0              0              0              0            100              0           0.00         0.0000
          13242      1833.9500      1815.0000      1297.0000       860.0000         0.0000       172.0000              0              0              0              0              0            100              0           0.00         0.0000
          13243      1901.1000      1815.0000      1297.0000       860.0000         0.0000       172.0000              0              0              0              0              0            100              0           0.00         0.0000
          13244      1947.5000      1815.0000      1297.0000       860.0000         0.0000       172.0000              0              0              0              0              0            100              0           0.00         0.0000
          13245      1983.5250      1815.0000      1297.0000       860.0000         0.0000       172.0000              0              0              0              0              0            100              0           0.00         0.0000
          13246      2009.7500      1815.0000      1297.0000       860.0000         0.0000       172.0000              0              0              0              0              0            100              0           0.00         0.0000
          13247      2032.3500      1815.0000      1297.0000       860.0000         0.0000       172.0000              0              0              0              0              0            100              0           0.00         0.0000
          13248      2051.9000      1815.0000      1297.0000       860.0000         0.0000       172.0000              0              0              0              0              0            100              0           0.00         0.0000
          13249      2087.9000      1815.0000      1297.0000       860.0000         0.0000       172.0000              0              0              0              0              0            100              0           0.00         0.0000
          13250      2107.4500      1815.0000      1297.0000       860.0000         0.0000       172.0000              0              0              0              0              0            100              0           0.00         0.0000
          13251      2136.1500      1815.0000      1297.0000       860.0000         0.0000       172.0000              0              0              0              0              0            100              0           0.00         0.0000
          13252      2185.5750      1815.0000      1297.0000       860.0000         0.0000       172.0000              0              0              0              0              0            100              0           0.00         0.0000
          13253      2226.5000      1815.0000      1297.0000       860.0000         0.0000       172.0000              0              0              0              0              0            100              0           0.00         0.0000
          13254      2252.1500      1815.0000      1297.0000       860.0000         0.0000       172.0000              0              0              0              0              0            100              0           0.00         0.0000
          13255      2255.2000      1815.0000      1297.0000       860.0000         0.0000       172.0000              0              0              0              0              0            100              0           0.00         0.0000
          13256      2241.7750      1815.0000      1297.0000       860.0000         0.0000       172.0000              0              0              0              0              0            100              0           0.00         0.0000
          13257      2187.4250      1815.0000      1297.0000       860.0000         0.0000       172.0000              0              0              0              0              0            100              0           0.00         0.0000
          13258      2153.2500      1815.0000      1297.0000       860.0000         0.0000       172.0000              0              0              0              0              0            100              0           0.00         0.0000
          13259      2147.1250      1815.0000      1297.0000       860.0000         0.0000       172.0000              0              0              0              0              0            100              0           0.00         0.0000
          13260      2177.0500      1815.0000      1297.0000       860.0000         0.0000       172.0000              0              0              0              0              0            100              0           0.00         0.0000
