#___________________________________________________________________________
~VERSION INFORMATION
 VERS.                                 2.0 : CWLS LOG ASCII STANDARD - VERSION 2.0
 WRAP.                                  NO : ONE LINE PER DEPTH STEP
#___________________________________________________________________________
~WELL INFORMATION
 STRT.F                           10235.00 : START DEPTH
 STOP.F                           15217.00 : STOP DEPTH
 STEP.F                                  1 : STEP VALUE
 NULL.                             -999.25 : NULL VALUE
 COMP.      Magnolia Oil & Gas             : COMPANY
 WELL.      Klondike Mill H08 KL           : WELL
  FLD.      Giddings (AC)                  : FIELD
  LOC.      Washington County              : LOCATION
 CNTY.      Washington County              : PARISH/COUNTY
 STAT.      Texas                          : STATE
 CTRY.      USA                            : COUNTRY
" SRVC.      PetroLog International, Inc.   : SERVICE COMPANY"
 DATE.      03/17/2022                     : LOG DATE
  API.      42-477-31194                   : API REFERENCE NUMBER
#___________________________________________________________________________
~CURVE INFORMATION
#MNEM.UNITS                                : DESCRIPTION
DEPTH.F                                    :  1 DEPTH
 TGAS.Units                                :  2 Chromatograph_TotalGas
 MTHX.PPM                                  :  3 Chromatograph_MethanePPMMax
 ETHX.PPM                                  :  4 Chromatograph_EthanePPMMax
 PRPX.PPM                                  :  5 Chromatograph_PropanePPMMax
 IBTX.PPM                                  :  6 Chromatograph_IButanePPMMax
 NBTX.PPM                                  :  7 Chromatograph_NButanePPMMax
     .----                                 :  8 Lithology_Cement
     .----                                 :  9 Lithology_Shale
     .----                                 : 10 Lithology_Siltstone				
     .----                                 : 11 Lithology_Sand				
     .----                                 : 12 Lithology_Lime				
     .----                                 : 13 Lithology_Chalk				
     .----                                 : 14 Lithology_Tuff				Ash
     .----                                 : 15 Lithology_Calcimetry		 	15 Fracture	 
 PAGL.BBLS                                 : 16 Mud_PitActiveGainLoss			16 Kick  /  Loss	Loss
#___________________________________________________________________________				
~A        DEPTH           TGAS           MTHX           ETHX           PRPX           IBTX           NBTX                                                                                                                                   PAGL				
# ...
          14553      2542.1500    120650.0000     36172.0000     14227.0000      1544.0000         0.0000              0              0              0              0              0            100              0           0.00         0.0000
          14554      2542.7250    120650.0000     36172.0000     14227.0000      1544.0000         0.0000              0              0              0              0              0            100              0           0.00         0.0000
          14555      2538.4750    120650.0000     36172.0000     14227.0000      1544.0000         0.0000              0              0              0              0              0            100              0           0.00         0.0000
          14556      2547.0000    120650.0000     36172.0000     14227.0000      1544.0000         0.0000              0              0              0              0              0            100              0           0.00         0.0000
          14557      2547.0000    120650.0000     36172.0000     14227.0000      1544.0000         0.0000              0              0              0              0              0            100              0           0.00         0.0000
          14558      2555.5500    198201.0000     54422.0000     18122.0000      1844.0000         0.0000              0              0              0              0              0            100              0           0.00         0.0000
          14559      2558.6000    198201.0000     54422.0000     18122.0000      1844.0000         0.0000              0              0              0              0              0            100              0           0.00         0.0000
          14560      2565.9500    198201.0000     54422.0000     18122.0000      1844.0000         0.0000              0              0              0              0              0            100              0           0.00         0.0000
          14561      2582.4000    198201.0000     54422.0000     18122.0000      1844.0000         0.0000              0              0              0              0              0            100              0           0.00         0.0000
          14562      2590.9500    198201.0000     54422.0000     18122.0000      1844.0000         0.0000              0              0              0              0              0            100              0           0.00         0.0000
          14563      2603.2000    198201.0000     54422.0000     18122.0000      1844.0000         0.0000              0              0              0              0              0            100              0           0.00         0.0000
          14564      2612.9500    198201.0000     54422.0000     18122.0000      1844.0000         0.0000              0              0              0              0              0            100              0           0.00         0.0000
          14565      2616.6000    198201.0000     54422.0000     18122.0000      1844.0000         0.0000              0              0              0              0              0            100              0           0.00         0.0000
          14566      2598.9000    198201.0000     54422.0000     18122.0000      1844.0000         0.0000              0              0              0              0              0            100              0           0.00         0.0000
          14567      2561.0500    198201.0000     54422.0000     18122.0000      1844.0000         0.0000              0              0              0              0              0            100              0           0.00         0.0000
          14568      2431.0000    198201.0000     54422.0000     18122.0000      1844.0000         0.0000              0              0              0              0              0            100              0           0.00         0.0000
          14569      2258.8500    198201.0000     54422.0000     18122.0000      1844.0000         0.0000              0              0              0              0              0            100              0           0.00         0.0000
          14570      2056.1750    198201.0000     54422.0000     18122.0000      1844.0000         0.0000              0              0              0              0              0            100              0           0.00         0.0000
          14571      2057.4000    198201.0000     54422.0000     18122.0000      1844.0000         0.0000              0              0              0              0              0            100              0           0.00         0.0000
          14572      2234.4500    198201.0000     54422.0000     18122.0000      1844.0000         0.0000              0              0              0              0              0            100              0           0.00         0.0000
          14573      2305.2500    198201.0000     54422.0000     18122.0000      1844.0000         0.0000              0              0              0              0              0            100              0           0.00         0.0000
          14574      2304.0500    198201.0000     54422.0000     18122.0000      1844.0000         0.0000              0              0              0              0              0            100              0           0.00         0.0000
          14575      2260.1000    198201.0000     54422.0000     18122.0000      1844.0000         0.0000              0              0              0              0              0            100              0           0.00         0.0000
          14576      2236.9000    198201.0000     54422.0000     18122.0000      1844.0000         0.0000              0              0              0              0              0            100              0           0.00         0.0000
          14577      2358.3750    198201.0000     54422.0000     18122.0000      1844.0000         0.0000              0              0              0              0              0            100              0           0.00         0.0000
          14578      2476.2000    198201.0000     54422.0000     18122.0000      1844.0000         0.0000              0              0              0              0              0            100              0           0.00         0.0000
          14579      2618.4500    198201.0000     54422.0000     18122.0000      1844.0000         0.0000              0              0              0              0              0            100              0           0.00         0.0000
          14580      2755.8000    198201.0000     54422.0000     18122.0000      1844.0000         0.0000              0              0              0              0              0            100              0           0.00         0.0000
          14581      2855.9000    198201.0000     54422.0000     18122.0000      1844.0000         0.0000              0              0              0              0              0            100              0           0.00         0.0000
          14582      2913.9250    198201.0000     54422.0000     18122.0000      1844.0000         0.0000              0              0              0              0              0            100              0           0.00         0.0000
          14583      2916.9500    198201.0000     54422.0000     18122.0000      1844.0000         0.0000              0              0              0              0              0            100              0           0.00         0.0000
          14584      2879.1000    198201.0000     54422.0000     18122.0000      1844.0000         0.0000              0              0              0              0              0            100              0           0.00         0.0000
          14585      2843.7000    198201.0000     54422.0000     18122.0000      1844.0000         0.0000              0              0              0              0              0            100              0           0.00         0.0000
          14586      2830.9000    191932.0000     69042.0000     26857.0000      3037.0000         0.0000              0              0              0              0              0            100              0           0.00         0.0000
