#___________________________________________________________________________
~VERSION INFORMATION
 VERS.                                 2.0 : CWLS LOG ASCII STANDARD - VERSION 2.0
 WRAP.                                  NO : ONE LINE PER DEPTH STEP
#___________________________________________________________________________
~WELL INFORMATION
 STRT.F                           10235.00 : START DEPTH
 STOP.F                           15217.00 : STOP DEPTH
 STEP.F                                  1 : STEP VALUE
 NULL.                             -999.25 : NULL VALUE
 COMP.      Magnolia Oil & Gas             : COMPANY
 WELL.      Klondike Mill H08 KL           : WELL
  FLD.      Giddings (AC)                  : FIELD
  LOC.      Washington County              : LOCATION
 CNTY.      Washington County              : PARISH/COUNTY
 STAT.      Texas                          : STATE
 CTRY.      USA                            : COUNTRY
" SRVC.      PetroLog International, Inc.   : SERVICE COMPANY"
 DATE.      03/17/2022                     : LOG DATE
  API.      42-477-31194                   : API REFERENCE NUMBER
#___________________________________________________________________________
~CURVE INFORMATION
#MNEM.UNITS                                : DESCRIPTION
DEPTH.F                                    :  1 DEPTH
 TGAS.Units                                :  2 Chromatograph_TotalGas
 MTHX.PPM                                  :  3 Chromatograph_MethanePPMMax
 ETHX.PPM                                  :  4 Chromatograph_EthanePPMMax
 PRPX.PPM                                  :  5 Chromatograph_PropanePPMMax
 IBTX.PPM                                  :  6 Chromatograph_IButanePPMMax
 NBTX.PPM                                  :  7 Chromatograph_NButanePPMMax
     .----                                 :  8 Lithology_Cement
     .----                                 :  9 Lithology_Shale
     .----                                 : 10 Lithology_Siltstone				
     .----                                 : 11 Lithology_Sand				
     .----                                 : 12 Lithology_Lime				
     .----                                 : 13 Lithology_Chalk				
     .----                                 : 14 Lithology_Tuff				Ash
     .----                                 : 15 Lithology_Calcimetry		 	15 Fracture	 
 PAGL.BBLS                                 : 16 Mud_PitActiveGainLoss			16 Kick  /  Loss	Loss
#___________________________________________________________________________				
~A        DEPTH           TGAS           MTHX           ETHX           PRPX           IBTX           NBTX                                                                                                                                   PAGL				
# ...
          14213      2971.9000    119273.0000     38982.0000     16070.0000      1861.0000      5357.0000              0              0              0              0              0            100              0           0.00         0.0000
          14214      3048.2250    155959.0000     61253.0000     26529.0000      3282.0000      7877.0000              0              0              0              0              0            100              0           0.00         0.0000
          14215      3124.5500    155959.0000     61253.0000     26529.0000      3282.0000      7877.0000              0              0              0              0              0            100              0           0.00         0.0000
          14216      3174.6000    155959.0000     61253.0000     26529.0000      3282.0000      7877.0000              0              0              0              0              0            100              0           0.00         0.0000
          14217      3248.4750    155959.0000     61253.0000     26529.0000      3282.0000      7877.0000              0              0              0              0              0            100              0           0.00         0.0000
          14218      3297.9250    155959.0000     61253.0000     26529.0000      3282.0000      7877.0000              0              0              0              0              0            100              0           0.00         0.0000
          14219      3299.1500    155959.0000     61253.0000     26529.0000      3282.0000      7877.0000              0              0              0              0              0            100              0           0.00         0.0000
          14220      3266.8000    155959.0000     61253.0000     26529.0000      3282.0000      7877.0000              0              0              0              0              0            100              0           0.00         0.0000
          14221      3240.5500    155959.0000     61253.0000     26529.0000      3282.0000      7877.0000              0              0              0              0              0            100              0           0.00         0.0000
          14222      3228.9250    155959.0000     61253.0000     26529.0000      3282.0000      7877.0000              0              0              0              0              0            100              0           0.00         0.0000
          14223      3238.7000    155959.0000     61253.0000     26529.0000      3282.0000      7877.0000              0              0              0              0              0            100              0           0.00         0.0000
          14224      3233.8250    155959.0000     61253.0000     26529.0000      3282.0000      7877.0000              0              0              0              0              0            100              0           0.00         0.0000
          14225      3248.4750    192067.0000     65290.0000     26529.0000      3282.0000      7877.0000              0              0              0              0              0            100              0           0.00         0.0000
          14226      2700.2500    192067.0000     65290.0000     24786.0000      2794.0000      6834.0000              0              0              0              0              0            100              0           0.00         0.0000
          14227      2798.5500    219188.0000     65290.0000     24786.0000      2794.0000      6834.0000              0              0              0              0              0            100              0           0.00         0.0000
          14228      2805.8500    219188.0000     64180.0000     21961.0000      2480.0000      5736.0000              0              0              0              0              0            100              0           0.00         0.0000
          14229      2778.4000    219188.0000     64180.0000     21961.0000      2480.0000      5736.0000              0              0              0              0              0            100              0           0.00         0.0000
          14230      2719.1500    219188.0000     64180.0000     21961.0000      2480.0000      5736.0000              0              0              0              0              0            100              0           0.00         0.0000
          14231      2836.4000    219188.0000     64180.0000     21961.0000      2480.0000      5736.0000              0              0              0              0              0            100              0           0.00         0.0000
          14232      2699.6500    219188.0000     64180.0000     21961.0000      2480.0000      5736.0000              0              0              0              0              0            100              0           0.00         0.0000
          14233      2638.6000    219188.0000     64180.0000     21961.0000      2480.0000      5736.0000              0              0              0              0              0            100              0           0.00         0.0000
          14234      2620.2500    198131.0000     56633.0000     20134.0000      2208.0000      5570.0000              0              0              0              0              0            100              0           0.00         0.0000
          14235      2608.0500    198131.0000     56633.0000     20134.0000      2208.0000      5570.0000              0              0              0              0              0            100              0           0.00         0.0000
          14236      2625.1500    198131.0000     56633.0000     20134.0000      2208.0000      5570.0000              0              0              0              0              0            100              0           0.00         0.0000
          14237      2641.6500    198131.0000     56633.0000     20134.0000      2208.0000      5570.0000              0              0              0              0              0            100              0           0.00         0.0000
          14238      2656.3000    198131.0000     56633.0000     20134.0000      2208.0000      5570.0000              0              0              0              0              0            100              0           0.00         0.0000
          14239      2648.3500    198131.0000     56633.0000     20134.0000      2208.0000      5570.0000              0              0              0              0              0            100              0           0.00         0.0000
          14240      2641.0500    198131.0000     56633.0000     20134.0000      2208.0000      5650.0000              0              0              0              0              0            100              0           0.00         0.0000
          14241      2651.4000    194524.0000     55941.0000     19878.0000      2207.0000      5650.0000              0              0              0              0              0            100              0           0.00         0.0000
          14242      2632.5000    194524.0000     55941.0000     19878.0000      2207.0000      5650.0000              0              0              0              0              0            100              0           0.00         0.0000
          14243      2637.3500    194524.0000     55941.0000     19878.0000      2207.0000      5650.0000              0              0              0              0              0            100              0           0.00         0.0000
          14244      2842.5000    200748.0000     59180.0000     21599.0000      2410.0000      5913.0000              0              0              0              0              0            100              0           0.00         0.0000
          14245      2676.4500    200748.0000     59180.0000     21599.0000      2410.0000      5913.0000              0              0              0              0              0            100              0           0.00         0.0000
          14246      2667.8750    200748.0000     59180.0000     21599.0000      2410.0000      5913.0000              0              0              0              0              0            100              0           0.00         0.0000
