#___________________________________________________________________________
~VERSION INFORMATION
 VERS.                                 2.0 : CWLS LOG ASCII STANDARD - VERSION 2.0
 WRAP.                                  NO : ONE LINE PER DEPTH STEP
#___________________________________________________________________________
~WELL INFORMATION
 STRT.F                           10235.00 : START DEPTH
 STOP.F                           15217.00 : STOP DEPTH
 STEP.F                                  1 : STEP VALUE
 NULL.                             -999.25 : NULL VALUE
 COMP.      Magnolia Oil & Gas             : COMPANY
 WELL.      Klondike Mill H08 KL           : WELL
  FLD.      Giddings (AC)                  : FIELD
  LOC.      Washington County              : LOCATION
 CNTY.      Washington County              : PARISH/COUNTY
 STAT.      Texas                          : STATE
 CTRY.      USA                            : COUNTRY
" SRVC.      PetroLog International, Inc.   : SERVICE COMPANY"
 DATE.      03/17/2022                     : LOG DATE
  API.      42-477-31194                   : API REFERENCE NUMBER
#___________________________________________________________________________
~CURVE INFORMATION
#MNEM.UNITS                                : DESCRIPTION
DEPTH.F                                    :  1 DEPTH
 TGAS.Units                                :  2 Chromatograph_TotalGas
 MTHX.PPM                                  :  3 Chromatograph_MethanePPMMax
 ETHX.PPM                                  :  4 Chromatograph_EthanePPMMax
 PRPX.PPM                                  :  5 Chromatograph_PropanePPMMax
 IBTX.PPM                                  :  6 Chromatograph_IButanePPMMax
 NBTX.PPM                                  :  7 Chromatograph_NButanePPMMax
     .----                                 :  8 Lithology_Cement
     .----                                 :  9 Lithology_Shale
     .----                                 : 10 Lithology_Siltstone				
     .----                                 : 11 Lithology_Sand				
     .----                                 : 12 Lithology_Lime				
     .----                                 : 13 Lithology_Chalk				
     .----                                 : 14 Lithology_Tuff				Ash
     .----                                 : 15 Lithology_Calcimetry		 	15 Fracture	 
 PAGL.BBLS                                 : 16 Mud_PitActiveGainLoss			16 Kick  /  Loss	Loss
#___________________________________________________________________________				
~A        DEPTH           TGAS           MTHX           ETHX           PRPX           IBTX           NBTX                                                                                                                                   PAGL				
# ...
          12547      3472.5500    147850.0000     81213.0000     41885.0000      6029.0000     13589.0000              0             70              0              0              0             30              0           0.00         0.0000
          12548      3553.1000    147850.0000     81213.0000     41885.0000      6029.0000     13589.0000              0             70              0              0              0             30              0           0.00         0.0000
          12549      3588.5500    147850.0000     81213.0000     41885.0000      6029.0000     13589.0000              0             70              0              0              0             30              0           0.00         0.0000
          12550      3572.6500    147850.0000     81213.0000     41885.0000      6029.0000     13589.0000              0             70              0              0              0             30              0           0.00         0.0000
          12551      3476.2000    147850.0000     94072.0000     56406.0000      8605.0000     18701.0000              0             70              0              0              0             30              0           0.00         0.0000
          12552      3386.4500    142869.0000     94072.0000     56406.0000      8605.0000     18701.0000              0             70              0              0              0             30              0           0.00         0.0000
          12553      3360.2000    142869.0000     94072.0000     56406.0000      8605.0000     18701.0000              0             70              0              0              0             30              0           0.00         0.0000
          12554      3300.3750    142869.0000     94072.0000     56406.0000      8605.0000     18701.0000              0             70              0              0              0             30              0           0.00         0.0000
          12555      3225.9000    142869.0000     94072.0000     56406.0000      8605.0000     18701.0000              0             70              0              0              0             30              0           0.00         0.0000
          12556      3053.7500    142869.0000     94072.0000     56406.0000      8605.0000     18701.0000              0             70              0              0              0             30              0           0.00         0.0000
          12557      3015.2750    142869.0000     94072.0000     56406.0000      8605.0000     18701.0000              0             70              0              0              0             30              0           0.00         0.0000
          12558      2924.9250    142869.0000     94072.0000     56406.0000      8605.0000     18701.0000              0             70              0              0              0             30              0           0.00         0.0000
          12559      1416.3750    142869.0000     94072.0000     56406.0000      8605.0000     18701.0000              0             70              0              0              0             30              0           0.00         0.0000
          12560       665.4500      4523.0000      3421.0000      2099.0000       395.0000      1679.0000              0             70              0              0              0             30              0           0.00         0.0000
          12561       522.6000      4523.0000      3421.0000      2099.0000       395.0000      1679.0000              0             70              0              0              0             30              0           0.00         0.0000
          12562       511.6000      4523.0000      3421.0000      2099.0000       395.0000      1679.0000              0             70              0              0              0             30              0           0.00         0.0000
          12563       506.7000      4523.0000      3421.0000      2099.0000       395.0000      1679.0000              0             70              0              0              0             30              0           0.00         0.0000
          12564       449.3500      4523.0000      3421.0000      2099.0000       395.0000      1679.0000              0             70              0              0              0             30              0           0.00         0.0000
          12565       437.7250      4523.0000      3421.0000      2099.0000       395.0000      1679.0000              0             70              0              0              0             30              0           0.00         0.0000
          12566       394.4000      4523.0000      3421.0000      2099.0000       395.0000      1679.0000              0             70              0              0              0             30              0           0.00         0.0000
          12567       368.7500      4523.0000      3421.0000      2099.0000       395.0000      1679.0000              0             70              0              0              0             30              0           0.00         0.0000
          12568       357.7750      4523.0000      3421.0000      2099.0000       395.0000      1679.0000              0             70              0              0              0             30              0           0.00         0.0000
          12569       335.1750      4523.0000      3421.0000      2099.0000       395.0000      1679.0000              0             70              0              0              0             30              0           0.00         0.0000
          12570       109.9000      4523.0000      3421.0000      2099.0000       395.0000      1679.0000              0             70              0              0              0             30              0           0.00         0.0000
          12571        80.6000      4523.0000      3421.0000      2099.0000       395.0000      1679.0000              0             70              0              0              0             30              0           0.00         0.0000
          12572        67.1500      4523.0000      3421.0000      2099.0000       395.0000      1679.0000              0             70              0              0              0             30              0           0.00         0.0000
          12573        54.9500      4523.0000      3421.0000      2099.0000       395.0000      1679.0000              0             70              0              0              0             30              0           0.00         0.0000
          12574        50.6750      4523.0000      3421.0000      2099.0000       395.0000      1679.0000              0             70              0              0              0             30              0           0.00         0.0000
          12575        45.2000      4523.0000      3421.0000      2099.0000       395.0000      1679.0000              0             70              0              0              0             30              0           0.00         0.0000
          12576        45.8000      4523.0000      3421.0000      2099.0000       395.0000      1679.0000              0             70              0              0              0             30              0           0.00         0.0000
          12577        46.4000      4523.0000      3421.0000      2099.0000       395.0000      1679.0000              0             70              0              0              0             30              0           0.00         0.0000
          12578        57.4000      4523.0000      3421.0000      2099.0000       395.0000      1679.0000              0             70              0              0              0             30              0           0.00         0.0000
          12579       103.8000      4523.0000      3421.0000      2099.0000       395.0000      1679.0000              0             70              0              0              0             30              0           0.00         0.0000
          12580       122.1000      4523.0000      3421.0000      2099.0000       395.0000      1679.0000              0             70              0              0              0             30              0           0.00         0.0000
