#___________________________________________________________________________
~VERSION INFORMATION
 VERS.                                 2.0 : CWLS LOG ASCII STANDARD - VERSION 2.0
 WRAP.                                  NO : ONE LINE PER DEPTH STEP
#___________________________________________________________________________
~WELL INFORMATION
 STRT.F                           10160.00 : START DEPTH
 STOP.F                           19983.00 : STOP DEPTH
 STEP.F                                  1 : STEP VALUE
 NULL.                             -999.25 : NULL VALUE
 COMP.      Magnolia Oil & Gas             : COMPANY
 WELL.      Klondike Rush H06 KL           : WELL
  FLD.      Giddings (AC)                  : FIELD
  LOC.      Washington County              : LOCATION
 CNTY.      Washington County              : PARISH/COUNTY
 STAT.      Texas                          : STATE
 CTRY.      USA                            : COUNTRY
" SRVC.      PetroLog International, Inc.   : SERVICE COMPANY"
 DATE.      03/10/2022                     : LOG DATE
  API.      42-477-31192                   : API REFERENCE NUMBER
#___________________________________________________________________________
~CURVE INFORMATION
#MNEM.UNITS                                : DESCRIPTION
DEPTH.F                                    :  1 DEPTH
 TGAS.Units                                :  2 Chromatograph_TotalGas
 MTHX.PPM                                  :  3 Chromatograph_MethanePPMMax
 ETHX.PPM                                  :  4 Chromatograph_EthanePPMMax
 PRPX.PPM                                  :  5 Chromatograph_PropanePPMMax
 IBTX.PPM                                  :  6 Chromatograph_IButanePPMMax
 NBTX.PPM                                  :  7 Chromatograph_NButanePPMMax
     .----                                 :  8 Lithology_Cement
     .----                                 :  9 Lithology_Shale
     .----                                 : 10 Lithology_Siltstone				
     .----                                 : 11 Lithology_Sand				
     .----                                 : 12 Lithology_Lime				
     .----                                 : 13 Lithology_Chalk				
     .----                                 : 14 Lithology_Tuff				Ash
     .----                                 : 15 Lithology_Calcimetry		 	15 Fracture	
 PAGL.BBLS                                 : 16 Mud_PitActiveGainLoss			16 Kick / 	Loss
#___________________________________________________________________________				
~A        DEPTH           TGAS           MTHX           ETHX           PRPX           IBTX           NBTX                                                                                                                                   PAGL				
# ...
          17980       453.0000    122930.0000     58954.0000     25299.0000      3338.0000      6548.0000              0              0              0              0              0            100              0           0.00         0.0000
          17981       332.7250    122930.0000     58954.0000     25299.0000      3338.0000      6548.0000              0              0              0              0              0            100              0           0.00         0.0000
          17982       275.9500    122930.0000     58954.0000     25299.0000      3338.0000      6548.0000              0              0              0              0              0            100              0           0.00         0.0000
          17983      1113.5500    122930.0000     58954.0000     25299.0000      3338.0000      6548.0000              0              0              0              0              0            100              0           0.00         0.0000
          17984      2424.9250    122930.0000     58954.0000     25299.0000      3338.0000      6548.0000              0              0              0              0              0            100              0           0.00         0.0000
          17985      1561.6750     95356.0000     44770.0000     17320.0000      1768.0000      2544.0000              0              0              0              0              0            100              0           0.00         0.0000
          17986      1901.1000     95356.0000     44770.0000     17320.0000      1768.0000      2544.0000              0              0              0              0              0            100              0           0.00         0.0000
          17987      2209.4000     95356.0000     44770.0000     17320.0000      1768.0000      2544.0000              0              0              0              0              0            100              0           0.00         0.0000
          17988      2354.1000     95356.0000     44770.0000     17320.0000      1768.0000      2544.0000              0              0              0              0              0            100              0           0.00         0.0000
          17989      2359.6000     95356.0000     44770.0000     17320.0000      1768.0000      2544.0000              0              0              0              0              0            100              0           0.00         0.0000
          17990      2309.5250     95356.0000     44770.0000     17320.0000      1768.0000      2544.0000              0              0              0              0              0            100              0           0.00         0.0000
          17991      2127.0000     95356.0000     44770.0000     17320.0000      1768.0000      2544.0000              0              0              0              0              0            100              0           0.00         0.0000
          17992      1634.9000     95356.0000     44770.0000     17320.0000      1768.0000      2544.0000              0              0              0              0              0            100              0           0.00         0.0000
          17993      1721.6000     95356.0000     44770.0000     17320.0000      1768.0000      2544.0000              0              0              0              0              0            100              0           0.00         0.0000
          17994      1926.1250     95356.0000     44770.0000     20705.0000      3279.0000      6780.0000              0              0              0              0              0            100              0           0.00         0.0000
          17995      2080.6000     50714.0000     35022.0000     20705.0000      3279.0000      6780.0000              0              0              0              0              0            100              0           0.00         0.0000
          17996      2148.9500     50714.0000     35022.0000     20705.0000      3279.0000      6780.0000              0              0              0              0              0            100              0           0.00         0.0000
          17997      2174.6000     50714.0000     35022.0000     20705.0000      3279.0000      6780.0000              0              0              0              0              0            100              0           0.00         0.0000
          17998      2184.3500     50714.0000     35022.0000     20705.0000      3279.0000      6780.0000              0              0              0              0              0            100              0           0.00         0.0000
          17999      2207.5500     50714.0000     35022.0000     20705.0000      3279.0000      6780.0000              0              0              0              0              0            100              0           0.00         0.0000
          18000      2199.0500     50714.0000     35022.0000     20705.0000      3279.0000      6780.0000              0              0              0              0              0            100              0           0.00         0.0000
          18001      2146.5000     50714.0000     35022.0000     20705.0000      3279.0000      6780.0000              0              0              0              0              0            100              0           0.00         0.0000
          18002      2081.8000     50714.0000     35022.0000     20705.0000      3279.0000      6780.0000              0              0              0              0              0            100              0           0.00         0.0000
          18003      2073.8750     50714.0000     35022.0000     20705.0000      3279.0000      6780.0000              0              0              0              0              0            100              0           0.00         0.0000
          18004      2058.0000     50714.0000     35022.0000     20705.0000      3279.0000      6780.0000              0              0              0              0              0            100              0           0.00         0.0000
          18005      2040.9000     50714.0000     35022.0000     20705.0000      3279.0000      6780.0000              0              0              0              0              0            100              0           0.00         0.0000
          18006      2027.4750     95408.0000     49112.0000     21619.0000      3279.0000      6780.0000              0              0              0              0              0            100              0           0.00         0.0000
          18007      2036.6500     95408.0000     49112.0000     21619.0000      3079.0000      6284.0000              0              0              0              0              0            100              0           0.00         0.0000
          18008      2024.4000     95408.0000     49112.0000     21619.0000      3079.0000      6284.0000              0              0              0              0              0            100              0           0.00         0.0000
          18009      1985.9500     95408.0000     49112.0000     21619.0000      3079.0000      6284.0000              0              0              0              0              0            100              0           0.00         0.0000
          18010      1979.2500     95408.0000     49112.0000     21619.0000      3079.0000      6284.0000              0              0              0              0              0            100              0           0.00         0.0000
          18011      2004.2750     95408.0000     49112.0000     21619.0000      3079.0000      6284.0000              0              0              0              0              0            100              0           0.00         0.0000
          18012      2000.6000     95408.0000     49112.0000     21619.0000      3079.0000      6284.0000              0              0              0              0              0            100              0           0.00         0.0000
          18013      1981.7000     95408.0000     49112.0000     21619.0000      3079.0000      6284.0000              0              0              0              0              0            100              0           0.00         0.0000
