#___________________________________________________________________________
~VERSION INFORMATION
 VERS.                                 2.0 : CWLS LOG ASCII STANDARD - VERSION 2.0
 WRAP.                                  NO : ONE LINE PER DEPTH STEP
#___________________________________________________________________________
~WELL INFORMATION
 STRT.F                           10160.00 : START DEPTH
 STOP.F                           19983.00 : STOP DEPTH
 STEP.F                                  1 : STEP VALUE
 NULL.                             -999.25 : NULL VALUE
 COMP.      Magnolia Oil & Gas             : COMPANY
 WELL.      Klondike Rush H06 KL           : WELL
  FLD.      Giddings (AC)                  : FIELD
  LOC.      Washington County              : LOCATION
 CNTY.      Washington County              : PARISH/COUNTY
 STAT.      Texas                          : STATE
 CTRY.      USA                            : COUNTRY
" SRVC.      PetroLog International, Inc.   : SERVICE COMPANY"
 DATE.      03/10/2022                     : LOG DATE
  API.      42-477-31192                   : API REFERENCE NUMBER
#___________________________________________________________________________
~CURVE INFORMATION
#MNEM.UNITS                                : DESCRIPTION
DEPTH.F                                    :  1 DEPTH
 TGAS.Units                                :  2 Chromatograph_TotalGas
 MTHX.PPM                                  :  3 Chromatograph_MethanePPMMax
 ETHX.PPM                                  :  4 Chromatograph_EthanePPMMax
 PRPX.PPM                                  :  5 Chromatograph_PropanePPMMax
 IBTX.PPM                                  :  6 Chromatograph_IButanePPMMax
 NBTX.PPM                                  :  7 Chromatograph_NButanePPMMax
     .----                                 :  8 Lithology_Cement
     .----                                 :  9 Lithology_Shale
     .----                                 : 10 Lithology_Siltstone				
     .----                                 : 11 Lithology_Sand				
     .----                                 : 12 Lithology_Lime				
     .----                                 : 13 Lithology_Chalk				
     .----                                 : 14 Lithology_Tuff				Ash
     .----                                 : 15 Lithology_Calcimetry		 	15 Fracture	
 PAGL.BBLS                                 : 16 Mud_PitActiveGainLoss			16 Kick / 	Loss
#___________________________________________________________________________				
~A        DEPTH           TGAS           MTHX           ETHX           PRPX           IBTX           NBTX                                                                                                                                   PAGL				
# ...
          12132       919.4000     43359.0000     18870.0000      9596.0000      1202.0000      2924.0000              0              0              0              0              0            100              0           0.00         0.0000
          12133       930.4000     43359.0000     18870.0000      9596.0000      1202.0000      2924.0000              0              0              0              0              0            100              0           0.00         0.0000
          12134       936.5000     43359.0000     18870.0000      9596.0000      1202.0000      2924.0000              0              0              0              0              0            100              0           0.00         0.0000
          12135       948.1000     43359.0000     18870.0000      9596.0000      1202.0000      2924.0000              0              0              0              0              0            100              0           0.00         0.0000
          12136       951.1500     43359.0000     18870.0000      9596.0000      1202.0000      2924.0000              0              0              0              0              0            100              0           0.00         0.0000
          12137       947.5000     43359.0000     18870.0000      9596.0000      1202.0000      2924.0000              0              0              0              0              0            100              0           0.00         0.0000
          12138       934.6750     43359.0000     18870.0000      9596.0000      1202.0000      2924.0000              0              0              0              0              0            100              0           0.00         0.0000
          12139       915.7500     43359.0000     18870.0000      9596.0000      1202.0000      2924.0000              0              0              0              0              0            100              0           0.00         0.0000
          12140       821.7500     43359.0000     18870.0000      9596.0000      1202.0000      2924.0000              0              0              0              0              0            100              0           0.00         0.0000
          12141       809.5500     43359.0000     18870.0000      9596.0000      1202.0000      2924.0000              0              0              0              0              0            100              0           0.00         0.0000
          12142       816.8500     42940.0000     17921.0000      9009.0000      1112.0000      2757.0000              0              0              0              0              0            100              0           0.00         0.0000
          12143       816.8500     42940.0000     17921.0000      9009.0000      1112.0000      2757.0000              0              0              0              0              0            100              0           0.00         0.0000
          12144       833.9500     42940.0000     17921.0000      9009.0000      1112.0000      2757.0000              0              0              0              0              0            100              0           0.00         0.0000
          12145       854.7000     42940.0000     17921.0000      9009.0000      1112.0000      2757.0000              0              0              0              0              0            100              0           0.00         0.0000
          12146       890.1250     42940.0000     17921.0000      9009.0000      1112.0000      2757.0000              0              0              0              0              0            100              0           0.00         0.0000
          12147       980.4500     42940.0000     17921.0000      9009.0000      1112.0000      2757.0000              0              0              0              0              0            100              0           0.00         0.0000
          12148      1097.6750     42940.0000     17921.0000      9009.0000      1112.0000      2757.0000              0              0              0              0              0            100              0           0.00         0.0000
          12149      1199.0500     42940.0000     17921.0000      9009.0000      1112.0000      2757.0000              0              0              0              0              0            100              0           0.00         0.0000
          12150      1294.8750     42940.0000     17921.0000      9009.0000      1112.0000      2757.0000              0              0              0              0              0            100              0           0.00         0.0000
          12151      1363.8500     42940.0000     17921.0000      9009.0000      1112.0000      2757.0000              0              0              0              0              0            100              0           0.00         0.0000
          12152      1471.3000     42940.0000     17921.0000      9009.0000      1112.0000      2757.0000              0              0              0              0              0            100              0           0.00         0.0000
          12153      1582.4250     42940.0000     17921.0000      9009.0000      1112.0000      2757.0000              0              0              0              0              0            100              0           0.00         0.0000
          12154      1683.7500     42940.0000     17921.0000      9009.0000      1112.0000      2757.0000              0              0              0              0              0            100              0           0.00         0.0000
          12155      1726.5000     42940.0000     17921.0000      9009.0000      1112.0000      2757.0000              0              0              0              0              0            100              0           0.00         0.0000
          12156      1731.4000     42940.0000     17921.0000      9009.0000      1112.0000      2757.0000              0              0              0              0              0            100              0           0.00         0.0000
          12157      1714.3000     42940.0000     17921.0000      9009.0000      1112.0000      2757.0000              0              0              0              0              0            100              0           0.00         0.0000
          12158      1667.9000     42940.0000     17921.0000      9009.0000      1112.0000      2757.0000              0              0              0              0              0            100              0           0.00         0.0000
          12159      1614.1750     42940.0000     17921.0000      9009.0000      1112.0000      2757.0000              0              0              0              0              0            100              0           0.00         0.0000
          12160      1512.8000     42940.0000     17921.0000      9009.0000      1112.0000      2757.0000              0              0              0              0              0            100              0           0.00         0.0000
          12161      1403.5250     42940.0000     17921.0000      9009.0000      1112.0000      2757.0000              0              0              0              0              0            100              0           0.00         0.0000
          12162      1291.8250     42940.0000     17921.0000      9009.0000      1112.0000      2757.0000              0              0              0              0              0            100              0           0.00         0.0000
          12163      1191.7000     42940.0000     17921.0000      9009.0000      1112.0000      2757.0000              0              0              0              0              0            100              0           0.00         0.0000
          12164      1131.8750     42940.0000     17921.0000      9009.0000      1112.0000      2757.0000              0              0              0              0              0            100              0           0.00         0.0000
          12165      1058.6000     42940.0000     17921.0000      9009.0000      1112.0000      2757.0000              0              0              0              0              0            100              0           0.00         0.0000
