#___________________________________________________________________________
~VERSION INFORMATION
 VERS.                                 2.0 : CWLS LOG ASCII STANDARD - VERSION 2.0
 WRAP.                                  NO : ONE LINE PER DEPTH STEP
#___________________________________________________________________________
~WELL INFORMATION
 STRT.F                           10160.00 : START DEPTH
 STOP.F                           19983.00 : STOP DEPTH
 STEP.F                                  1 : STEP VALUE
 NULL.                             -999.25 : NULL VALUE
 COMP.      Magnolia Oil & Gas             : COMPANY
 WELL.      Klondike Rush H06 KL           : WELL
  FLD.      Giddings (AC)                  : FIELD
  LOC.      Washington County              : LOCATION
 CNTY.      Washington County              : PARISH/COUNTY
 STAT.      Texas                          : STATE
 CTRY.      USA                            : COUNTRY
" SRVC.      PetroLog International, Inc.   : SERVICE COMPANY"
 DATE.      03/10/2022                     : LOG DATE
  API.      42-477-31192                   : API REFERENCE NUMBER
#___________________________________________________________________________
~CURVE INFORMATION
#MNEM.UNITS                                : DESCRIPTION
DEPTH.F                                    :  1 DEPTH
 TGAS.Units                                :  2 Chromatograph_TotalGas
 MTHX.PPM                                  :  3 Chromatograph_MethanePPMMax
 ETHX.PPM                                  :  4 Chromatograph_EthanePPMMax
 PRPX.PPM                                  :  5 Chromatograph_PropanePPMMax
 IBTX.PPM                                  :  6 Chromatograph_IButanePPMMax
 NBTX.PPM                                  :  7 Chromatograph_NButanePPMMax
     .----                                 :  8 Lithology_Cement
     .----                                 :  9 Lithology_Shale
     .----                                 : 10 Lithology_Siltstone				
     .----                                 : 11 Lithology_Sand				
     .----                                 : 12 Lithology_Lime				
     .----                                 : 13 Lithology_Chalk				
     .----                                 : 14 Lithology_Tuff				Ash
     .----                                 : 15 Lithology_Calcimetry		 	15 Fracture	
 PAGL.BBLS                                 : 16 Mud_PitActiveGainLoss			16 Kick / 	Loss
#___________________________________________________________________________				
~A        DEPTH           TGAS           MTHX           ETHX           PRPX           IBTX           NBTX                                                                                                                                   PAGL				
# ...
          16688      2315.6250     71451.0000     51895.0000     30964.0000      4728.0000      9690.0000              0              0              0              0              0            100              0           0.00         0.0000
          16689      2288.7750     71451.0000     51895.0000     30964.0000      4728.0000      9690.0000              0              0              0              0              0            100              0           0.00         0.0000
          16690      2269.2250     71451.0000     51895.0000     30964.0000      4728.0000      9690.0000              0              0              0              0              0            100              0           0.00         0.0000
          16691      2258.8500     71451.0000     51895.0000     30964.0000      4728.0000      9690.0000              0              0              0              0              0            100              0           0.00         0.0000
          16692      2243.0000     71451.0000     51895.0000     30964.0000      4728.0000      9690.0000              0              0              0              0              0            100              0           0.00         0.0000
          16693      2221.0000     71451.0000     51895.0000     30964.0000      4728.0000      9690.0000              0              0              0              0              0            100              0           0.00         0.0000
          16694      2211.8500     71451.0000     51895.0000     30964.0000      4728.0000      9690.0000              0              0              0              0              0            100              0           0.00         0.0000
          16695      2190.5000     71451.0000     51895.0000     30964.0000      4728.0000      9690.0000              0              0              0              0              0            100              0           0.00         0.0000
          16696      2174.0000     71451.0000     51895.0000     30964.0000      4728.0000      9690.0000              0              0              0              0              0            100              0           0.00         0.0000
          16697      2169.7000     71451.0000     51895.0000     30964.0000      4728.0000      9690.0000              0              0              0              0              0            100              0           0.00         0.0000
          16698      2173.4000     91277.0000     51895.0000     30964.0000      4728.0000      9690.0000              0              0              0              0              0            100              0           0.00         0.0000
          16699      2176.4500     91277.0000     50077.0000     23618.0000      3064.0000      6677.0000              0              0              0              0              0            100              0           0.00         0.0000
          16700      2174.0000     91277.0000     50077.0000     23618.0000      3064.0000      6677.0000              0              0              0              0              0            100              0           0.00         0.0000
          16701      2174.6000     91277.0000     50077.0000     23618.0000      3064.0000      6677.0000              0              0              0              0              0            100              0           0.00         0.0000
          16702      2174.6000     91277.0000     50077.0000     23618.0000      3064.0000      6677.0000              0              0              0              0              0            100              0           0.00         0.0000
          16703      2181.9500     91277.0000     50077.0000     23618.0000      3064.0000      6677.0000              0              0              0              0              0            100              0           0.00         0.0000
          16704      2185.6000     91277.0000     50077.0000     23618.0000      3064.0000      6677.0000              0              0              0              0              0            100              0           0.00         0.0000
          16705      2191.1000     91277.0000     50077.0000     23618.0000      3064.0000      6677.0000              0              0              0              0              0            100              0           0.00         0.0000
          16706      2181.3250     91277.0000     50077.0000     23618.0000      3064.0000      6677.0000              0              0              0              0              0            100              0           0.00         0.0000
          16707      2175.2250     91277.0000     50077.0000     23618.0000      3064.0000      6677.0000              0              0              0              0              0            100              0           0.00         0.0000
          16708      2152.6350     91277.0000     50077.0000     23618.0000      3064.0000      6677.0000              0              0              0              0              0            100              0           0.00         0.0000
          16709      2131.8500     91277.0000     50077.0000     23618.0000      3064.0000      6677.0000              0              0              0              0              0            100              0           0.00         0.0000
          16710      2128.2000     91277.0000     50077.0000     23618.0000      3064.0000      6677.0000              0              0              0              0              0            100              0           0.00         0.0000
          16711      2139.2000     91277.0000     50077.0000     23618.0000      3064.0000      6677.0000              0              0              0              0              0            100              0           0.00         0.0000
          16712      2175.8500     91277.0000     50077.0000     23618.0000      3064.0000      6677.0000              0              0              0              0              0            100              0           0.00         0.0000
          16713      2186.2000     91277.0000     50077.0000     23618.0000      3064.0000      6677.0000              0              0              0              0              0            100              0           0.00         0.0000
          16714      2211.8500     91277.0000     50077.0000     23618.0000      3064.0000      6677.0000              0              0              0              0              0            100              0           0.00         0.0000
          16715      2232.0000     91277.0000     50077.0000     23618.0000      3064.0000      6677.0000              0              0              0              0              0            100              0           0.00         0.0000
          16716      2240.5500     91277.0000     50077.0000     23618.0000      3064.0000      6677.0000              0              0              0              0              0            100              0           0.00         0.0000
          16717      2242.3750     91277.0000     50077.0000     23618.0000      3064.0000      6677.0000              0              0              0              0              0            100              0           0.00         0.0000
          16718      2233.2000     91277.0000     50077.0000     23618.0000      3064.0000      6677.0000              0              0              0              0              0            100              0           0.00         0.0000
          16719      2238.1000     91277.0000     50077.0000     23618.0000      3064.0000      6677.0000              0              0              0              0              0            100              0           0.00         0.0000
          16720      2269.8250     91277.0000     50077.0000     23618.0000      3064.0000      6677.0000              0              0              0              0              0            100              0           0.00         0.0000
          16721      2299.1500     91277.0000     50077.0000     23618.0000      3064.0000      6677.0000              0              0              0              0              0            100              0           0.00         0.0000
