#___________________________________________________________________________
~VERSION INFORMATION
 VERS.                                 2.0 : CWLS LOG ASCII STANDARD - VERSION 2.0
 WRAP.                                  NO : ONE LINE PER DEPTH STEP
#___________________________________________________________________________
~WELL INFORMATION
 STRT.F                           10235.00 : START DEPTH
 STOP.F                           15217.00 : STOP DEPTH
 STEP.F                                  1 : STEP VALUE
 NULL.                             -999.25 : NULL VALUE
 COMP.      Magnolia Oil & Gas             : COMPANY
 WELL.      Klondike Mill H08 KL           : WELL
  FLD.      Giddings (AC)                  : FIELD
  LOC.      Washington County              : LOCATION
 CNTY.      Washington County              : PARISH/COUNTY
 STAT.      Texas                          : STATE
 CTRY.      USA                            : COUNTRY
" SRVC.      PetroLog International, Inc.   : SERVICE COMPANY"
 DATE.      03/17/2022                     : LOG DATE
  API.      42-477-31194                   : API REFERENCE NUMBER
#___________________________________________________________________________
~CURVE INFORMATION
#MNEM.UNITS                                : DESCRIPTION
DEPTH.F                                    :  1 DEPTH
 TGAS.Units                                :  2 Chromatograph_TotalGas
 MTHX.PPM                                  :  3 Chromatograph_MethanePPMMax
 ETHX.PPM                                  :  4 Chromatograph_EthanePPMMax
 PRPX.PPM                                  :  5 Chromatograph_PropanePPMMax
 IBTX.PPM                                  :  6 Chromatograph_IButanePPMMax
 NBTX.PPM                                  :  7 Chromatograph_NButanePPMMax
     .----                                 :  8 Lithology_Cement
     .----                                 :  9 Lithology_Shale
     .----                                 : 10 Lithology_Siltstone				
     .----                                 : 11 Lithology_Sand				
     .----                                 : 12 Lithology_Lime				
     .----                                 : 13 Lithology_Chalk				
     .----                                 : 14 Lithology_Tuff				Ash
     .----                                 : 15 Lithology_Calcimetry		 	15 Fracture	 
 PAGL.BBLS                                 : 16 Mud_PitActiveGainLoss			16 Kick  /  Loss	Loss
#___________________________________________________________________________				
~A        DEPTH           TGAS           MTHX           ETHX           PRPX           IBTX           NBTX                                                                                                                                   PAGL				
# ...
          12207      3159.9500      1243.0000      1792.0000      2282.0000       216.0000      2062.0000              0             70              0              0              0             30              0           0.00         0.0000
          12208      3227.1000      1243.0000      1792.0000      2282.0000       216.0000      2062.0000              0             70              0              0              0             30              0           0.00         0.0000
          12209      3293.0500      1243.0000      1792.0000      2282.0000       216.0000      2062.0000              0             70              0              0              0             30              0           0.00         0.0000
          12210      3332.1250      1243.0000      1792.0000      2282.0000       216.0000      2062.0000              0             70              0              0              0             30              0           0.00         0.0000
          12211      3346.7500      1243.0000      1792.0000      2282.0000       216.0000      2062.0000              0             70              0              0              0             30              0           0.00         0.0000
          12212      3375.4500      1243.0000      1792.0000      2282.0000       216.0000      2062.0000              0             70              0              0              0             30              0           0.00         0.0000
          12213      3422.4500      1243.0000      1792.0000      2282.0000       216.0000      2062.0000              0             70              0              0              0             30              0           0.00         0.0000
          12214      3403.5250      1243.0000      1792.0000      2282.0000       216.0000      2062.0000              0             70              0              0              0             30              0           0.00         0.0000
          12215      3400.5000      1243.0000      1792.0000      2282.0000       216.0000      2062.0000              0             70              0              0              0             30              0           0.00         0.0000
          12216      3424.9000      1243.0000      1792.0000      2282.0000       216.0000      2062.0000              0             70              0              0              0             30              0           0.00         0.0000
          12217      3420.0250      1243.0000      1792.0000      2282.0000       216.0000      2062.0000              0             70              0              0              0             30              0           0.00         0.0000
          12218      3453.0000      1243.0000      1792.0000      2282.0000       216.0000      2062.0000              0             70              0              0              0             30              0           0.00         0.0000
          12219      3485.9500      1243.0000      1792.0000      2282.0000       216.0000      2062.0000              0             70              0              0              0             30              0           0.00         0.0000
          12220      3543.3500      1243.0000      1792.0000      2282.0000       216.0000      2062.0000              0             70              0              0              0             30              0           0.00         0.0000
          12221      3552.5000      1243.0000      1792.0000      2282.0000       216.0000      2062.0000              0             70              0              0              0             30              0           0.00         0.0000
          12222      3554.9500      1243.0000      1792.0000      2282.0000       216.0000      2062.0000              0             70              0              0              0             30              0           0.00         0.0000
          12223      3553.1250    176876.0000     98393.0000     54094.0000      7938.0000     16991.0000              0             70              0              0              0             30              0           0.00         0.0000
          12224      3556.8000    176876.0000     98393.0000     54094.0000      7938.0000     16991.0000              0             70              0              0              0             30              0           0.00         0.0000
          12225      3592.8000    176876.0000     98393.0000     54094.0000      7938.0000     16991.0000              0             70              0              0              0             30              0           0.00         0.0000
          12226      3612.9500    176876.0000     98393.0000     54094.0000      7938.0000     16991.0000              0             70              0              0              0             30              0           0.00         0.0000
          12227      3643.4500    176876.0000     98393.0000     54094.0000      7938.0000     16991.0000              0             70              0              0              0             30              0           0.00         0.0000
          12228      3693.5250    176876.0000     98393.0000     54094.0000      7938.0000     16991.0000              0             70              0              0              0             30              0           0.00         0.0000
          12229      3726.5000    176876.0000     98393.0000     54094.0000      7938.0000     16991.0000              0             70              0              0              0             30              0           0.00         0.0000
          12230      3757.0000    176876.0000     98393.0000     54094.0000      7938.0000     16991.0000              0             70              0              0              0             30              0           0.00         0.0000
          12231      3769.2500    176876.0000     98393.0000     54094.0000      7938.0000     16991.0000              0             70              0              0              0             30              0           0.00         0.0000
          12232      3775.3500    176876.0000     98393.0000     54094.0000      7938.0000     16991.0000              0             70              0              0              0             30              0           0.00         0.0000
          12233      3769.2500    176876.0000     98393.0000     54094.0000      7938.0000     16991.0000              0             70              0              0              0             30              0           0.00         0.0000
          12234      3701.4750    176876.0000     98393.0000     54094.0000      7938.0000     16991.0000              0             70              0              0              0             30              0           0.00         0.0000
          12235      3587.3000    176876.0000     98393.0000     54094.0000      7938.0000     16991.0000              0             70              0              0              0             30              0           0.00         0.0000
          12236      3368.7500    176876.0000     98393.0000     54094.0000      7938.0000     16991.0000              0             70              0              0              0             30              0           0.00         0.0000
          12237      3108.6500    176876.0000     98393.0000     54094.0000      7938.0000     16991.0000              0             70              0              0              0             30              0           0.00         0.0000
          12238      3022.0000    176876.0000     98393.0000     54094.0000      7938.0000     16991.0000              0             70              0              0              0             30              0           0.00         0.0000
          12239      3232.0000    176876.0000     98393.0000     54094.0000      7938.0000     16991.0000              0             70              0              0              0             30              0           0.00         0.0000
          12240      3456.6500    126509.0000     76269.0000     45187.0000      6783.0000     14047.0000              0             70              0              0              0             30              0           0.00         0.0000
