#___________________________________________________________________________
~VERSION INFORMATION
 VERS.                                 2.0 : CWLS LOG ASCII STANDARD - VERSION 2.0
 WRAP.                                  NO : ONE LINE PER DEPTH STEP
#___________________________________________________________________________
~WELL INFORMATION
 STRT.F                           10235.00 : START DEPTH
 STOP.F                           15217.00 : STOP DEPTH
 STEP.F                                  1 : STEP VALUE
 NULL.                             -999.25 : NULL VALUE
 COMP.      Magnolia Oil & Gas             : COMPANY
 WELL.      Klondike Mill H08 KL           : WELL
  FLD.      Giddings (AC)                  : FIELD
  LOC.      Washington County              : LOCATION
 CNTY.      Washington County              : PARISH/COUNTY
 STAT.      Texas                          : STATE
 CTRY.      USA                            : COUNTRY
" SRVC.      PetroLog International, Inc.   : SERVICE COMPANY"
 DATE.      03/17/2022                     : LOG DATE
  API.      42-477-31194                   : API REFERENCE NUMBER
#___________________________________________________________________________
~CURVE INFORMATION
#MNEM.UNITS                                : DESCRIPTION
DEPTH.F                                    :  1 DEPTH
 TGAS.Units                                :  2 Chromatograph_TotalGas
 MTHX.PPM                                  :  3 Chromatograph_MethanePPMMax
 ETHX.PPM                                  :  4 Chromatograph_EthanePPMMax
 PRPX.PPM                                  :  5 Chromatograph_PropanePPMMax
 IBTX.PPM                                  :  6 Chromatograph_IButanePPMMax
 NBTX.PPM                                  :  7 Chromatograph_NButanePPMMax
     .----                                 :  8 Lithology_Cement
     .----                                 :  9 Lithology_Shale
     .----                                 : 10 Lithology_Siltstone				
     .----                                 : 11 Lithology_Sand				
     .----                                 : 12 Lithology_Lime				
     .----                                 : 13 Lithology_Chalk				
     .----                                 : 14 Lithology_Tuff				Ash
     .----                                 : 15 Lithology_Calcimetry		 	15 Fracture	 
 PAGL.BBLS                                 : 16 Mud_PitActiveGainLoss			16 Kick  /  Loss	Loss
#___________________________________________________________________________				
~A        DEPTH           TGAS           MTHX           ETHX           PRPX           IBTX           NBTX                                                                                                                                   PAGL				
# ...
          13533      2012.2000     87667.0000     43991.0000     21477.0000      2840.0000      7171.0000              0              0              0              0              0            100              0           0.00         0.0000
          13534      2012.2000     87667.0000     43991.0000     21477.0000      2840.0000      7171.0000              0              0              0              0              0            100              0           0.00         0.0000
          13535      1998.8000     87667.0000     43991.0000     21477.0000      2840.0000      7171.0000              0              0              0              0              0            100              0           0.00         0.0000
          13536      1984.1500     87667.0000     43991.0000     21477.0000      2840.0000      7171.0000              0              0              0              0              0            100              0           0.00         0.0000
          13537      2002.4250     87667.0000     43991.0000     21477.0000      2840.0000      7171.0000              0              0              0              0              0            100              0           0.00         0.0000
          13538      2020.1500     87667.0000     43991.0000     21477.0000      2840.0000      7171.0000              0              0              0              0              0            100              0           0.00         0.0000
          13539      2028.1000     87667.0000     43991.0000     21477.0000      2840.0000      7171.0000              0              0              0              0              0            100              0           0.00         0.0000
          13540      2026.8500     87667.0000     43991.0000     21477.0000      2840.0000      7171.0000              0              0              0              0              0            100              0           0.00         0.0000
          13541      2037.8500     87667.0000     43991.0000     21477.0000      2840.0000      7171.0000              0              0              0              0              0            100              0           0.00         0.0000
          13542      2059.2250     87667.0000     43991.0000     21477.0000      2840.0000      7171.0000              0              0              0              0              0            100              0           0.00         0.0000
          13543      2080.6000     87667.0000     43991.0000     21477.0000      2840.0000      7171.0000              0              0              0              0              0            100              0           0.00         0.0000
          13544      2084.2500     87667.0000     43991.0000     21477.0000      2840.0000      7171.0000              0              0              0              0              0            100              0           0.00         0.0000
          13545      2081.8250     87667.0000     43991.0000     21477.0000      2840.0000      7171.0000              0              0              0              0              0            100              0           0.00         0.0000
          13546      2080.6000     87667.0000     43991.0000     21477.0000      2840.0000      7171.0000              0              0              0              0              0            100              0           0.00         0.0000
          13547      2102.5750     87667.0000     43991.0000     21477.0000      2840.0000      7171.0000              0              0              0              0              0            100              0           0.00         0.0000
          13548      2116.0000     87667.0000     43991.0000     21477.0000      2840.0000      7171.0000              0              0              0              0              0            100              0           0.00         0.0000
          13549      2143.4750     87667.0000     43991.0000     21477.0000      2840.0000      7171.0000              0              0              0              0              0            100              0           0.00         0.0000
          13550      2206.3500     87667.0000     43991.0000     21477.0000      2840.0000      7171.0000              0              0              0              0              0            100              0           0.00         0.0000
          13551      2365.1000     87667.0000     43991.0000     21477.0000      2840.0000      7171.0000              0              0              0              0              0            100              0           0.00         0.0000
          13552      2584.8500     87667.0000     43991.0000     21477.0000      2840.0000      7171.0000              0              0              0              0              0            100              0           0.00         0.0000
          13553      2725.8750     87667.0000     43991.0000     21477.0000      2840.0000      7171.0000              0              0              0              0              0            100              0           0.00         0.0000
          13554      2926.7500    183845.0000     72884.0000     28330.0000      3504.0000      8192.0000              0              0              0              0              0            100              0           0.00         0.0000
          13555      1078.1500    183845.0000     72884.0000     28330.0000      3504.0000      8192.0000              0              0              0              0              0            100              0           0.00         0.0000
          13556      1092.1750    183845.0000     72884.0000     28330.0000      3504.0000      8192.0000              0              0              0              0              0            100              0           0.00         0.0000
          13557      1440.8000    183845.0000     72884.0000     28330.0000      3504.0000      8192.0000              0              0              0              0              0            100              0           0.00         0.0000
          13558      1837.6250    183845.0000     72884.0000     28330.0000      3504.0000      8192.0000              0              0              0              0              0            100              0           0.00         0.0000
          13559      2120.8750    183845.0000     72884.0000     28330.0000      3504.0000      8192.0000              0              0              0              0              0            100              0           0.00         0.0000
          13560      2302.8000    183845.0000     72884.0000     28330.0000      3504.0000      8192.0000              0              0              0              0              0            100              0           0.00         0.0000
          13561      2423.6750    183845.0000     72884.0000     28330.0000      3504.0000      8192.0000              0              0              0              0              0            100              0           0.00         0.0000
          13562      2539.7000    183845.0000     72884.0000     28330.0000      3504.0000      8192.0000              0              0              0              0              0            100              0           0.00         0.0000
          13563      2582.4000    183845.0000     72884.0000     28330.0000      3504.0000      8192.0000              0              0              0              0              0            100              0           0.00         0.0000
          13564      2578.7500    183845.0000     72884.0000     28330.0000      3504.0000      8192.0000              0              0              0              0              0            100              0           0.00         0.0000
          13565      2815.0250    183845.0000     72884.0000     32255.0000      4354.0000     10306.0000              0              0              0              0              0            100              0           0.00         0.0000
          13566       310.1500     66795.0000     35931.0000     19532.0000      2685.0000      7291.0000              0              0              0              0              0            100              0           0.00         0.0000
