#___________________________________________________________________________
~VERSION INFORMATION
 VERS.                                 2.0 : CWLS LOG ASCII STANDARD - VERSION 2.0
 WRAP.                                  NO : ONE LINE PER DEPTH STEP
#___________________________________________________________________________
~WELL INFORMATION
 STRT.F                           10160.00 : START DEPTH
 STOP.F                           19983.00 : STOP DEPTH
 STEP.F                                  1 : STEP VALUE
 NULL.                             -999.25 : NULL VALUE
 COMP.      Magnolia Oil & Gas             : COMPANY
 WELL.      Klondike Rush H06 KL           : WELL
  FLD.      Giddings (AC)                  : FIELD
  LOC.      Washington County              : LOCATION
 CNTY.      Washington County              : PARISH/COUNTY
 STAT.      Texas                          : STATE
 CTRY.      USA                            : COUNTRY
" SRVC.      PetroLog International, Inc.   : SERVICE COMPANY"
 DATE.      03/10/2022                     : LOG DATE
  API.      42-477-31192                   : API REFERENCE NUMBER
#___________________________________________________________________________
~CURVE INFORMATION
#MNEM.UNITS                                : DESCRIPTION
DEPTH.F                                    :  1 DEPTH
 TGAS.Units                                :  2 Chromatograph_TotalGas
 MTHX.PPM                                  :  3 Chromatograph_MethanePPMMax
 ETHX.PPM                                  :  4 Chromatograph_EthanePPMMax
 PRPX.PPM                                  :  5 Chromatograph_PropanePPMMax
 IBTX.PPM                                  :  6 Chromatograph_IButanePPMMax
 NBTX.PPM                                  :  7 Chromatograph_NButanePPMMax
     .----                                 :  8 Lithology_Cement
     .----                                 :  9 Lithology_Shale
     .----                                 : 10 Lithology_Siltstone				
     .----                                 : 11 Lithology_Sand				
     .----                                 : 12 Lithology_Lime				
     .----                                 : 13 Lithology_Chalk				
     .----                                 : 14 Lithology_Tuff				Ash
     .----                                 : 15 Lithology_Calcimetry		 	15 Fracture	
 PAGL.BBLS                                 : 16 Mud_PitActiveGainLoss			16 Kick / 	Loss
#___________________________________________________________________________				
~A        DEPTH           TGAS           MTHX           ETHX           PRPX           IBTX           NBTX                                                                                                                                   PAGL				
# ...
          14070      2228.3500    154413.0000     58763.0000     23438.0000      2539.0000      5655.0000              0              0              0              0              0            100              0           0.00         0.0000
          14071      2184.3500    154413.0000     58763.0000     23438.0000      2539.0000      5655.0000              0              0              0              0              0            100              0           0.00         0.0000
          14072      2141.6500    154413.0000     58763.0000     23438.0000      2539.0000      5655.0000              0              0              0              0              0            100              0           0.00         0.0000
          14073      2103.8000    154413.0000     58763.0000     23438.0000      2539.0000      5655.0000              0              0              0              0              0            100              0           0.00         0.0000
          14074      2067.1500    154413.0000     58763.0000     23438.0000      2539.0000      5655.0000              0              0              0              0              0            100              0           0.00         0.0000
          14075      2035.4250    154413.0000     58763.0000     23438.0000      2539.0000      5655.0000              0              0              0              0              0            100              0           0.00         0.0000
          14076      2013.4250    154413.0000     58763.0000     23438.0000      2539.0000      5655.0000              0              0              0              0              0            100              0           0.00         0.0000
          14077      1983.5250    154413.0000     58763.0000     23438.0000      2539.0000      5655.0000              0              0              0              0              0            100              0           0.00         0.0000
          14078      1963.9750    154413.0000     58763.0000     23438.0000      2539.0000      5655.0000              0              0              0              0              0            100              0           0.00         0.0000
          14079      1964.6000    154413.0000     58763.0000     23438.0000      2539.0000      5655.0000              0              0              0              0              0            100              0           0.00         0.0000
          14080      1979.8500    154413.0000     58763.0000     23438.0000      2539.0000      5655.0000              0              0              0              0              0            100              0           0.00         0.0000
          14081      2012.2000    154413.0000     58763.0000     23438.0000      2539.0000      5655.0000              0              0              0              0              0            100              0           0.00         0.0000
          14082      2044.5750    154413.0000     58763.0000     23438.0000      2539.0000      5655.0000              0              0              0              0              0            100              0           0.00         0.0000
          14083      2062.8750    154413.0000     58763.0000     23438.0000      2539.0000      5655.0000              0              0              0              0              0            100              0           0.00         0.0000
          14084      2076.9500    154413.0000     58763.0000     23438.0000      2539.0000      5655.0000              0              0              0              0              0            100              0           0.00         0.0000
          14085      2084.8500    154413.0000     58763.0000     23438.0000      2539.0000      5655.0000              0              0              0              0              0            100              0           0.00         0.0000
          14086      2084.2500    154413.0000     58763.0000     23438.0000      2539.0000      5655.0000              0              0              0              0              0            100              0           0.00         0.0000
          14087      2080.6000    154413.0000     58763.0000     23438.0000      2539.0000      5655.0000              0              0              0              0              0            100              0           0.00         0.0000
          14088      2062.2500    154413.0000     58763.0000     23438.0000      2539.0000      5655.0000              0              0              0              0              0            100              0           0.00         0.0000
          14089      2051.3000    154413.0000     58763.0000     23438.0000      2539.0000      5655.0000              0              0              0              0              0            100              0           0.00         0.0000
          14090      2053.1250    154413.0000     58763.0000     23438.0000      2539.0000      5655.0000              0              0              0              0              0            100              0           0.00         0.0000
          14091      2050.6750    154413.0000     58763.0000     23438.0000      2539.0000      5655.0000              0              0              0              0              0            100              0           0.00         0.0000
          14092      2047.6000    154413.0000     58763.0000     23438.0000      2539.0000      5655.0000              0              0              0              0              0            100              0           0.00         0.0000
          14093      2037.8500    137427.0000     49133.0000     18694.0000      1902.0000      4333.0000              0              0              0              0              0            100              0           0.00         0.0000
          14094      2027.4750    137427.0000     49133.0000     18694.0000      1902.0000      4333.0000              0              0              0              0              0            100              0           0.00         0.0000
          14095      2023.2000    137427.0000     49133.0000     18694.0000      1902.0000      4333.0000              0              0              0              0              0            100              0           0.00         0.0000
          14096      2025.6500    137427.0000     49133.0000     18694.0000      1902.0000      4333.0000              0              0              0              0              0            100              0           0.00         0.0000
          14097      2031.7500    137427.0000     49133.0000     18694.0000      1902.0000      4333.0000              0              0              0              0              0            100              0           0.00         0.0000
          14098      2039.6750    137427.0000     49133.0000     18694.0000      1902.0000      4333.0000              0              0              0              0              0            100              0           0.00         0.0000
          14099      2055.5500    137427.0000     49133.0000     18694.0000      1902.0000      4333.0000              0              0              0              0              0            100              0           0.00         0.0000
          14100      2058.0000    137427.0000     49133.0000     18694.0000      1902.0000      4333.0000              0              0              0              0              0            100              0           0.00         0.0000
          14101      2070.2000    137427.0000     49133.0000     18694.0000      1902.0000      4333.0000              0              0              0              0              0            100              0           0.00         0.0000
          14102      2094.0000    137427.0000     49133.0000     18694.0000      1902.0000      4333.0000              0              0              0              0              0            100              0           0.00         0.0000
          14103      2097.7000    137427.0000     49133.0000     18694.0000      1902.0000      4333.0000              0              0              0              0              0            100              0           0.00         0.0000
