#___________________________________________________________________________
~VERSION INFORMATION
 VERS.                                 2.0 : CWLS LOG ASCII STANDARD - VERSION 2.0
 WRAP.                                  NO : ONE LINE PER DEPTH STEP
#___________________________________________________________________________
~WELL INFORMATION
 STRT.F                           10235.00 : START DEPTH
 STOP.F                           15217.00 : STOP DEPTH
 STEP.F                                  1 : STEP VALUE
 NULL.                             -999.25 : NULL VALUE
 COMP.      Magnolia Oil & Gas             : COMPANY
 WELL.      Klondike Mill H08 KL           : WELL
  FLD.      Giddings (AC)                  : FIELD
  LOC.      Washington County              : LOCATION
 CNTY.      Washington County              : PARISH/COUNTY
 STAT.      Texas                          : STATE
 CTRY.      USA                            : COUNTRY
" SRVC.      PetroLog International, Inc.   : SERVICE COMPANY"
 DATE.      03/17/2022                     : LOG DATE
  API.      42-477-31194                   : API REFERENCE NUMBER
#___________________________________________________________________________
~CURVE INFORMATION
#MNEM.UNITS                                : DESCRIPTION
DEPTH.F                                    :  1 DEPTH
 TGAS.Units                                :  2 Chromatograph_TotalGas
 MTHX.PPM                                  :  3 Chromatograph_MethanePPMMax
 ETHX.PPM                                  :  4 Chromatograph_EthanePPMMax
 PRPX.PPM                                  :  5 Chromatograph_PropanePPMMax
 IBTX.PPM                                  :  6 Chromatograph_IButanePPMMax
 NBTX.PPM                                  :  7 Chromatograph_NButanePPMMax
     .----                                 :  8 Lithology_Cement
     .----                                 :  9 Lithology_Shale
     .----                                 : 10 Lithology_Siltstone				
     .----                                 : 11 Lithology_Sand				
     .----                                 : 12 Lithology_Lime				
     .----                                 : 13 Lithology_Chalk				
     .----                                 : 14 Lithology_Tuff				Ash
     .----                                 : 15 Lithology_Calcimetry		 	15 Fracture	 
 PAGL.BBLS                                 : 16 Mud_PitActiveGainLoss			16 Kick  /  Loss	Loss
#___________________________________________________________________________				
~A        DEPTH           TGAS           MTHX           ETHX           PRPX           IBTX           NBTX                                                                                                                                   PAGL				
# ...
          11561      3023.2000     33829.0000     26194.0000     24912.0000      5068.0000     13750.0000              0              0              0              0              0            100              0           0.00         0.0000
          11562      3146.5250     33829.0000     26194.0000     24912.0000      5068.0000     13750.0000              0              0              0              0              0            100              0           0.00         0.0000
          11563      3274.7250     33829.0000     26194.0000     24912.0000      5068.0000     13750.0000              0              0              0              0              0            100              0           0.00         0.0000
          11564      3350.4500     33829.0000     26194.0000     24912.0000      5068.0000     13750.0000              0              0              0              0              0            100              0           0.00         0.0000
          11565      3396.8500     33829.0000     26194.0000     24912.0000      5068.0000     13750.0000              0              0              0              0              0            100              0           0.00         0.0000
          11566      3433.4500    126604.0000     87234.0000     58871.0000      8834.0000     18704.0000              0              0              0              0              0            100              0           0.00         0.0000
          11567      3453.6000    126604.0000     87234.0000     58871.0000      8834.0000     18704.0000              0              0              0              0              0            100              0           0.00         0.0000
          11568      3478.6500    126604.0000     87234.0000     58871.0000      8834.0000     18704.0000              0              0              0              0              0            100              0           0.00         0.0000
          11569      3514.0500    126604.0000     87234.0000     58871.0000      8834.0000     18704.0000              0              0              0              0              0            100              0           0.00         0.0000
          11570      3539.7000    126604.0000     87234.0000     58871.0000      8834.0000     18704.0000              0              0              0              0              0            100              0           0.00         0.0000
          11571      3543.3500    126604.0000     87234.0000     58871.0000      8834.0000     18704.0000              0              0              0              0              0            100              0           0.00         0.0000
          11572      3456.0250    126604.0000     87234.0000     58871.0000      8834.0000     18704.0000              0              0              0              0              0            100              0           0.00         0.0000
          11573      3299.1500    126604.0000     87234.0000     58871.0000      8834.0000     18704.0000              0              0              0              0              0            100              0           0.00         0.0000
          11574      3307.7000    126604.0000     87234.0000     58871.0000      8834.0000     18704.0000              0              0              0              0              0            100              0           0.00         0.0000
          11575      1534.8000    126604.0000     87234.0000     58871.0000      8834.0000     18704.0000              0              0              0              0              0            100              0           0.00         0.0000
          11576      2228.3500    126604.0000     87234.0000     58871.0000      8834.0000     18704.0000              0              0              0              0              0            100              0           0.00         0.0000
          11577      2710.6500     54998.0000     36486.0000     27394.0000      4373.0000      8944.0000              0              0              0              0              0            100              0           0.00         0.0000
          11578      3048.8500     54998.0000     36486.0000     27394.0000      4373.0000      8944.0000              0              0              0              0              0            100              0           0.00         0.0000
          11579      3188.0250     54998.0000     36486.0000     27394.0000      4373.0000      8944.0000              0              0              0              0              0            100              0           0.00         0.0000
          11580      3232.6000     54998.0000     36486.0000     27394.0000      4373.0000      8944.0000              0              0              0              0              0            100              0           0.00         0.0000
          11581      3236.9000     54998.0000     36486.0000     27394.0000      4373.0000      8944.0000              0              0              0              0              0            100              0           0.00         0.0000
          11582      3206.3500     54998.0000     36486.0000     27394.0000      4373.0000      8944.0000              0              0              0              0              0            100              0           0.00         0.0000
          11583      3169.7000     54998.0000     36486.0000     27394.0000      4373.0000      8944.0000              0              0              0              0              0            100              0           0.00         0.0000
          11584      3134.3000     54998.0000     36486.0000     27394.0000      4373.0000      8944.0000              0              0              0              0              0            100              0           0.00         0.0000
          11585      3105.0000     54998.0000     36486.0000     27394.0000      4373.0000      8944.0000              0              0              0              0              0            100              0           0.00         0.0000
          11586      3101.3500     54998.0000     36486.0000     27394.0000      4373.0000      8944.0000              0              0              0              0              0            100              0           0.00         0.0000
          11587      3088.5250     54998.0000     36486.0000     27394.0000      4373.0000      8944.0000              0              0              0              0              0            100              0           0.00         0.0000
          11588      3085.4500     54998.0000     36486.0000     27394.0000      4373.0000      8944.0000              0              0              0              0              0            100              0           0.00         0.0000
          11589      3086.7000     54998.0000     36486.0000     27394.0000      4373.0000      8944.0000              0              0              0              0              0            100              0           0.00         0.0000
          11590      3070.8000     54998.0000     36486.0000     27394.0000      4373.0000      8944.0000              0              0              0              0              0            100              0           0.00         0.0000
          11591      3043.9500     54998.0000     36486.0000     27394.0000      4373.0000      8944.0000              0              0              0              0              0            100              0           0.00         0.0000
          11592      3015.2750     54998.0000     36486.0000     27394.0000      4373.0000      8944.0000              0              0              0              0              0            100              0           0.00         0.0000
          11593      3000.0000     54998.0000     36486.0000     27394.0000      4373.0000      8944.0000              0              0              0              0              0            100              0           0.00         0.0000
          11594      2993.9000     54998.0000     36486.0000     27394.0000      4373.0000      8944.0000              0              0              0              0              0            100              0           0.00         0.0000
