#___________________________________________________________________________
~VERSION INFORMATION
 VERS.                                 2.0 : CWLS LOG ASCII STANDARD - VERSION 2.0
 WRAP.                                  NO : ONE LINE PER DEPTH STEP
#___________________________________________________________________________
~WELL INFORMATION
 STRT.F                           10235.00 : START DEPTH
 STOP.F                           15217.00 : STOP DEPTH
 STEP.F                                  1 : STEP VALUE
 NULL.                             -999.25 : NULL VALUE
 COMP.      Magnolia Oil & Gas             : COMPANY
 WELL.      Klondike Mill H08 KL           : WELL
  FLD.      Giddings (AC)                  : FIELD
  LOC.      Washington County              : LOCATION
 CNTY.      Washington County              : PARISH/COUNTY
 STAT.      Texas                          : STATE
 CTRY.      USA                            : COUNTRY
" SRVC.      PetroLog International, Inc.   : SERVICE COMPANY"
 DATE.      03/17/2022                     : LOG DATE
  API.      42-477-31194                   : API REFERENCE NUMBER
#___________________________________________________________________________
~CURVE INFORMATION
#MNEM.UNITS                                : DESCRIPTION
DEPTH.F                                    :  1 DEPTH
 TGAS.Units                                :  2 Chromatograph_TotalGas
 MTHX.PPM                                  :  3 Chromatograph_MethanePPMMax
 ETHX.PPM                                  :  4 Chromatograph_EthanePPMMax
 PRPX.PPM                                  :  5 Chromatograph_PropanePPMMax
 IBTX.PPM                                  :  6 Chromatograph_IButanePPMMax
 NBTX.PPM                                  :  7 Chromatograph_NButanePPMMax
     .----                                 :  8 Lithology_Cement
     .----                                 :  9 Lithology_Shale
     .----                                 : 10 Lithology_Siltstone				
     .----                                 : 11 Lithology_Sand				
     .----                                 : 12 Lithology_Lime				
     .----                                 : 13 Lithology_Chalk				
     .----                                 : 14 Lithology_Tuff				Ash
     .----                                 : 15 Lithology_Calcimetry		 	15 Fracture	 
 PAGL.BBLS                                 : 16 Mud_PitActiveGainLoss			16 Kick  /  Loss	Loss
#___________________________________________________________________________				
~A        DEPTH           TGAS           MTHX           ETHX           PRPX           IBTX           NBTX                                                                                                                                   PAGL				
# ...
          10881       421.2500     18028.0000      4270.0000      1756.0000        21.0000        90.0000              0              0              0              0              0            100              0           0.00         0.0000
          10882       398.6500     27763.0000      6789.0000      2876.0000       161.0000       530.0000              0              0              0              0              0            100              0           0.00         0.0000
          10883       402.9500     27763.0000      6789.0000      2876.0000       161.0000       530.0000              0              0              0              0              0            100              0           0.00         0.0000
          10884       404.7500     27763.0000      6789.0000      2876.0000       161.0000       530.0000              0              0              0              0              0            100              0           0.00         0.0000
          10885       391.9500     27763.0000      6789.0000      2876.0000       161.0000       530.0000              0              0              0              0              0            100              0           0.00         0.0000
          10886       391.9500     27763.0000      6789.0000      2876.0000       161.0000       530.0000              0              0              0              0              0            100              0           0.00         0.0000
          10887       393.1500     27763.0000      6789.0000      2876.0000       161.0000       530.0000              0              0              0              0              0            100              0           0.00         0.0000
          10888       421.2500     27763.0000      6789.0000      2876.0000       161.0000       530.0000              0              0              0              0              0            100              0           0.00         0.0000
          10889       451.1500     27763.0000      6789.0000      2876.0000       161.0000       530.0000              0              0              0              0              0            100              0           0.00         0.0000
          10890       454.2000     27763.0000      6789.0000      2876.0000       161.0000       530.0000              0              0              0              0              0            100              0           0.00         0.0000
          10891       445.6500     27763.0000      6789.0000      2876.0000       161.0000       530.0000              0              0              0              0              0            100              0           0.00         0.0000
          10892       443.2500     27763.0000      6789.0000      2876.0000       161.0000       530.0000              0              0              0              0              0            100              0           0.00         0.0000
          10893       444.4500     27763.0000      6789.0000      2876.0000       161.0000       530.0000              0              0              0              0              0            100              0           0.00         0.0000
          10894       444.4500     34668.0000      7411.0000      2876.0000       161.0000       530.0000              0              0              0              0              0            100              0           0.00         0.0000
          10895       424.9000     34668.0000      7411.0000      2701.0000       123.0000       438.0000              0              0              0              0              0            100              0           0.00         0.0000
          10896       402.9500     34668.0000      7411.0000      2701.0000       123.0000       438.0000              0              0              0              0              0            100              0           0.00         0.0000
          10897       391.9500     34668.0000      7411.0000      2701.0000       123.0000       438.0000              0              0              0              0              0            100              0           0.00         0.0000
          10898       385.2250     34668.0000      7411.0000      2701.0000       123.0000       438.0000              0              0              0              0              0            100              0           0.00         0.0000
          10899       390.7000     34668.0000      7411.0000      2701.0000       123.0000       438.0000              0              0              0              0              0            100              0           0.00         0.0000
          10900       391.3250     34668.0000      7411.0000      2701.0000       123.0000       438.0000              0              0              0              0              0            100              0           0.00         0.0000
          10901       390.7000     34668.0000      7411.0000      2701.0000       123.0000       438.0000              0              0              0              0              0            100              0           0.00         0.0000
          10902       396.8500     34668.0000      7411.0000      2701.0000       123.0000       438.0000              0              0              0              0              0            100              0           0.00         0.0000
          10903       401.7000     34668.0000      7411.0000      2701.0000       123.0000       438.0000              0              0              0              0              0            100              0           0.00         0.0000
          10904       402.9500     34668.0000      7411.0000      2701.0000       123.0000       438.0000              0              0              0              0              0            100              0           0.00         0.0000
          10905       402.9500     34668.0000      7411.0000      2701.0000       123.0000       438.0000              0              0              0              0              0            100              0           0.00         0.0000
          10906       399.2500     34668.0000      7411.0000      2701.0000       123.0000       438.0000              0              0              0              0              0            100              0           0.00         0.0000
          10907       389.5000     34668.0000      7411.0000      2701.0000       123.0000       438.0000              0              0              0              0              0            100              0           0.00         0.0000
          10908       378.5000     34668.0000      7411.0000      2701.0000       123.0000       438.0000              0              0              0              0              0            100              0           0.00         0.0000
          10909       382.8000     28059.0000      6251.0000      2409.0000        77.0000       204.0000              0              0              0              0              0            100              0           0.00         0.0000
          10910       391.9500     28059.0000      6251.0000      2409.0000        77.0000       204.0000              0              0              0              0              0            100              0           0.00         0.0000
          10911       394.4000     28059.0000      6251.0000      2409.0000        77.0000       204.0000              0              0              0              0              0            100              0           0.00         0.0000
          10912       390.1000     28059.0000      6251.0000      2409.0000        77.0000       204.0000              0              0              0              0              0            100              0           0.00         0.0000
          10913       383.4000     28059.0000      6251.0000      2409.0000        77.0000       204.0000              0              0              0              0              0            100              0           0.00         0.0000
          10914       383.4000     28059.0000      6251.0000      2409.0000        77.0000       204.0000              0              0              0              0              0            100              0           0.00         0.0000
