#___________________________________________________________________________
~VERSION INFORMATION
 VERS.                                 2.0 : CWLS LOG ASCII STANDARD - VERSION 2.0
 WRAP.                                  NO : ONE LINE PER DEPTH STEP
#___________________________________________________________________________
~WELL INFORMATION
 STRT.F                           10235.00 : START DEPTH
 STOP.F                           15217.00 : STOP DEPTH
 STEP.F                                  1 : STEP VALUE
 NULL.                             -999.25 : NULL VALUE
 COMP.      Magnolia Oil & Gas             : COMPANY
 WELL.      Klondike Mill H08 KL           : WELL
  FLD.      Giddings (AC)                  : FIELD
  LOC.      Washington County              : LOCATION
 CNTY.      Washington County              : PARISH/COUNTY
 STAT.      Texas                          : STATE
 CTRY.      USA                            : COUNTRY
" SRVC.      PetroLog International, Inc.   : SERVICE COMPANY"
 DATE.      03/17/2022                     : LOG DATE
  API.      42-477-31194                   : API REFERENCE NUMBER
#___________________________________________________________________________
~CURVE INFORMATION
#MNEM.UNITS                                : DESCRIPTION
DEPTH.F                                    :  1 DEPTH
 TGAS.Units                                :  2 Chromatograph_TotalGas
 MTHX.PPM                                  :  3 Chromatograph_MethanePPMMax
 ETHX.PPM                                  :  4 Chromatograph_EthanePPMMax
 PRPX.PPM                                  :  5 Chromatograph_PropanePPMMax
 IBTX.PPM                                  :  6 Chromatograph_IButanePPMMax
 NBTX.PPM                                  :  7 Chromatograph_NButanePPMMax
     .----                                 :  8 Lithology_Cement
     .----                                 :  9 Lithology_Shale
     .----                                 : 10 Lithology_Siltstone				
     .----                                 : 11 Lithology_Sand				
     .----                                 : 12 Lithology_Lime				
     .----                                 : 13 Lithology_Chalk				
     .----                                 : 14 Lithology_Tuff				Ash
     .----                                 : 15 Lithology_Calcimetry		 	15 Fracture	 
 PAGL.BBLS                                 : 16 Mud_PitActiveGainLoss			16 Kick  /  Loss	Loss
#___________________________________________________________________________				
~A        DEPTH           TGAS           MTHX           ETHX           PRPX           IBTX           NBTX                                                                                                                                   PAGL				
# ...
          12887      2432.2500    118153.0000     53409.0000     26463.0000      4082.0000     10349.0000              0              0              0              0              0            100              0           0.00         0.0000
          12888      2441.4000    118153.0000     53409.0000     26463.0000      4082.0000     10349.0000              0              0              0              0              0            100              0           0.00         0.0000
          12889      2465.2000    118153.0000     53409.0000     26463.0000      4082.0000     10349.0000              0              0              0              0              0            100              0           0.00         0.0000
          12890      2536.0250    118153.0000     53409.0000     26463.0000      4082.0000     10349.0000              0              0              0              0              0            100              0           0.00         0.0000
          12891      2674.6000    118153.0000     53409.0000     26463.0000      4082.0000     10349.0000              0              0              0              0              0            100              0           0.00         0.0000
          12892      2752.1500    118153.0000     53409.0000     26463.0000      4082.0000     10349.0000              0              0              0              0              0            100              0           0.00         0.0000
          12893      2786.3500    118153.0000     53409.0000     26463.0000      4082.0000     10349.0000              0              0              0              0              0            100              0           0.00         0.0000
          12894      2802.2000    169857.0000     64100.0000     27955.0000      4112.0000     10349.0000              0              0              0              0              0            100              0           0.00         0.0000
          12895      2766.1750    169857.0000     64100.0000     27955.0000      4112.0000     10330.0000              0              0              0              0              0            100              0           0.00         0.0000
          12896      2805.8750    169857.0000     64100.0000     27955.0000      4112.0000     10330.0000              0              0              0              0              0            100              0           0.00         0.0000
          12897      2796.1000    169857.0000     64100.0000     27955.0000      4112.0000     10330.0000              0              0              0              0              0            100              0           0.00         0.0000
          12898      2780.8250    169857.0000     64100.0000     27955.0000      4112.0000     10330.0000              0              0              0              0              0            100              0           0.00         0.0000
          12899      2750.9250    169857.0000     64100.0000     27955.0000      4112.0000     10330.0000              0              0              0              0              0            100              0           0.00         0.0000
          12900      2736.8750    169857.0000     64100.0000     27955.0000      4112.0000     10330.0000              0              0              0              0              0            100              0           0.00         0.0000
          12901      2742.3500    169857.0000     64100.0000     35915.0000      5556.0000     13376.0000              0              0              0              0              0            100              0           0.00         0.0000
          12902      2759.4500    123954.0000     63352.0000     35915.0000      5556.0000     13376.0000              0              0              0              0              0            100              0           0.00         0.0000
          12903      2443.2500    123954.0000     55725.0000     26527.0000      3956.0000      9967.0000              0              0              0              0              0            100              0           0.00         0.0000
          12904      2426.1500    123954.0000     55725.0000     26527.0000      3956.0000      9967.0000              0              0              0              0              0            100              0           0.00         0.0000
          12905      2408.4250    123954.0000     55725.0000     26527.0000      3956.0000      9967.0000              0              0              0              0              0            100              0           0.00         0.0000
          12906      2459.7250    123954.0000     55725.0000     26527.0000      3956.0000      9967.0000              0              0              0              0              0            100              0           0.00         0.0000
          12907      2456.0500    123954.0000     55725.0000     26527.0000      3956.0000      9967.0000              0              0              0              0              0            100              0           0.00         0.0000
          12908       376.0500    118003.0000     51512.0000     25341.0000      3875.0000      9857.0000              0              0              0              0              0            100              0           0.00         0.0000
          12909       323.5500      1143.0000      1301.0000      1240.0000         0.0000       820.0000              0              0              0              0              0            100              0           0.00         0.0000
          12910       295.5000      1143.0000      1301.0000      1240.0000         0.0000       820.0000              0              0              0              0              0            100              0           0.00         0.0000
          12911       484.7500      1143.0000      1301.0000      1240.0000         0.0000       820.0000              0              0              0              0              0            100              0           0.00         0.0000
          12912      1310.7500      1143.0000      1301.0000      1240.0000         0.0000       820.0000              0              0              0              0              0            100              0           0.00         0.0000
          12913      2094.6250      1143.0000      1301.0000      1240.0000         0.0000       820.0000              0              0              0              0              0            100              0           0.00         0.0000
          12914      2306.4500    116247.0000     51457.0000     24971.0000      3720.0000      9050.0000              0              0              0              0              0            100              0           0.00         0.0000
          12915      2345.5500    116247.0000     51457.0000     24971.0000      3720.0000      9050.0000              0              0              0              0              0            100              0           0.00         0.0000
          12916      2363.8500    116247.0000     51457.0000     24971.0000      3720.0000      9050.0000              0              0              0              0              0            100              0           0.00         0.0000
          12917      2383.4000    116247.0000     51457.0000     24971.0000      3720.0000      9050.0000              0              0              0              0              0            100              0           0.00         0.0000
          12918      2390.7000    116247.0000     51457.0000     24971.0000      3720.0000      9050.0000              0              0              0              0              0            100              0           0.00         0.0000
          12919      2470.1000    116247.0000     51457.0000     24971.0000      3720.0000      9050.0000              0              0              0              0              0            100              0           0.00         0.0000
          12920      2483.5000    116247.0000     51457.0000     24971.0000      3720.0000      9050.0000              0              0              0              0              0            100              0           0.00         0.0000
