#___________________________________________________________________________
~VERSION INFORMATION
 VERS.                                 2.0 : CWLS LOG ASCII STANDARD - VERSION 2.0
 WRAP.                                  NO : ONE LINE PER DEPTH STEP
#___________________________________________________________________________
~WELL INFORMATION
 STRT.F                           10160.00 : START DEPTH
 STOP.F                           19983.00 : STOP DEPTH
 STEP.F                                  1 : STEP VALUE
 NULL.                             -999.25 : NULL VALUE
 COMP.      Magnolia Oil & Gas             : COMPANY
 WELL.      Klondike Rush H06 KL           : WELL
  FLD.      Giddings (AC)                  : FIELD
  LOC.      Washington County              : LOCATION
 CNTY.      Washington County              : PARISH/COUNTY
 STAT.      Texas                          : STATE
 CTRY.      USA                            : COUNTRY
" SRVC.      PetroLog International, Inc.   : SERVICE COMPANY"
 DATE.      03/10/2022                     : LOG DATE
  API.      42-477-31192                   : API REFERENCE NUMBER
#___________________________________________________________________________
~CURVE INFORMATION
#MNEM.UNITS                                : DESCRIPTION
DEPTH.F                                    :  1 DEPTH
 TGAS.Units                                :  2 Chromatograph_TotalGas
 MTHX.PPM                                  :  3 Chromatograph_MethanePPMMax
 ETHX.PPM                                  :  4 Chromatograph_EthanePPMMax
 PRPX.PPM                                  :  5 Chromatograph_PropanePPMMax
 IBTX.PPM                                  :  6 Chromatograph_IButanePPMMax
 NBTX.PPM                                  :  7 Chromatograph_NButanePPMMax
     .----                                 :  8 Lithology_Cement
     .----                                 :  9 Lithology_Shale
     .----                                 : 10 Lithology_Siltstone				
     .----                                 : 11 Lithology_Sand				
     .----                                 : 12 Lithology_Lime				
     .----                                 : 13 Lithology_Chalk				
     .----                                 : 14 Lithology_Tuff				Ash
     .----                                 : 15 Lithology_Calcimetry		 	15 Fracture	
 PAGL.BBLS                                 : 16 Mud_PitActiveGainLoss			16 Kick / 	Loss
#___________________________________________________________________________				
~A        DEPTH           TGAS           MTHX           ETHX           PRPX           IBTX           NBTX                                                                                                                                   PAGL				
          10160        19.5500         0.0000         0.0000         0.0000         0.0000         0.0000              0              0              0              0              0            100              0           0.00         0.0000				
          10161        19.5500         0.0000         0.0000         0.0000         0.0000         0.0000              0              0              0              0              0            100              0           0.00         0.0000				
          10162        20.7500         0.0000         0.0000         0.0000         0.0000         0.0000              0              0              0              0              0            100              0           0.00         0.0000				
          10163        46.4000         0.0000         0.0000         0.0000         0.0000         0.0000              0              0              0              0              0            100              0           0.00         0.0000				
          10164        51.3000      4657.0000       205.0000         0.0000         0.0000         0.0000              0              0              0              0              0            100              0           0.00         0.0000				
          10165        41.5000      4657.0000       205.0000         0.0000         0.0000         0.0000              0              0              0              0              0            100              0           0.00         0.0000				
          10166        29.3000      4657.0000       205.0000         0.0000         0.0000         0.0000              0              0              0              0              0            100              0           0.00         0.0000				
          10167        37.8500      4657.0000       205.0000         0.0000         0.0000         0.0000              0              0              0              0              0            100              0           0.00         0.0000
          10168        43.9500      4657.0000       205.0000         0.0000         0.0000         0.0000              0              0              0              0              0            100              0           0.00         0.0000
          10169        80.6000      4920.0000       584.0000        95.0000         0.0000         0.0000              0              0              0              0              0            100              0           0.00         0.0000
          10170        23.2000        74.0000         0.0000         0.0000         0.0000         0.0000              0              0              0              0              0            100              0           0.00         0.0000
          10171        25.0250       114.0000         0.0000         0.0000         0.0000         0.0000              0              0              0              0              0            100              0           0.00         0.0000
          10172        30.5500       114.0000         0.0000         0.0000         0.0000         0.0000              0              0              0              0              0            100              0           0.00         0.0000
          10173        48.8500       114.0000         0.0000         0.0000         0.0000         0.0000              0              0              0              0              0            100              0           0.00         0.0000
          10174        62.2500       114.0000         0.0000         0.0000         0.0000         0.0000              0              0              0              0              0            100              0           0.00         0.0000
          10175        68.4000       114.0000         0.0000         0.0000         0.0000         0.0000              0              0              0              0              0            100              0           0.00         0.0000
          10176        71.4250       114.0000         0.0000         0.0000         0.0000         0.0000              0              0              0              0              0            100              0           0.00         0.0000
          10177        72.0500       114.0000         0.0000         0.0000         0.0000         0.0000              0              0              0              0              0            100              0           0.00         0.0000
          10178        68.4000       114.0000         0.0000         0.0000         0.0000         0.0000              0              0              0              0              0            100              0           0.00         0.0000
          10179        78.1500      4972.0000       585.0000       107.0000         0.0000         0.0000              0              0              0              0              0            100              0           0.00         0.0000
          10180       100.1000      4972.0000       585.0000       107.0000         0.0000         0.0000              0              0              0              0              0            100              0           0.00         0.0000
          10181       118.4250      4972.0000       585.0000       107.0000         0.0000         0.0000              0              0              0              0              0            100              0           0.00         0.0000
          10182       134.3000      4972.0000       585.0000       107.0000         0.0000         0.0000              0              0              0              0              0            100              0           0.00         0.0000
          10183       145.3000      4972.0000       585.0000       107.0000         0.0000         0.0000              0              0              0              0              0            100              0           0.00         0.0000
          10184       148.3500      4972.0000       585.0000       107.0000         0.0000         0.0000              0              0              0              0              0            100              0           0.00         0.0000
          10185       145.9000      4972.0000       585.0000       107.0000         0.0000         0.0000              0              0              0              0              0            100              0           0.00         0.0000
          10186       147.7500      4972.0000       585.0000       107.0000         0.0000         0.0000              0              0              0              0              0            100              0           0.00         0.0000
          10187       147.7500      4972.0000       585.0000       107.0000         0.0000         0.0000              0              0              0              0              0            100              0           0.00         0.0000
          10188       141.6500     13799.0000      1816.0000       469.0000         0.0000         0.0000              0              0              0              0              0            100              0           0.00         0.0000
          10189       138.0000     13799.0000      1816.0000       469.0000         0.0000         0.0000              0              0              0              0              0            100              0           0.00         0.0000
          10190       131.8500     13799.0000      1816.0000       469.0000         0.0000         0.0000              0              0              0              0              0            100              0           0.00         0.0000
          10191       122.1000     13799.0000      1816.0000       469.0000         0.0000         0.0000              0              0              0              0              0            100              0           0.00         0.0000
          10192       110.5000     13799.0000      1816.0000       469.0000         0.0000         0.0000              0              0              0              0              0            100              0           0.00         0.0000
          10193        94.0000     13799.0000      1816.0000       469.0000         0.0000         0.0000              0              0              0              0              0            100              0           0.00         0.0000
