#___________________________________________________________________________
~VERSION INFORMATION
 VERS.                                 2.0 : CWLS LOG ASCII STANDARD - VERSION 2.0
 WRAP.                                  NO : ONE LINE PER DEPTH STEP
#___________________________________________________________________________
~WELL INFORMATION
 STRT.F                           10160.00 : START DEPTH
 STOP.F                           19983.00 : STOP DEPTH
 STEP.F                                  1 : STEP VALUE
 NULL.                             -999.25 : NULL VALUE
 COMP.      Magnolia Oil & Gas             : COMPANY
 WELL.      Klondike Rush H06 KL           : WELL
  FLD.      Giddings (AC)                  : FIELD
  LOC.      Washington County              : LOCATION
 CNTY.      Washington County              : PARISH/COUNTY
 STAT.      Texas                          : STATE
 CTRY.      USA                            : COUNTRY
" SRVC.      PetroLog International, Inc.   : SERVICE COMPANY"
 DATE.      03/10/2022                     : LOG DATE
  API.      42-477-31192                   : API REFERENCE NUMBER
#___________________________________________________________________________
~CURVE INFORMATION
#MNEM.UNITS                                : DESCRIPTION
DEPTH.F                                    :  1 DEPTH
 TGAS.Units                                :  2 Chromatograph_TotalGas
 MTHX.PPM                                  :  3 Chromatograph_MethanePPMMax
 ETHX.PPM                                  :  4 Chromatograph_EthanePPMMax
 PRPX.PPM                                  :  5 Chromatograph_PropanePPMMax
 IBTX.PPM                                  :  6 Chromatograph_IButanePPMMax
 NBTX.PPM                                  :  7 Chromatograph_NButanePPMMax
     .----                                 :  8 Lithology_Cement
     .----                                 :  9 Lithology_Shale
     .----                                 : 10 Lithology_Siltstone				
     .----                                 : 11 Lithology_Sand				
     .----                                 : 12 Lithology_Lime				
     .----                                 : 13 Lithology_Chalk				
     .----                                 : 14 Lithology_Tuff				Ash
     .----                                 : 15 Lithology_Calcimetry		 	15 Fracture	
 PAGL.BBLS                                 : 16 Mud_PitActiveGainLoss			16 Kick / 	Loss
#___________________________________________________________________________				
~A        DEPTH           TGAS           MTHX           ETHX           PRPX           IBTX           NBTX                                                                                                                                   PAGL				
# ...
          11452       667.9000     49028.0000     16606.0000      7044.0000         0.0000         0.0000              0              0              0              0              0            100              0           0.00         0.0000
          11453       667.9000     49028.0000     16606.0000      7044.0000         0.0000         0.0000              0              0              0              0              0            100              0           0.00         0.0000
          11454       669.1000     49028.0000     16606.0000      7044.0000         0.0000         0.0000              0              0              0              0              0            100              0           0.00         0.0000
          11455       675.2000     49028.0000     16606.0000      7044.0000         0.0000         0.0000              0              0              0              0              0            100              0           0.00         0.0000
          11456       686.2000     49028.0000     16606.0000      7044.0000         0.0000         0.0000              0              0              0              0              0            100              0           0.00         0.0000
          11457       710.6500     49028.0000     16606.0000      7044.0000         0.0000         0.0000              0              0              0              0              0            100              0           0.00         0.0000
          11458       736.8750     49028.0000     16606.0000      7044.0000         0.0000         0.0000              0              0              0              0              0            100              0           0.00         0.0000
          11459       743.6000     49028.0000     16606.0000      7044.0000         0.0000         0.0000              0              0              0              0              0            100              0           0.00         0.0000
          11460       743.6000     49028.0000     16606.0000      7044.0000         0.0000         0.0000              0              0              0              0              0            100              0           0.00         0.0000
          11461       746.0500     49028.0000     16606.0000      7044.0000         0.0000         0.0000              0              0              0              0              0            100              0           0.00         0.0000
          11462       743.6000     49028.0000     16606.0000      7044.0000         0.0000         0.0000              0              0              0              0              0            100              0           0.00         0.0000
          11463       731.4000     49028.0000     16606.0000      7044.0000         0.0000         0.0000              0              0              0              0              0            100              0           0.00         0.0000
          11464       736.2500     49028.0000     16606.0000      7044.0000         0.0000         0.0000              0              0              0              0              0            100              0           0.00         0.0000
          11465       736.8750     49028.0000     16606.0000      7044.0000         0.0000         0.0000              0              0              0              0              0            100              0           0.00         0.0000
          11466       733.8000     49028.0000     16606.0000      7044.0000         0.0000         0.0000              0              0              0              0              0            100              0           0.00         0.0000
          11467       734.4250     49028.0000     16606.0000      7044.0000         0.0000         0.0000              0              0              0              0              0            100              0           0.00         0.0000
          11468       729.5500     49028.0000     16606.0000      7044.0000         0.0000         0.0000              0              0              0              0              0            100              0           0.00         0.0000
          11469       751.5250     49028.0000     16606.0000      7044.0000         0.0000         0.0000              0              0              0              0              0            100              0           0.00         0.0000
          11470       771.0750     54811.0000     18391.0000      7714.0000         0.0000         0.0000              0              0              0              0              0            100              0           0.00         0.0000
          11471       782.6500     54811.0000     18391.0000      7714.0000         0.0000         0.0000              0              0              0              0              0            100              0           0.00         0.0000
          11472       783.9000     54811.0000     18391.0000      7714.0000         0.0000         0.0000              0              0              0              0              0            100              0           0.00         0.0000
          11473       797.3000     54811.0000     18391.0000      7714.0000         0.0000         0.0000              0              0              0              0              0            100              0           0.00         0.0000
          11474       807.1000     54811.0000     18391.0000      7714.0000         0.0000         0.0000              0              0              0              0              0            100              0           0.00         0.0000
          11475       807.1000     54811.0000     18391.0000      7714.0000         0.0000         0.0000              0              0              0              0              0            100              0           0.00         0.0000
          11476       797.9250     54811.0000     18391.0000      7714.0000         0.0000         0.0000              0              0              0              0              0            100              0           0.00         0.0000
          11477       794.8500     54811.0000     18391.0000      7714.0000         0.0000         0.0000              0              0              0              0              0            100              0           0.00         0.0000
          11478       786.3500     54811.0000     18391.0000      7714.0000         0.0000         0.0000              0              0              0              0              0            100              0           0.00         0.0000
          11479       780.2000     54811.0000     18391.0000      7714.0000         0.0000         0.0000              0              0              0              0              0            100              0           0.00         0.0000
          11480       772.9000     54811.0000     18391.0000      7714.0000         0.0000         0.0000              0              0              0              0              0            100              0           0.00         0.0000
          11481       759.4500     54811.0000     18391.0000      7714.0000         0.0000         0.0000              0              0              0              0              0            100              0           0.00         0.0000
          11482       735.0250     54811.0000     18391.0000      7714.0000         0.0000         0.0000              0              0              0              0              0            100              0           0.00         0.0000
          11483       781.4500     54811.0000     18391.0000      7714.0000         0.0000         0.0000              0              0              0              0              0            100              0           0.00         0.0000
          11484      1136.1500     59452.0000     18444.0000      7714.0000         0.0000         0.0000              0              0              0              0              0            100              0           0.00         0.0000
          11485      1209.4000     59452.0000     18444.0000      7669.0000         0.0000         0.0000              0              0              0              0              0            100              0           0.00         0.0000
