#___________________________________________________________________________
~VERSION INFORMATION
 VERS.                                 2.0 : CWLS LOG ASCII STANDARD - VERSION 2.0
 WRAP.                                  NO : ONE LINE PER DEPTH STEP
#___________________________________________________________________________
~WELL INFORMATION
 STRT.F                           10235.00 : START DEPTH
 STOP.F                           15217.00 : STOP DEPTH
 STEP.F                                  1 : STEP VALUE
 NULL.                             -999.25 : NULL VALUE
 COMP.      Magnolia Oil & Gas             : COMPANY
 WELL.      Klondike Mill H08 KL           : WELL
  FLD.      Giddings (AC)                  : FIELD
  LOC.      Washington County              : LOCATION
 CNTY.      Washington County              : PARISH/COUNTY
 STAT.      Texas                          : STATE
 CTRY.      USA                            : COUNTRY
" SRVC.      PetroLog International, Inc.   : SERVICE COMPANY"
 DATE.      03/17/2022                     : LOG DATE
  API.      42-477-31194                   : API REFERENCE NUMBER
#___________________________________________________________________________
~CURVE INFORMATION
#MNEM.UNITS                                : DESCRIPTION
DEPTH.F                                    :  1 DEPTH
 TGAS.Units                                :  2 Chromatograph_TotalGas
 MTHX.PPM                                  :  3 Chromatograph_MethanePPMMax
 ETHX.PPM                                  :  4 Chromatograph_EthanePPMMax
 PRPX.PPM                                  :  5 Chromatograph_PropanePPMMax
 IBTX.PPM                                  :  6 Chromatograph_IButanePPMMax
 NBTX.PPM                                  :  7 Chromatograph_NButanePPMMax
     .----                                 :  8 Lithology_Cement
     .----                                 :  9 Lithology_Shale
     .----                                 : 10 Lithology_Siltstone				
     .----                                 : 11 Lithology_Sand				
     .----                                 : 12 Lithology_Lime				
     .----                                 : 13 Lithology_Chalk				
     .----                                 : 14 Lithology_Tuff				Ash
     .----                                 : 15 Lithology_Calcimetry		 	15 Fracture	 
 PAGL.BBLS                                 : 16 Mud_PitActiveGainLoss			16 Kick  /  Loss	Loss
#___________________________________________________________________________				
~A        DEPTH           TGAS           MTHX           ETHX           PRPX           IBTX           NBTX                                                                                                                                   PAGL				
          10235        77.5500      1333.0000       447.0000       291.0000         0.0000         0.0000              0              0              0              0              0            100              0           0.00         0.0000				
          10236        79.9750      1333.0000       447.0000       291.0000         0.0000         0.0000              0              0              0              0              0            100              0           0.00         0.0000				
          10237        81.8250      1333.0000       447.0000       291.0000         0.0000         0.0000              0              0              0              0              0            100              0           0.00         0.0000				
          10238        84.8500      1333.0000       447.0000       291.0000         0.0000         0.0000              0              0              0              0              0            100              0           0.00         0.0000				
          10239        89.1500      1333.0000       447.0000       291.0000         0.0000         0.0000              0              0              0              0              0            100              0           0.00         0.0000				
          10240        67.1500       454.0000       332.0000       233.0000         0.0000         0.0000              0              0              0              0              0            100              0           0.00         0.0000				
          10241        67.1500       180.0000       178.0000       126.0000         0.0000         0.0000              0              0              0              0              0            100              0           0.00         0.0000				
          10242        69.6000       180.0000       178.0000       126.0000         0.0000         0.0000              0              0              0              0              0            100              0           0.00         0.0000
          10243        69.6000       180.0000       178.0000       126.0000         0.0000         0.0000              0              0              0              0              0            100              0           0.00         0.0000
          10244        66.5500       180.0000       178.0000       126.0000         0.0000         0.0000              0              0              0              0              0            100              0           0.00         0.0000
          10245        70.8250       180.0000       178.0000       126.0000         0.0000         0.0000              0              0              0              0              0            100              0           0.00         0.0000
          10246        84.2500       180.0000       178.0000       126.0000         0.0000         0.0000              0              0              0              0              0            100              0           0.00         0.0000
          10247       101.9500       180.0000       178.0000       126.0000         0.0000         0.0000              0              0              0              0              0            100              0           0.00         0.0000
          10248       125.7500       180.0000       178.0000       126.0000         0.0000         0.0000              0              0              0              0              0            100              0           0.00         0.0000
          10249       139.2000      7391.0000      1520.0000       589.0000         0.0000        34.0000              0              0              0              0              0            100              0           0.00         0.0000
          10250       148.9750      7391.0000      1520.0000       589.0000         0.0000        34.0000              0              0              0              0              0            100              0           0.00         0.0000
          10251       157.5000      7391.0000      1520.0000       589.0000         0.0000        34.0000              0              0              0              0              0            100              0           0.00         0.0000
          10252       162.4000      7391.0000      1520.0000       589.0000         0.0000        34.0000              0              0              0              0              0            100              0           0.00         0.0000
          10253       168.5000      7391.0000      1520.0000       589.0000         0.0000        34.0000              0              0              0              0              0            100              0           0.00         0.0000
          10254       175.8500      7391.0000      1520.0000       589.0000         0.0000        34.0000              0              0              0              0              0            100              0           0.00         0.0000
          10255       182.5500      7391.0000      1520.0000       589.0000         0.0000        34.0000              0              0              0              0              0            100              0           0.00         0.0000
          10256       142.5000     19717.0000      3263.0000      1580.0000        53.0000       171.0000              0              0              0              0              0            100              0           0.00         0.0000
          10257       177.0500     19717.0000      3263.0000      1110.0000         0.0000       171.0000              0              0              0              0              0            100              0           0.00         0.0000
          10258       183.7500     19717.0000      3263.0000      1110.0000         0.0000       171.0000              0              0              0              0              0            100              0           0.00         0.0000
          10259       184.3500     19717.0000      3263.0000      1110.0000         0.0000       171.0000              0              0              0              0              0            100              0           0.00         0.0000
          10260       186.8250     19717.0000      3263.0000      1110.0000         0.0000       171.0000              0              0              0              0              0            100              0           0.00         0.0000
          10261       187.4250     19717.0000      3263.0000      1110.0000         0.0000       171.0000              0              0              0              0              0            100              0           0.00         0.0000
          10262       193.5250     19717.0000      3263.0000      1110.0000         0.0000       171.0000              0              0              0              0              0            100              0           0.00         0.0000
          10263       201.4500     19717.0000      3263.0000      1110.0000         0.0000       171.0000              0              0              0              0              0            100              0           0.00         0.0000
          10264       206.9500     13965.0000      2347.0000       813.0000         0.0000        74.0000              0              0              0              0              0            100              0           0.00         0.0000
          10265       215.5000     13965.0000      2347.0000       813.0000         0.0000        74.0000              0              0              0              0              0            100              0           0.00         0.0000
          10266       223.4500     13965.0000      2347.0000       813.0000         0.0000        74.0000              0              0              0              0              0            100              0           0.00         0.0000
          10267       224.0500     13965.0000      2347.0000       813.0000         0.0000        74.0000              0              0              0              0              0            100              0           0.00         0.0000
          10268       218.5500     13965.0000      2347.0000       813.0000         0.0000        74.0000              0              0              0              0              0            100              0           0.00         0.0000
