#___________________________________________________________________________
~VERSION INFORMATION
 VERS.                                 2.0 : CWLS LOG ASCII STANDARD - VERSION 2.0
 WRAP.                                  NO : ONE LINE PER DEPTH STEP
#___________________________________________________________________________
~WELL INFORMATION
 STRT.F                           10235.00 : START DEPTH
 STOP.F                           15217.00 : STOP DEPTH
 STEP.F                                  1 : STEP VALUE
 NULL.                             -999.25 : NULL VALUE
 COMP.      Magnolia Oil & Gas             : COMPANY
 WELL.      Klondike Mill H08 KL           : WELL
  FLD.      Giddings (AC)                  : FIELD
  LOC.      Washington County              : LOCATION
 CNTY.      Washington County              : PARISH/COUNTY
 STAT.      Texas                          : STATE
 CTRY.      USA                            : COUNTRY
" SRVC.      PetroLog International, Inc.   : SERVICE COMPANY"
 DATE.      03/17/2022                     : LOG DATE
  API.      42-477-31194                   : API REFERENCE NUMBER
#___________________________________________________________________________
~CURVE INFORMATION
#MNEM.UNITS                                : DESCRIPTION
DEPTH.F                                    :  1 DEPTH
 TGAS.Units                                :  2 Chromatograph_TotalGas
 MTHX.PPM                                  :  3 Chromatograph_MethanePPMMax
 ETHX.PPM                                  :  4 Chromatograph_EthanePPMMax
 PRPX.PPM                                  :  5 Chromatograph_PropanePPMMax
 IBTX.PPM                                  :  6 Chromatograph_IButanePPMMax
 NBTX.PPM                                  :  7 Chromatograph_NButanePPMMax
     .----                                 :  8 Lithology_Cement
     .----                                 :  9 Lithology_Shale
     .----                                 : 10 Lithology_Siltstone				
     .----                                 : 11 Lithology_Sand				
     .----                                 : 12 Lithology_Lime				
     .----                                 : 13 Lithology_Chalk				
     .----                                 : 14 Lithology_Tuff				Ash
     .----                                 : 15 Lithology_Calcimetry		 	15 Fracture	 
 PAGL.BBLS                                 : 16 Mud_PitActiveGainLoss			16 Kick  /  Loss	Loss
#___________________________________________________________________________				
~A        DEPTH           TGAS           MTHX           ETHX           PRPX           IBTX           NBTX                                                                                                                                   PAGL				
# ...
          15199        70.8000         0.0000         0.0000         0.0000         0.0000         0.0000              0              0              0              0              0              0              0           0.00         0.0000
          15200        71.4250         0.0000         0.0000         0.0000         0.0000         0.0000              0              0              0              0              0              0              0           0.00         3.0000
          15201        72.0500         0.0000         0.0000         0.0000         0.0000         0.0000              0              0              0              0              0              0              0           0.00         3.0000
          15202        70.8000         0.0000         0.0000         0.0000         0.0000         0.0000              0              0              0              0              0              0              0           0.00         3.0000
          15203        70.8000         0.0000         0.0000         0.0000         0.0000         0.0000              0              0              0              0              0              0              0           0.00         3.0000
          15204        69.6000         0.0000         0.0000         0.0000         0.0000         0.0000              0              0              0              0              0              0              0           0.00         3.0000
          15205        69.6000         0.0000         0.0000         0.0000         0.0000         0.0000              0              0              0              0              0              0              0           0.00         3.0000
          15206        69.0000         0.0000         0.0000         0.0000         0.0000         0.0000              0              0              0              0              0              0              0           0.00         3.0000
          15207        70.8000         0.0000         0.0000         0.0000         0.0000         0.0000              0              0              0              0              0              0              0           0.00         3.0000
          15208        70.8000         0.0000         0.0000         0.0000         0.0000         0.0000              0              0              0              0              0              0              0           0.00         3.0000
          15209        69.6000         0.0000         0.0000         0.0000         0.0000         0.0000              0              0              0              0              0              0              0           0.00         3.0000
          15210        68.4000         0.0000         0.0000         0.0000         0.0000         0.0000              0              0              0              0              0              0              0           0.00         3.0000
          15211        67.1500         0.0000         0.0000         0.0000         0.0000         0.0000              0              0              0              0              0              0              0           0.00         3.0000
          15212        67.7750         0.0000         0.0000         0.0000         0.0000         0.0000              0              0              0              0              0              0              0           0.00         3.0000
          15213        68.4000         0.0000         0.0000         0.0000         0.0000         0.0000              0              0              0              0              0              0              0           0.00         3.0000
          15214        68.4000         0.0000         0.0000         0.0000         0.0000         0.0000              0              0              0              0              0              0              0           0.00         3.0000
          15215        67.1500         0.0000         0.0000         0.0000         0.0000         0.0000              0              0              0              0              0              0              0           0.00         3.0000
          15216        65.9500         0.0000         0.0000         0.0000         0.0000         0.0000              0              0              0              0              0              0              0           0.00         3.0000
          15217         0.0000         0.0000         0.0000         0.0000         0.0000         0.0000              0              0              0              0              0              0              0           0.00         3.0000
