#___________________________________________________________________________
~VERSION INFORMATION
 VERS.                                 2.0 : CWLS LOG ASCII STANDARD - VERSION 2.0
 WRAP.                                  NO : ONE LINE PER DEPTH STEP
#___________________________________________________________________________
~WELL INFORMATION
 STRT.F                           10235.00 : START DEPTH
 STOP.F                           15217.00 : STOP DEPTH
 STEP.F                                  1 : STEP VALUE
 NULL.                             -999.25 : NULL VALUE
 COMP.      Magnolia Oil & Gas             : COMPANY
 WELL.      Klondike Mill H08 KL           : WELL
  FLD.      Giddings (AC)                  : FIELD
  LOC.      Washington County              : LOCATION
 CNTY.      Washington County              : PARISH/COUNTY
 STAT.      Texas                          : STATE
 CTRY.      USA                            : COUNTRY
" SRVC.      PetroLog International, Inc.   : SERVICE COMPANY"
 DATE.      03/17/2022                     : LOG DATE
  API.      42-477-31194                   : API REFERENCE NUMBER
#___________________________________________________________________________
~CURVE INFORMATION
#MNEM.UNITS                                : DESCRIPTION
DEPTH.F                                    :  1 DEPTH
 TGAS.Units                                :  2 Chromatograph_TotalGas
 MTHX.PPM                                  :  3 Chromatograph_MethanePPMMax
 ETHX.PPM                                  :  4 Chromatograph_EthanePPMMax
 PRPX.PPM                                  :  5 Chromatograph_PropanePPMMax
 IBTX.PPM                                  :  6 Chromatograph_IButanePPMMax
 NBTX.PPM                                  :  7 Chromatograph_NButanePPMMax
     .----                                 :  8 Lithology_Cement
     .----                                 :  9 Lithology_Shale
     .----                                 : 10 Lithology_Siltstone				
     .----                                 : 11 Lithology_Sand				
     .----                                 : 12 Lithology_Lime				
     .----                                 : 13 Lithology_Chalk				
     .----                                 : 14 Lithology_Tuff				Ash
     .----                                 : 15 Lithology_Calcimetry		 	15 Fracture	 
 PAGL.BBLS                                 : 16 Mud_PitActiveGainLoss			16 Kick  /  Loss	Loss
#___________________________________________________________________________				
~A        DEPTH           TGAS           MTHX           ETHX           PRPX           IBTX           NBTX                                                                                                                                   PAGL				
# ...
          11221      1443.2500     83480.0000     37945.0000     19175.0000      2398.0000      5280.0000              0              0              0              0              0            100              0           0.00         0.0000
          11222      1429.8000     83480.0000     37945.0000     19175.0000      2398.0000      5280.0000              0              0              0              0              0            100              0           0.00         0.0000
          11223      1407.8250     83480.0000     37945.0000     19175.0000      2398.0000      5280.0000              0              0              0              0              0            100              0           0.00         0.0000
          11224      1377.3000     83480.0000     37945.0000     19175.0000      2398.0000      5280.0000              0              0              0              0              0            100              0           0.00         0.0000
          11225      1354.7000     83480.0000     37945.0000     19175.0000      2398.0000      5280.0000              0              0              0              0              0            100              0           0.00         0.0000
          11226      1372.4000     83480.0000     37945.0000     19175.0000      2398.0000      5280.0000              0              0              0              0              0            100              0           0.00         0.0000
          11227      1380.9500     83480.0000     37945.0000     19175.0000      2398.0000      5280.0000              0              0              0              0              0            100              0           0.00         0.0000
          11228      1399.2500     83480.0000     37945.0000     19175.0000      2398.0000      5280.0000              0              0              0              0              0            100              0           0.00         0.0000
          11229      1420.0500     83480.0000     37945.0000     19175.0000      2398.0000      5280.0000              0              0              0              0              0            100              0           0.00         0.0000
          11230      1450.5500     83480.0000     37945.0000     19175.0000      2398.0000      5280.0000              0              0              0              0              0            100              0           0.00         0.0000
          11231      1471.3000     83480.0000     37945.0000     19175.0000      2398.0000      5280.0000              0              0              0              0              0            100              0           0.00         0.0000
          11232      1501.8500     83480.0000     37945.0000     19175.0000      2398.0000      5280.0000              0              0              0              0              0            100              0           0.00         0.0000
          11233      1529.3000     83480.0000     37945.0000     19175.0000      2398.0000      5280.0000              0              0              0              0              0            100              0           0.00         0.0000
          11234      1543.9500     83480.0000     37945.0000     19175.0000      2398.0000      5280.0000              0              0              0              0              0            100              0           0.00         0.0000
          11235      1544.5500     83480.0000     37945.0000     19175.0000      2398.0000      5280.0000              0              0              0              0              0            100              0           0.00         0.0000
          11236      1537.2500     83480.0000     37945.0000     19175.0000      2398.0000      5280.0000              0              0              0              0              0            100              0           0.00         0.0000
          11237      1511.6000     83480.0000     37945.0000     19175.0000      2398.0000      5280.0000              0              0              0              0              0            100              0           0.00         0.0000
          11238      1509.1500     83480.0000     37945.0000     19175.0000      2398.0000      5280.0000              0              0              0              0              0            100              0           0.00         0.0000
          11239      1543.9500     83480.0000     37945.0000     19175.0000      2398.0000      5280.0000              0              0              0              0              0            100              0           0.00         0.0000
          11240      1580.0000     88093.0000     37945.0000     19175.0000      2398.0000      5280.0000              0              0              0              0              0            100              0           0.00         0.0000
          11241      1589.7500     88093.0000     35826.0000     16194.0000      1879.0000      3994.0000              0              0              0              0              0            100              0           0.00         0.0000
          11242      1589.7500     88093.0000     35826.0000     16194.0000      1879.0000      3994.0000              0              0              0              0              0            100              0           0.00         0.0000
          11243      1581.8000     88093.0000     35826.0000     16194.0000      1879.0000      3994.0000              0              0              0              0              0            100              0           0.00         0.0000
          11244      1561.6500     88093.0000     35826.0000     16194.0000      1879.0000      3994.0000              0              0              0              0              0            100              0           0.00         0.0000
          11245      1548.2500     88093.0000     35826.0000     16194.0000      1879.0000      3994.0000              0              0              0              0              0            100              0           0.00         0.0000
          11246      1554.3500     88093.0000     35826.0000     16194.0000      1879.0000      3994.0000              0              0              0              0              0            100              0           0.00         0.0000
          11247      1563.5000     88093.0000     35826.0000     16194.0000      1879.0000      3994.0000              0              0              0              0              0            100              0           0.00         0.0000
          11248      1586.7000     88093.0000     35826.0000     16194.0000      1879.0000      3994.0000              0              0              0              0              0            100              0           0.00         0.0000
          11249      1622.1000     88093.0000     35826.0000     16194.0000      1879.0000      3994.0000              0              0              0              0              0            100              0           0.00         0.0000
          11250      1647.1500     88093.0000     35826.0000     16194.0000      1879.0000      3994.0000              0              0              0              0              0            100              0           0.00         0.0000
          11251      1665.4500     88093.0000     35826.0000     16194.0000      1879.0000      3994.0000              0              0              0              0              0            100              0           0.00         0.0000
          11252      1695.9500     88093.0000     35826.0000     16194.0000      1879.0000      3994.0000              0              0              0              0              0            100              0           0.00         0.0000
          11253      1719.7750     88093.0000     35826.0000     16194.0000      1879.0000      3994.0000              0              0              0              0              0            100              0           0.00         0.0000
          11254      1724.0500     88093.0000     35826.0000     16194.0000      1879.0000      3994.0000              0              0              0              0              0            100              0           0.00         0.0000
