#___________________________________________________________________________
~VERSION INFORMATION
 VERS.                                 2.0 : CWLS LOG ASCII STANDARD - VERSION 2.0
 WRAP.                                  NO : ONE LINE PER DEPTH STEP
#___________________________________________________________________________
~WELL INFORMATION
 STRT.F                           10160.00 : START DEPTH
 STOP.F                           19983.00 : STOP DEPTH
 STEP.F                                  1 : STEP VALUE
 NULL.                             -999.25 : NULL VALUE
 COMP.      Magnolia Oil & Gas             : COMPANY
 WELL.      Klondike Rush H06 KL           : WELL
  FLD.      Giddings (AC)                  : FIELD
  LOC.      Washington County              : LOCATION
 CNTY.      Washington County              : PARISH/COUNTY
 STAT.      Texas                          : STATE
 CTRY.      USA                            : COUNTRY
" SRVC.      PetroLog International, Inc.   : SERVICE COMPANY"
 DATE.      03/10/2022                     : LOG DATE
  API.      42-477-31192                   : API REFERENCE NUMBER
#___________________________________________________________________________
~CURVE INFORMATION
#MNEM.UNITS                                : DESCRIPTION
DEPTH.F                                    :  1 DEPTH
 TGAS.Units                                :  2 Chromatograph_TotalGas
 MTHX.PPM                                  :  3 Chromatograph_MethanePPMMax
 ETHX.PPM                                  :  4 Chromatograph_EthanePPMMax
 PRPX.PPM                                  :  5 Chromatograph_PropanePPMMax
 IBTX.PPM                                  :  6 Chromatograph_IButanePPMMax
 NBTX.PPM                                  :  7 Chromatograph_NButanePPMMax
     .----                                 :  8 Lithology_Cement
     .----                                 :  9 Lithology_Shale
     .----                                 : 10 Lithology_Siltstone				
     .----                                 : 11 Lithology_Sand				
     .----                                 : 12 Lithology_Lime				
     .----                                 : 13 Lithology_Chalk				
     .----                                 : 14 Lithology_Tuff				Ash
     .----                                 : 15 Lithology_Calcimetry		 	15 Fracture	
 PAGL.BBLS                                 : 16 Mud_PitActiveGainLoss			16 Kick / 	Loss
#___________________________________________________________________________				
~A        DEPTH           TGAS           MTHX           ETHX           PRPX           IBTX           NBTX                                                                                                                                   PAGL				
# ...
          14716      1240.5250    103883.0000     39191.0000     17308.0000      1874.0000      4427.0000              0              0              0              0              0            100              0           0.00         0.0000
          14717       811.9750    103883.0000     39191.0000     17308.0000      1874.0000      4427.0000              0              0              0              0              0            100              0           0.00         0.0000
          14718       549.4500    103883.0000     39191.0000     17308.0000      1874.0000      4427.0000              0              0              0              0              0            100              0           0.00         0.0000
          14719       406.6000    103883.0000     39191.0000     17308.0000      1874.0000      4427.0000              0              0              0              0              0            100              0           0.00         0.0000
          14720       321.1500    103883.0000     39191.0000     17308.0000      1874.0000      4427.0000              0              0              0              0              0            100              0           0.00         0.0000
          14721       272.3000    103883.0000     39191.0000     17308.0000      1874.0000      4427.0000              0              0              0              0              0            100              0           0.00         0.0000
          14722       349.8000    103883.0000     39191.0000     17308.0000      1874.0000      4427.0000              0              0              0              0              0            100              0           0.00         0.0000
          14723       592.2000    103883.0000     39191.0000     17308.0000      1874.0000      4427.0000              0              0              0              0              0            100              0           0.00         0.0000
          14724       878.5000    103883.0000     39191.0000     17308.0000      1874.0000      4427.0000              0              0              0              0              0            100              0           0.00         0.0000
          14725      1168.5000    103883.0000     39191.0000     17308.0000      1874.0000      4427.0000              0              0              0              0              0            100              0           0.00         0.0000
          14726      1363.2500    103883.0000     39191.0000     17308.0000      1874.0000      4427.0000              0              0              0              0              0            100              0           0.00         0.0000
          14727      1504.2750    103883.0000     39191.0000     17308.0000      1874.0000      4427.0000              0              0              0              0              0            100              0           0.00         0.0000
          14728      1615.3750    103883.0000     39191.0000     17308.0000      1874.0000      4427.0000              0              0              0              0              0            100              0           0.00         0.0000
          14729      1687.4250    103883.0000     39191.0000     17308.0000      1874.0000      4427.0000              0              0              0              0              0            100              0           0.00         0.0000
          14730      1738.7250    103883.0000     39191.0000     17308.0000      1874.0000      4427.0000              0              0              0              0              0            100              0           0.00         0.0000
          14731      1783.8750    103883.0000     39191.0000     17308.0000      1874.0000      4427.0000              0              0              0              0              0            100              0           0.00         0.0000
          14732      1827.2250    103883.0000     39191.0000     17308.0000      1874.0000      4427.0000              0              0              0              0              0            100              0           0.00         0.0000
          14733      1853.5000    103883.0000     39191.0000     17308.0000      1874.0000      4427.0000              0              0              0              0              0            100              0           0.00         0.0000
          14734      1870.6000    103883.0000     39191.0000     17308.0000      1874.0000      4427.0000              0              0              0              0              0            100              0           0.00         0.0000
          14735      1884.6250    103883.0000     39191.0000     17308.0000      1874.0000      4427.0000              0              0              0              0              0            100              0           0.00         0.0000
          14736      1910.8500    103883.0000     39191.0000     17308.0000      1874.0000      4427.0000              0              0              0              0              0            100              0           0.00         0.0000
          14737      1945.6750    103883.0000     39191.0000     17308.0000      1874.0000      4427.0000              0              0              0              0              0            100              0           0.00         0.0000
          14738      1962.1500    103883.0000     39191.0000     17308.0000      1874.0000      4427.0000              0              0              0              0              0            100              0           0.00         0.0000
          14739      1977.4000    127435.0000     45696.0000     18097.0000      1874.0000      4427.0000              0              0              0              0              0            100              0           0.00         0.0000
          14740      1981.6750    127435.0000     45696.0000     18097.0000      1865.0000      4238.0000              0              0              0              0              0            100              0           0.00         0.0000
          14741      1989.0250    127435.0000     45696.0000     18097.0000      1865.0000      4238.0000              0              0              0              0              0            100              0           0.00         0.0000
          14742      1990.8500    127435.0000     45696.0000     18097.0000      1865.0000      4238.0000              0              0              0              0              0            100              0           0.00         0.0000
          14743      1991.4500    127435.0000     45696.0000     18097.0000      1865.0000      4238.0000              0              0              0              0              0            100              0           0.00         0.0000
          14744      1989.0000    127435.0000     45696.0000     18097.0000      1865.0000      4238.0000              0              0              0              0              0            100              0           0.00         0.0000
          14745      1981.7000    127435.0000     45696.0000     18097.0000      1865.0000      4238.0000              0              0              0              0              0            100              0           0.00         0.0000
          14746      1979.2500    127435.0000     45696.0000     18097.0000      1865.0000      4238.0000              0              0              0              0              0            100              0           0.00         0.0000
          14747      1978.0000    127435.0000     45696.0000     18097.0000      1865.0000      4238.0000              0              0              0              0              0            100              0           0.00         0.0000
          14748      1971.9000    127435.0000     45696.0000     18097.0000      1865.0000      4238.0000              0              0              0              0              0            100              0           0.00         0.0000
          14749      1971.9000    127435.0000     45696.0000     18097.0000      1865.0000      4238.0000              0              0              0              0              0            100              0           0.00         0.0000
