#___________________________________________________________________________
~VERSION INFORMATION
 VERS.                                 2.0 : CWLS LOG ASCII STANDARD - VERSION 2.0
 WRAP.                                  NO : ONE LINE PER DEPTH STEP
#___________________________________________________________________________
~WELL INFORMATION
 STRT.F                           10235.00 : START DEPTH
 STOP.F                           15217.00 : STOP DEPTH
 STEP.F                                  1 : STEP VALUE
 NULL.                             -999.25 : NULL VALUE
 COMP.      Magnolia Oil & Gas             : COMPANY
 WELL.      Klondike Mill H08 KL           : WELL
  FLD.      Giddings (AC)                  : FIELD
  LOC.      Washington County              : LOCATION
 CNTY.      Washington County              : PARISH/COUNTY
 STAT.      Texas                          : STATE
 CTRY.      USA                            : COUNTRY
" SRVC.      PetroLog International, Inc.   : SERVICE COMPANY"
 DATE.      03/17/2022                     : LOG DATE
  API.      42-477-31194                   : API REFERENCE NUMBER
#___________________________________________________________________________
~CURVE INFORMATION
#MNEM.UNITS                                : DESCRIPTION
DEPTH.F                                    :  1 DEPTH
 TGAS.Units                                :  2 Chromatograph_TotalGas
 MTHX.PPM                                  :  3 Chromatograph_MethanePPMMax
 ETHX.PPM                                  :  4 Chromatograph_EthanePPMMax
 PRPX.PPM                                  :  5 Chromatograph_PropanePPMMax
 IBTX.PPM                                  :  6 Chromatograph_IButanePPMMax
 NBTX.PPM                                  :  7 Chromatograph_NButanePPMMax
     .----                                 :  8 Lithology_Cement
     .----                                 :  9 Lithology_Shale
     .----                                 : 10 Lithology_Siltstone				
     .----                                 : 11 Lithology_Sand				
     .----                                 : 12 Lithology_Lime				
     .----                                 : 13 Lithology_Chalk				
     .----                                 : 14 Lithology_Tuff				Ash
     .----                                 : 15 Lithology_Calcimetry		 	15 Fracture	 
 PAGL.BBLS                                 : 16 Mud_PitActiveGainLoss			16 Kick  /  Loss	Loss
#___________________________________________________________________________				
~A        DEPTH           TGAS           MTHX           ETHX           PRPX           IBTX           NBTX                                                                                                                                   PAGL				
# ...
          13873      2772.9000    189430.0000     60751.0000     23397.0000      2829.0000      7322.0000              0             60              0              0              0             40              0           0.00         0.0000
          13874      2797.3000    189430.0000     60751.0000     23397.0000      2829.0000      7322.0000              0             60              0              0              0             40              0           0.00         0.0000
          13875      2801.0000    189430.0000     60751.0000     23397.0000      2829.0000      7322.0000              0             60              0              0              0             40              0           0.00         0.0000
          13876      2791.2000    189430.0000     60751.0000     23397.0000      2829.0000      7322.0000              0             60              0              0              0             40              0           0.00         0.0000
          13877      2780.8250    189430.0000     60751.0000     23397.0000      2829.0000      7322.0000              0             60              0              0              0             40              0           0.00         0.0000
          13878      2780.8250    189430.0000     60751.0000     23397.0000      2829.0000      7322.0000              0             60              0              0              0             40              0           0.00         0.0000
          13879      2793.0500    189430.0000     60751.0000     23397.0000      2829.0000      7322.0000              0             60              0              0              0             40              0           0.00         0.0000
          13880      2803.4000    189430.0000     60751.0000     23397.0000      2829.0000      7322.0000              0             60              0              0              0             40              0           0.00         0.0000
          13881      2796.1000    189430.0000     60751.0000     23397.0000      2829.0000      7322.0000              0             60              0              0              0             40              0           0.00         0.0000
          13882      2788.7500    189430.0000     60751.0000     23397.0000      2829.0000      7322.0000              0             60              0              0              0             40              0           0.00         0.0000
          13883      2791.2000    189430.0000     60751.0000     23397.0000      2829.0000      7322.0000              0             60              0              0              0             40              0           0.00         0.0000
          13884      2790.0000    189430.0000     60751.0000     23397.0000      2829.0000      7322.0000              0             60              0              0              0             40              0           0.00         0.0000
          13885      2821.7500    189430.0000     60751.0000     23397.0000      2829.0000      7322.0000              0             60              0              0              0             40              0           0.00         0.0000
          13886      2893.1750    189430.0000     60751.0000     23397.0000      2829.0000      7322.0000              0             60              0              0              0             40              0           0.00         0.0000
          13887      2932.8500    189430.0000     60751.0000     23397.0000      2829.0000      7322.0000              0             60              0              0              0             40              0           0.00         0.0000
          13888      2993.2750    189430.0000     60751.0000     23397.0000      2829.0000      7322.0000              0             60              0              0              0             40              0           0.00         0.0000
          13889      3042.7500    189430.0000     60751.0000     23397.0000      2829.0000      7322.0000              0             60              0              0              0             40              0           0.00         0.0000
          13890      3085.4750    239541.0000     70951.0000     26847.0000      3429.0000      8559.0000              0             60              0              0              0             40              0           0.00         0.0000
          13891      2865.0750    239541.0000     70951.0000     26847.0000      3429.0000      8559.0000              0             60              0              0              0             40              0           0.00         0.0000
          13892      2592.2000    239541.0000     70951.0000     26847.0000      3429.0000      8559.0000              0             60              0              0              0             40              0           0.00         0.0000
          13893      2120.9000    239541.0000     70951.0000     26847.0000      3429.0000      8559.0000              0             60              0              0              0             40              0           0.00         0.0000
          13894      1554.3500    239541.0000     70951.0000     26847.0000      3429.0000      8559.0000              0             60              0              0              0             40              0           0.00         0.0000
          13895      1119.6500    239541.0000     70951.0000     26847.0000      3429.0000      8559.0000              0             60              0              0              0             40              0           0.00         0.0000
          13896       796.1000    239541.0000     70951.0000     26847.0000      3429.0000      8559.0000              0             60              0              0              0             40              0           0.00         0.0000
          13897       614.7750    239541.0000     70951.0000     26847.0000      3429.0000      8559.0000              0             60              0              0              0             40              0           0.00         0.0000
          13898       487.2000    239541.0000     70951.0000     26847.0000      3429.0000      8559.0000              0             60              0              0              0             40              0           0.00         0.0000
          13899       431.0000    239541.0000     70951.0000     26847.0000      3429.0000      8559.0000              0             60              0              0              0             40              0           0.00         0.0000
          13900       378.5250    239541.0000     70951.0000     26847.0000      3429.0000      8559.0000              0             60              0              0              0             40              0           0.00         0.0000
          13901       343.1000    239541.0000     70951.0000     26847.0000      3429.0000      8559.0000              0             50              0              0              0             50              0           0.00         0.0000
          13902       321.1500    239541.0000     70951.0000     26847.0000      3429.0000      8559.0000              0             50              0              0              0             50              0           0.00         0.0000
          13903       391.3500    239541.0000     70951.0000     26847.0000      3429.0000      8559.0000              0             50              0              0              0             50              0           0.00         0.0000
          13904       642.2500      1503.0000      1036.0000       582.0000         0.0000       228.0000              0             50              0              0              0             50              0           0.00         0.0000
          13905      1069.6000      1503.0000      1036.0000       582.0000         0.0000       228.0000              0             50              0              0              0             50              0           0.00         0.0000
          13906      1477.4000      1503.0000      1036.0000       582.0000         0.0000       228.0000              0             50              0              0              0             50              0           0.00         0.0000
