#___________________________________________________________________________
~VERSION INFORMATION
 VERS.                                 2.0 : CWLS LOG ASCII STANDARD - VERSION 2.0
 WRAP.                                  NO : ONE LINE PER DEPTH STEP
#___________________________________________________________________________
~WELL INFORMATION
 STRT.F                           10285.00 : START DEPTH
 STOP.F                           16074.00 : STOP DEPTH
 STEP.F                                  1 : STEP VALUE
 NULL.                             -999.25 : NULL VALUE
 COMP.      Magnolia Oil & Gas             : COMPANY
 WELL.      Levi Goodrich Unit 2 2H        : WELL
  FLD.      Giddings                       : FIELD
  LOC.      Washington County              : LOCATION
 CNTY.      Washington County              : PARISH/COUNTY
 STAT.      Texas                          : STATE
 CTRY.      USA                            : COUNTRY
" SRVC.      PetroLog International, Inc.   : SERVICE COMPANY"
 DATE.      05/13/2020                     : LOG DATE
  API.      42-477-31134                   : API REFERENCE NUMBER
#___________________________________________________________________________
~CURVE INFORMATION
#MNEM.UNITS                                : DESCRIPTION
DEPTH.F                                    :  1 DEPTH
 TGAS.Units                                :  2 Chromatograph_TotalGas
 MTHX.PPM                                  :  3 Chromatograph_MethanePPMMax
 ETHX.PPM                                  :  4 Chromatograph_EthanePPMMax
 PRPX.PPM                                  :  5 Chromatograph_PropanePPMMax
 IBTX.PPM                                  :  6 Chromatograph_IButanePPMMax
 NBTX.PPM                                  :  7 Chromatograph_NButanePPMMax
CEMNT.%                                    :  8 Lithology_Cement
SHALE.%                                    :  9 Lithology_Shale
SILTST.%                                   : 10 Lithology_Siltstone
 SAND.%                                    : 11 Lithology_Sand
 LIME.%                                    : 12 Lithology_Lime
 CHLK.%                                    : 13 Lithology_Chalk
  ASH.%                                    : 14 Lithology_Ash
 FRAC.%                                    : 15 Lithology_Fracture
#___________________________________________________________________________
~A        DEPTH           TGAS           MTHX           ETHX           PRPX           IBTX           NBTX          CEMNT          SHALE         SILTST           SAND           LIME           CHLK            ASH           FRAC
# ...
          11437      1708.2000     79138.0000     37867.0000     19883.0000      3998.0000      6928.0000              0              0              0              0              0            100              0           0.00
          11438      2225.2750     85507.0000     37867.0000     19883.0000      3998.0000      6928.0000              0              0              0              0              0            100              0           0.00
          11439      2146.5000     85507.0000     34624.0000     17132.0000      3370.0000      6928.0000              0              0              0              0              0            100              0           0.00
          11440      1694.7500     85507.0000     34624.0000     17132.0000      3370.0000      6928.0000              0              0              0              0              0            100              0           0.00
          11441      1427.3500     85507.0000     34624.0000     17132.0000      3370.0000      6928.0000              0              0              0              0              0            100              0           0.00
          11442       962.7500     85507.0000     34624.0000     17132.0000      3370.0000      6928.0000              0              0              0              0              0            100              0           0.00
          11443       968.2500     85507.0000     34624.0000     17132.0000      3370.0000      6928.0000              0              0              0              0              0            100              0           0.00
          11444       816.8500     85507.0000     34624.0000     17132.0000      3370.0000      6928.0000              0              0              0              0              0            100              0           0.00
          11445       796.1000     38307.0000     13403.0000      7455.0000      1701.0000      4054.0000              0              0              0              0              0            100              0           0.00
          11446       830.9000     38307.0000     13403.0000      7455.0000      1701.0000      4054.0000              0              0              0              0              0            100              0           0.00
          11447       975.6000     38307.0000     13403.0000      7455.0000      1701.0000      4054.0000              0              0              0              0              0            100              0           0.00
          11448      1125.7500     38307.0000     13403.0000      7455.0000      1701.0000      4054.0000              0              0              0              0              0            100              0           0.00
          11449      1340.6500     38307.0000     13403.0000      7455.0000      1701.0000      4054.0000              0              0              0              0              0            100              0           0.00
          11450      1611.7250     38307.0000     13403.0000      7455.0000      1701.0000      4054.0000              0              0              0              0              0            100              0           0.00
          11451      1836.4000     38307.0000     13403.0000      7455.0000      1701.0000      4054.0000              0              0              0              0              0            100              0           0.00
          11452      1908.4500     38307.0000     13403.0000      7455.0000      1701.0000      4054.0000              0              0              0              0              0            100              0           0.00
          11453      1970.7000     38307.0000     13403.0000      7455.0000      1701.0000      4054.0000              0              0              0              0              0            100              0           0.00
          11454      1971.9000     38307.0000     13403.0000      7455.0000      1701.0000      4054.0000              0              0              0              0              0            100              0           0.00
          11455      1937.7250     38307.0000     13403.0000      7455.0000      1701.0000      4054.0000              0              0              0              0              0            100              0           0.00
          11456      1863.8750     38307.0000     13403.0000      7455.0000      1701.0000      4054.0000              0              0              0              0              0            100              0           0.00
          11457      1782.6750     38307.0000     13403.0000      7455.0000      1701.0000      4054.0000              0              0              0              0              0            100              0           0.00
          11458      1698.4000     38307.0000     13403.0000      7455.0000      1701.0000      4054.0000              0              0              0              0              0            100              0           0.00
          11459      1650.8000     38307.0000     13403.0000      7455.0000      1701.0000      4054.0000              0              0              0              0              0            100              0           0.00
          11460      1600.7500     38307.0000     13403.0000      7455.0000      1701.0000      4054.0000              0              0              0              0              0            100              0           0.00
          11461      1576.3000     38307.0000     13403.0000      7455.0000      1701.0000      4054.0000              0              0              0              0              0            100              0           0.00
          11462      1600.1250     38307.0000     13403.0000      7455.0000      1701.0000      4054.0000              0              0              0              0              0            100              0           0.00
          11463      1604.4000     38307.0000     13403.0000      7455.0000      1701.0000      4054.0000              0              0              0              0              0            100              0           0.00
          11464      1600.7500     86008.0000     29653.0000     14573.0000      2896.0000      6182.0000              0              0              0              0              0            100              0           0.00
          11465      1607.4500     86008.0000     29653.0000     14573.0000      2896.0000      6182.0000              0              0              0              0              0            100              0           0.00
          11466      1569.0000     86008.0000     29653.0000     14573.0000      2896.0000      6182.0000              0              0              0              0              0            100              0           0.00
          11467      1551.2750     86008.0000     29653.0000     14573.0000      2896.0000      6182.0000              0              0              0              0              0            100              0           0.00
          11468      1525.6500     86008.0000     29653.0000     14573.0000      2896.0000      6182.0000              0              0              0              0              0            100              0           0.00
          11469      1474.9500     86008.0000     29653.0000     14573.0000      2896.0000      6182.0000              0              0              0              0              0            100              0           0.00
          11470      1471.3000     86008.0000     29653.0000     14573.0000      2896.0000      6182.0000              0              0              0              0              0            100              0           0.00
          11471      1465.2000     86008.0000     29653.0000     14573.0000      2896.0000      6182.0000              0              0              0              0              0            100              0           0.00
          11472      1456.6500     86008.0000     29653.0000     14573.0000      2896.0000      6182.0000              0              0              0              0              0            100              0           0.00
