#___________________________________________________________________________
~VERSION INFORMATION
 VERS.                                 2.0 : CWLS LOG ASCII STANDARD - VERSION 2.0
 WRAP.                                  NO : ONE LINE PER DEPTH STEP
#___________________________________________________________________________
~WELL INFORMATION
 STRT.F                           10285.00 : START DEPTH
 STOP.F                           16074.00 : STOP DEPTH
 STEP.F                                  1 : STEP VALUE
 NULL.                             -999.25 : NULL VALUE
 COMP.      Magnolia Oil & Gas             : COMPANY
 WELL.      Levi Goodrich Unit 2 2H        : WELL
  FLD.      Giddings                       : FIELD
  LOC.      Washington County              : LOCATION
 CNTY.      Washington County              : PARISH/COUNTY
 STAT.      Texas                          : STATE
 CTRY.      USA                            : COUNTRY
" SRVC.      PetroLog International, Inc.   : SERVICE COMPANY"
 DATE.      05/13/2020                     : LOG DATE
  API.      42-477-31134                   : API REFERENCE NUMBER
#___________________________________________________________________________
~CURVE INFORMATION
#MNEM.UNITS                                : DESCRIPTION
DEPTH.F                                    :  1 DEPTH
 TGAS.Units                                :  2 Chromatograph_TotalGas
 MTHX.PPM                                  :  3 Chromatograph_MethanePPMMax
 ETHX.PPM                                  :  4 Chromatograph_EthanePPMMax
 PRPX.PPM                                  :  5 Chromatograph_PropanePPMMax
 IBTX.PPM                                  :  6 Chromatograph_IButanePPMMax
 NBTX.PPM                                  :  7 Chromatograph_NButanePPMMax
CEMNT.%                                    :  8 Lithology_Cement
SHALE.%                                    :  9 Lithology_Shale
SILTST.%                                   : 10 Lithology_Siltstone
 SAND.%                                    : 11 Lithology_Sand
 LIME.%                                    : 12 Lithology_Lime
 CHLK.%                                    : 13 Lithology_Chalk
  ASH.%                                    : 14 Lithology_Ash
 FRAC.%                                    : 15 Lithology_Fracture
#___________________________________________________________________________
~A        DEPTH           TGAS           MTHX           ETHX           PRPX           IBTX           NBTX          CEMNT          SHALE         SILTST           SAND           LIME           CHLK            ASH           FRAC
# ...
          15289      1956.0500     84117.0000     46035.0000     21985.0000      3726.0000      7576.0000              0              0              0              0              0            100              0           0.00
          15290      1974.9750    109041.0000     54150.0000     24579.0000      4080.0000      8208.0000              0              0              0              0              0            100              0           0.00
          15291      1965.8000    109041.0000     54150.0000     24579.0000      4080.0000      8208.0000              0              0              0              0              0            100              0           0.00
          15292      1950.5500    109041.0000     54150.0000     24579.0000      4080.0000      8208.0000              0              0              0              0              0            100              0           0.00
          15293      1893.8000    109041.0000     54150.0000     24579.0000      4080.0000      8208.0000              0              0              0              0              0            100              0           0.00
          15294      1886.4500    109041.0000     54150.0000     24579.0000      4080.0000      8208.0000              0              0              0              0              0            100              0           0.00
          15295      1896.8250    109041.0000     54150.0000     24579.0000      4080.0000      8208.0000              0              0              0              0              0            100              0           0.00
          15296      1904.7750    109041.0000     54150.0000     24579.0000      4080.0000      8208.0000              0              0              0              0              0            100              0           0.00
          15297      1905.3750    109041.0000     54150.0000     24579.0000      4080.0000      8208.0000              0              0              0              0              0            100              0           0.00
          15298      1960.9500    109041.0000     54150.0000     24579.0000      4080.0000      8208.0000              0              0              0              0              0            100              0           0.00
          15299      1993.9000    109041.0000     54150.0000     24579.0000      4080.0000      8208.0000              0              0              0              0              0            100              0           0.00
          15300      1995.1000    109041.0000     54150.0000     24579.0000      4080.0000      8208.0000              0              0              0              0              0            100              0           0.00
          15301      1984.7500    109041.0000     54150.0000     24579.0000      4080.0000      8208.0000              0              0              0              0              0            100              0           0.00
          15302      2052.5000    109041.0000     54150.0000     24579.0000      4080.0000      8208.0000              0              0              0              0              0            100              0           0.00
          15303      2103.8000    109041.0000     54150.0000     24579.0000      4080.0000      8208.0000              0              0              0              0              0            100              0           0.00
          15304      2138.6000    109041.0000     54150.0000     24579.0000      4080.0000      8208.0000              0              0              0              0              0            100              0           0.00
          15305      2186.8000    109041.0000     54150.0000     24579.0000      4080.0000      8208.0000              0              0              0              0              0            100              0           0.00
          15306      2198.4250    109041.0000     54150.0000     24579.0000      4080.0000      8208.0000              0              0              0              0              0            100              0           0.00
          15307      2188.0500    109041.0000     54150.0000     24579.0000      4080.0000      8208.0000              0              0              0              0              0            100              0           0.00
          15308      2188.6500    109041.0000     54150.0000     24579.0000      4080.0000      8208.0000              0              0              0              0              0            100              0           0.00
          15309      2157.5000    109041.0000     54150.0000     24579.0000      4080.0000      8208.0000              0              0              0              0              0            100              0           0.00
          15310      2138.0000    112232.0000     58060.0000     28205.0000      4637.0000      9488.0000              0              0              0              0              0            100              0           0.00
          15311      2251.5250    110348.0000     57729.0000     28077.0000      4778.0000      9582.0000              0              0              0              0              0            100              0           0.00
          15312      2501.8250    110348.0000     57729.0000     28077.0000      4778.0000      9582.0000              0              0              0              0              0            100              0           0.00
          15313      2603.8000    110348.0000     57729.0000     28077.0000      4778.0000      9582.0000              0              0              0              0              0            100              0           0.00
          15314      2569.0000    110348.0000     57729.0000     28077.0000      4778.0000      9582.0000              0              0              0              0              0            100              0           0.00
          15315      1352.2500    110348.0000     57729.0000     28077.0000      4778.0000      9582.0000              0              0              0              0              0            100              0           0.00
          15316      1631.2500    110348.0000     57729.0000     28077.0000      4778.0000      9582.0000              0              0              0              0              0            100              0           0.00
          15317      1854.7000    110348.0000     57729.0000     28077.0000      4778.0000      9582.0000              0              0              0              0              0            100              0           0.00
          15318      1968.8750    110348.0000     57729.0000     28077.0000      4778.0000      9582.0000              0              0              0              0              0            100              0           0.00
          15319      2028.1000    110348.0000     57729.0000     28077.0000      4778.0000      9582.0000              0              0              0              0              0            100              0           0.00
          15320      2030.5500    110348.0000     57729.0000     28077.0000      4778.0000      9582.0000              0              0              0              0              0            100              0           0.00
          15321      2050.6750    110348.0000     57729.0000     28077.0000      4778.0000      9582.0000              0              0              0              0              0            100              0           0.00
          15322      2174.6000    110348.0000     57729.0000     28077.0000      4778.0000      9582.0000              0              0              0              0              0            100              0           0.00
          15323      2590.9500    139442.0000     72280.0000     32261.0000      5085.0000      9488.0000              0              0              0              0              0            100              0           0.00
          15324      2782.6500    139442.0000     72280.0000     32261.0000      5085.0000      9442.0000              0              0              0              0              0            100              0           0.00
