#___________________________________________________________________________
~VERSION INFORMATION
 VERS.                                 2.0 : CWLS LOG ASCII STANDARD - VERSION 2.0
 WRAP.                                  NO : ONE LINE PER DEPTH STEP
#___________________________________________________________________________
~WELL INFORMATION
 STRT.F                           10245.00 : START DEPTH
 STOP.F                           18039.00 : STOP DEPTH
 STEP.F                                  1 : STEP VALUE
 NULL.                             -999.25 : NULL VALUE
 COMP.      Magnolia Oil & Gas             : COMPANY
 WELL.      Levi Goodrich Unit 2 3H        : WELL
  FLD.      Giddings                       : FIELD
  LOC.      Washington County              : LOCATION
 CNTY.      Washington County              : PARISH/COUNTY
 STAT.      Texas                          : STATE
 CTRY.      USA                            : COUNTRY
" SRVC.      PetroLog International, Inc.   : SERVICE COMPANY"
 DATE.      06/07/2020                     : LOG DATE
  API.      42-477-31135                   : API REFERENCE NUMBER
#___________________________________________________________________________
~CURVE INFORMATION
#MNEM.UNITS                                : DESCRIPTION
DEPTH.F                                    :  1 DEPTH
 TGAS.Units                                :  2 Chromatograph_TotalGas
 MTHX.PPM                                  :  3 Chromatograph_MethanePPMMax
 ETHX.PPM                                  :  4 Chromatograph_EthanePPMMax
 PRPX.PPM                                  :  5 Chromatograph_PropanePPMMax
 IBTX.PPM                                  :  6 Chromatograph_IButanePPMMax
 NBTX.PPM                                  :  7 Chromatograph_NButanePPMMax
CEMNT.%                                    :  8 Lithology_Cement
SHALE.%                                    :  9 Lithology_Shale
SILTST.%                                   : 10 Lithology_Siltstone
 SAND.%                                    : 11 Lithology_Sand
 LIME.%                                    : 12 Lithology_Lime
 CHLK.%                                    : 13 Lithology_Chalk
  ASH.%                                    : 14 Lithology_Ash
 FRAC.%                                    : 15 Fracture
Kick/Loss.----                             : 16 Kick/Loss
#___________________________________________________________________________
~A        DEPTH           TGAS           MTHX           ETHX           PRPX           IBTX           NBTX          CEMNT          SHALE         SILTST           SAND           LIME           CHLK            ASH           FRAC      Kick/Loss
# ...
          17997      2723.4500     69000.0000     49852.0000     37297.0000      7209.0000     17207.0000              0              0              0              0              0            100              0           2.00        -1.0000
          17998      2706.9500     86723.0000     56492.0000     38213.0000      7209.0000     17207.0000              0              0              0              0              0            100              0           2.00        -1.0000
          17999      2681.3250     86723.0000     56492.0000     38213.0000      7208.0000     16915.0000              0              0              0              0              0            100              0           2.00        -1.0000
          18000      2752.1500     86723.0000     56492.0000     38213.0000      7208.0000     16915.0000              0              0              0              0              0            100              0           2.00        -1.0000
          18001      2923.1000     86723.0000     56492.0000     38213.0000      7208.0000     16915.0000              0              0              0              0              0            100              0           2.00        -1.0000
          18002      2926.7500     86723.0000     56492.0000     38213.0000      7208.0000     16915.0000              0              0              0              0              0            100              0           2.00        -1.0000
          18003      2932.8500     86723.0000     56492.0000     38213.0000      7208.0000     16915.0000              0              0              0              0              0            100              0           2.00        -1.0000
          18004      2930.4250     86723.0000     56492.0000     38213.0000      7208.0000     16915.0000              0              0              0              0              0            100              0           2.00        -1.0000
          18005      2945.0750     86723.0000     56492.0000     38213.0000      7208.0000     16915.0000              0              0              0              0              0            100              0           2.00        -1.0000
          18006      2962.1500     86723.0000     56492.0000     38213.0000      7208.0000     16915.0000              0              0              0              0              0            100              0           2.00        -1.0000
          18007      2948.7000     86723.0000     56492.0000     38213.0000      7208.0000     16915.0000              0              0              0              0              0            100              0           2.00        -1.0000
          18008      2871.8000     86723.0000     56492.0000     38213.0000      7208.0000     16915.0000              0              0              0              0              0            100              0           2.00        -1.0000
          18009      2975.6000    110416.0000     67791.0000     43714.0000      7955.0000     18155.0000              0              0              0              0              0            100              0           2.00        -1.0000
          18010      3011.0000    110416.0000     67791.0000     43714.0000      7955.0000     18155.0000              0              0              0              0              0            100              0           2.00        -1.0000
          18011      3013.4500    110416.0000     67791.0000     43714.0000      7955.0000     18155.0000              0              0              0              0              0            100              0           2.00        -1.0000
          18012      2931.6250    110416.0000     67791.0000     43714.0000      7955.0000     18155.0000              0              0              0              0              0            100              0           2.00        -1.0000
          18013      2956.0500    110416.0000     67791.0000     43714.0000      7955.0000     18155.0000              0              0              0              0              0            100              0           2.00        -1.0000
          18014      3026.8750    110416.0000     67791.0000     43714.0000      7955.0000     18155.0000              0              0              0              0              0            100              0           2.00        -1.0000
          18015      3097.7000    110416.0000     67791.0000     43714.0000      7955.0000     18155.0000              0              0              0              0              0            100              0           2.00        -1.0000
          18016      3158.1250    110416.0000     67791.0000     43714.0000      7955.0000     18155.0000              0              0              0              0              0            100              0           2.00        -1.0000
          18017      3188.6500    110416.0000     67791.0000     43714.0000      7955.0000     18155.0000              0              0              0              0              0            100              0           2.00        -1.0000
          18018      3177.0500    110416.0000     67791.0000     43714.0000      7955.0000     18155.0000              0              0              0              0              0            100              0           2.00        -1.0000
          18019      3198.4250    110416.0000     67791.0000     43714.0000      7955.0000     18155.0000              0              0              0              0              0            100              0           2.00        -1.0000
          18020      3388.8750    127960.0000     77559.0000     50064.0000      9112.0000     20764.0000              0              0              0              0              0            100              0           2.00        -1.0000
          18021      3611.7000    127960.0000     77559.0000     50064.0000      9112.0000     20764.0000              0              0              0              0              0            100              0           2.00        -1.0000
          18022      3715.5000    127960.0000     77559.0000     50064.0000      9112.0000     20764.0000              0              0              0              0              0            100              0           2.00        -1.0000
          18023      3904.7500    127960.0000     77559.0000     50064.0000      9112.0000     20764.0000              0              0              0              0              0            100              0           2.00        -1.0000
          18024      4053.7500    127960.0000     77559.0000     50064.0000      9112.0000     20764.0000              0              0              0              0              0            100              0           2.00        -1.0000
          18025      4053.7500    127960.0000     77559.0000     50064.0000      9112.0000     20764.0000              0              0              0              0              0            100              0           2.00        -1.0000
          18026      3937.7500    127960.0000     77559.0000     50064.0000      9112.0000     20764.0000              0              0              0              0              0            100              0           2.00        -1.0000
          18027      3317.4500    127960.0000     77559.0000     50064.0000      9112.0000     20764.0000              0              0              0              0              0            100              0           2.00        -1.0000
          18028      2940.8000    127960.0000     77559.0000     50064.0000      9112.0000     20764.0000              0              0              0              0              0            100              0           2.00        -1.0000
          18029      2434.7000    127960.0000     77559.0000     50064.0000      9112.0000     20764.0000              0              0              0              0              0            100              0           2.00        -1.0000
          18030      3595.8750    127960.0000     77559.0000     50064.0000      9112.0000     20764.0000              0              0              0              0              0            100              0           2.00        -1.0000
