#___________________________________________________________________________
~VERSION INFORMATION
 VERS.                                 2.0 : CWLS LOG ASCII STANDARD - VERSION 2.0
 WRAP.                                  NO : ONE LINE PER DEPTH STEP
#___________________________________________________________________________
~WELL INFORMATION
 STRT.F                           10285.00 : START DEPTH
 STOP.F                           16074.00 : STOP DEPTH
 STEP.F                                  1 : STEP VALUE
 NULL.                             -999.25 : NULL VALUE
 COMP.      Magnolia Oil & Gas             : COMPANY
 WELL.      Levi Goodrich Unit 2 2H        : WELL
  FLD.      Giddings                       : FIELD
  LOC.      Washington County              : LOCATION
 CNTY.      Washington County              : PARISH/COUNTY
 STAT.      Texas                          : STATE
 CTRY.      USA                            : COUNTRY
" SRVC.      PetroLog International, Inc.   : SERVICE COMPANY"
 DATE.      05/13/2020                     : LOG DATE
  API.      42-477-31134                   : API REFERENCE NUMBER
#___________________________________________________________________________
~CURVE INFORMATION
#MNEM.UNITS                                : DESCRIPTION
DEPTH.F                                    :  1 DEPTH
 TGAS.Units                                :  2 Chromatograph_TotalGas
 MTHX.PPM                                  :  3 Chromatograph_MethanePPMMax
 ETHX.PPM                                  :  4 Chromatograph_EthanePPMMax
 PRPX.PPM                                  :  5 Chromatograph_PropanePPMMax
 IBTX.PPM                                  :  6 Chromatograph_IButanePPMMax
 NBTX.PPM                                  :  7 Chromatograph_NButanePPMMax
CEMNT.%                                    :  8 Lithology_Cement
SHALE.%                                    :  9 Lithology_Shale
SILTST.%                                   : 10 Lithology_Siltstone
 SAND.%                                    : 11 Lithology_Sand
 LIME.%                                    : 12 Lithology_Lime
 CHLK.%                                    : 13 Lithology_Chalk
  ASH.%                                    : 14 Lithology_Ash
 FRAC.%                                    : 15 Lithology_Fracture
#___________________________________________________________________________
~A        DEPTH           TGAS           MTHX           ETHX           PRPX           IBTX           NBTX          CEMNT          SHALE         SILTST           SAND           LIME           CHLK            ASH           FRAC
          10285        32.9500      1276.0000         0.0000         0.0000         0.0000         0.0000              0              0              0              0              0            100              0           0.00
          10286        31.7500      1276.0000         0.0000         0.0000         0.0000         0.0000              0              0              0              0              0            100              0           0.00
          10287        32.3500      1276.0000         0.0000         0.0000         0.0000         0.0000              0              0              0              0              0            100              0           0.00
          10288        32.3500      1276.0000         0.0000         0.0000         0.0000         0.0000              0              0              0              0              0            100              0           0.00
          10289        30.5500      1276.0000         0.0000         0.0000         0.0000         0.0000              0              0              0              0              0            100              0           0.00
          10290        31.7500      1276.0000         0.0000         0.0000         0.0000         0.0000              0              0              0              0              0            100              0           0.00
          10291        30.5500      1276.0000         0.0000         0.0000         0.0000         0.0000              0              0              0              0              0            100              0           0.00
          10292        29.3000      1172.0000         0.0000         0.0000         0.0000         0.0000              0              0              0              0              0            100              0           0.00
          10293        27.0000      1172.0000         0.0000         0.0000         0.0000         0.0000              0              0              0              0              0            100              0           0.00
          10294        26.0000      1172.0000         0.0000         0.0000         0.0000         0.0000              0              0              0              0              0            100              0           0.00
          10295        24.4000      1172.0000         0.0000         0.0000         0.0000         0.0000              0              0              0              0              0            100              0           0.00
          10296        21.0000         0.0000         0.0000         0.0000         0.0000         0.0000              0              0              0              0              0            100              0           0.00
          10297        23.0000         0.0000         0.0000         0.0000         0.0000         0.0000              0              0              0              0              0            100              0           0.00
          10298        22.0000         0.0000         0.0000         0.0000         0.0000         0.0000              0              0              0              0              0            100              0           0.00
          10299        22.0000         0.0000         0.0000         0.0000         0.0000         0.0000              0              0              0              0              0            100              0           0.00
          10300        22.0000         0.0000         0.0000         0.0000         0.0000         0.0000              0              0              0              0              0            100              0           0.00
          10301        21.3750         0.0000         0.0000         0.0000         0.0000         0.0000              0              0              0              0              0            100              0           0.00
          10302        22.0000         0.0000         0.0000         0.0000         0.0000         0.0000              0              0              0              0              0            100              0           0.00
          10303        23.2000       203.0000         0.0000         0.0000         0.0000         0.0000              0              0              0              0              0            100              0           0.00
          10304        23.2000       203.0000         0.0000         0.0000         0.0000         0.0000              0              0              0              0              0            100              0           0.00
          10305        23.2000       203.0000         0.0000         0.0000         0.0000         0.0000              0              0              0              0              0            100              0           0.00
          10306        23.2000       203.0000         0.0000         0.0000         0.0000         0.0000              0              0              0              0              0            100              0           0.00
          10307        24.4000       266.0000         0.0000         0.0000         0.0000         0.0000              0              0              0              0              0            100              0           0.00
          10308        23.8000       266.0000         0.0000         0.0000         0.0000         0.0000              0              0              0              0              0            100              0           0.00
          10309        24.4000       266.0000         0.0000         0.0000         0.0000         0.0000              0              0              0              0              0            100              0           0.00
          10310        24.4000       266.0000         0.0000         0.0000         0.0000         0.0000              0              0              0              0              0            100              0           0.00
          10311        24.4000       266.0000         0.0000         0.0000         0.0000         0.0000              0              0              0              0              0            100              0           0.00
          10312        24.4000       279.0000         0.0000         0.0000         0.0000         0.0000              0              0              0              0              0            100              0           0.00
          10313        23.8000       279.0000         0.0000         0.0000         0.0000         0.0000              0              0              0              0              0            100              0           0.00
          10314        24.4000       279.0000         0.0000         0.0000         0.0000         0.0000              0              0              0              0              0            100              0           0.00
          10315        23.8000       279.0000         0.0000         0.0000         0.0000         0.0000              0              0              0              0              0            100              0           0.00
          10316        24.4000       279.0000         0.0000         0.0000         0.0000         0.0000              0              0              0              0              0            100              0           0.00
          10317        25.0250       376.0000         0.0000         0.0000         0.0000         0.0000              0              0              0              0              0            100              0           0.00
          10318        25.6500       376.0000         0.0000         0.0000         0.0000         0.0000              0              0              0              0              0            100              0           0.00
          10319        25.6500       376.0000         0.0000         0.0000         0.0000         0.0000              0              0              0              0              0            100              0           0.00
          10320        26.8500       376.0000         0.0000         0.0000         0.0000         0.0000              0              0              0              0              0            100              0           0.00
