#___________________________________________________________________________
~VERSION INFORMATION
 VERS.                                 2.0 : CWLS LOG ASCII STANDARD - VERSION 2.0
 WRAP.                                  NO : ONE LINE PER DEPTH STEP
#___________________________________________________________________________
~WELL INFORMATION
 STRT.F                           10245.00 : START DEPTH
 STOP.F                           18039.00 : STOP DEPTH
 STEP.F                                  1 : STEP VALUE
 NULL.                             -999.25 : NULL VALUE
 COMP.      Magnolia Oil & Gas             : COMPANY
 WELL.      Levi Goodrich Unit 2 3H        : WELL
  FLD.      Giddings                       : FIELD
  LOC.      Washington County              : LOCATION
 CNTY.      Washington County              : PARISH/COUNTY
 STAT.      Texas                          : STATE
 CTRY.      USA                            : COUNTRY
" SRVC.      PetroLog International, Inc.   : SERVICE COMPANY"
 DATE.      06/07/2020                     : LOG DATE
  API.      42-477-31135                   : API REFERENCE NUMBER
#___________________________________________________________________________
~CURVE INFORMATION
#MNEM.UNITS                                : DESCRIPTION
DEPTH.F                                    :  1 DEPTH
 TGAS.Units                                :  2 Chromatograph_TotalGas
 MTHX.PPM                                  :  3 Chromatograph_MethanePPMMax
 ETHX.PPM                                  :  4 Chromatograph_EthanePPMMax
 PRPX.PPM                                  :  5 Chromatograph_PropanePPMMax
 IBTX.PPM                                  :  6 Chromatograph_IButanePPMMax
 NBTX.PPM                                  :  7 Chromatograph_NButanePPMMax
CEMNT.%                                    :  8 Lithology_Cement
SHALE.%                                    :  9 Lithology_Shale
SILTST.%                                   : 10 Lithology_Siltstone
 SAND.%                                    : 11 Lithology_Sand
 LIME.%                                    : 12 Lithology_Lime
 CHLK.%                                    : 13 Lithology_Chalk
  ASH.%                                    : 14 Lithology_Ash
 FRAC.%                                    : 15 Fracture
Kick/Loss.----                             : 16 Kick/Loss
#___________________________________________________________________________
~A        DEPTH           TGAS           MTHX           ETHX           PRPX           IBTX           NBTX          CEMNT          SHALE         SILTST           SAND           LIME           CHLK            ASH           FRAC      Kick/Loss
# ...
          11265       962.1500     92360.0000     24647.0000      9064.0000      1065.0000      2034.0000              0              0              0              0              0            100              0           0.00         0.0000
          11266       529.3000     92360.0000     24647.0000      9064.0000      1065.0000      2034.0000              0              0              0              0              0            100              0           0.00         0.0000
          11267       851.0250     92360.0000     24647.0000      9064.0000      1065.0000      2034.0000              0              0              0              0              0            100              0           0.00         0.0000
          11268       907.2000     92360.0000     24647.0000      9064.0000      1065.0000      2034.0000              0              0              0              0              0            100              0           0.00         0.0000
          11269       905.3750     92360.0000     24647.0000      9064.0000      1065.0000      2034.0000              0              0              0              0              0            100              0           0.00         0.0000
          11270       912.7000     92360.0000     24647.0000      9064.0000      1065.0000      2034.0000              0              0              0              0              0            100              0           0.00         0.0000
          11271       938.9500     92360.0000     24647.0000      9064.0000      1065.0000      2034.0000              0              0              0              0              0            100              0           0.00         0.0000
          11272       956.0500     92360.0000     24647.0000      9064.0000      1065.0000      2034.0000              0              0              0              0              0            100              0           0.00         0.0000
          11273       973.1500     92360.0000     24647.0000      9064.0000      1065.0000      2034.0000              0              0              0              0              0            100              0           0.00         0.0000
          11274       997.5500     92360.0000     24647.0000      9064.0000      1065.0000      2034.0000              0              0              0              0              0            100              0           0.00         0.0000
          11275      1001.2000     98523.0000     24647.0000      9064.0000      1065.0000      2034.0000              0              0              0              0              0            100              0           0.00         0.0000
          11276      1008.5500     98523.0000     23646.0000      7934.0000       875.0000      1685.0000              0              0              0              0              0            100              0           0.00         0.0000
          11277      1014.6500     98523.0000     23646.0000      7934.0000       875.0000      1685.0000              0              0              0              0              0            100              0           0.00         0.0000
          11278      1061.0500     98523.0000     23646.0000      7934.0000       875.0000      1685.0000              0              0              0              0              0            100              0           0.00         0.0000
          11279      1170.9500     98523.0000     23646.0000      7934.0000       875.0000      1685.0000              0              0              0              0              0            100              0           0.00         0.0000
          11280      1253.9500     98523.0000     23646.0000      7934.0000       875.0000      1685.0000              0              0              0              0              0            100              0           0.00         0.0000
          11281      1343.1000     98523.0000     23646.0000      7934.0000       875.0000      1685.0000              0              0              0              0              0            100              0           0.00         0.0000
          11282      1393.1500     98523.0000     23646.0000      7934.0000       875.0000      1685.0000              0              0              0              0              0            100              0           0.00         0.0000
          11283      1421.2500     98523.0000     23646.0000      7934.0000       875.0000      1685.0000              0              0              0              0              0            100              0           0.00         0.0000
          11284      1431.0000     98523.0000     23646.0000      7934.0000       875.0000      1685.0000              0              0              0              0              0            100              0           0.00         0.0000
          11285      1429.8000     98523.0000     23646.0000      7934.0000       875.0000      1685.0000              0              0              0              0              0            100              0           0.00         0.0000
          11286      1374.2250     98523.0000     23646.0000      7934.0000       875.0000      1685.0000              0              0              0              0              0            100              0           0.00         0.0000
          11287      1144.6750    109638.0000     23646.0000      7934.0000       875.0000      1713.0000              0              0              0              0              0            100              0           0.00         0.0000
          11288       730.1500    109638.0000     22505.0000      7319.0000       836.0000      1713.0000              0              0              0              0              0            100              0           0.00         0.0000
          11289       444.4500    109638.0000     22505.0000      7319.0000       836.0000      1713.0000              0              0              0              0              0            100              0           0.00         0.0000
          11290       257.6250    109638.0000     22505.0000      7319.0000       836.0000      1713.0000              0              0              0              0              0            100              0           0.00         0.0000
          11291       177.6500    109638.0000     22505.0000      7319.0000       836.0000      1713.0000              0              0              0              0              0            100              0           0.00         0.0000
          11292       142.2500    109638.0000     22505.0000      7319.0000       836.0000      1713.0000              0              0              0              0              0            100              0           0.00         0.0000
          11293       373.0250    109638.0000     22505.0000      7319.0000       836.0000      1713.0000              0              0              0              0              0            100              0           0.00         0.0000
          11294       703.3000    109638.0000     22505.0000      7319.0000       836.0000      1713.0000              0              0              0              0              0            100              0           0.00         0.0000
          11295       896.2250    109638.0000     22505.0000      7319.0000       836.0000      1713.0000              0              0              0              0              0            100              0           0.00         0.0000
          11296      1078.1500    109638.0000     22505.0000      7319.0000       836.0000      1713.0000              0              0              0              0              0            100              0           0.00         0.0000
          11297      1202.6750    109638.0000     22505.0000      7319.0000       836.0000      1713.0000              0              0              0              0              0            100              0           0.00         0.0000
          11298      1280.8500    109638.0000     22505.0000      7319.0000       836.0000      1713.0000              0              0              0              0              0            100              0           0.00         0.0000
