#___________________________________________________________________________
~VERSION INFORMATION
 VERS.                                 2.0 : CWLS LOG ASCII STANDARD - VERSION 2.0
 WRAP.                                  NO : ONE LINE PER DEPTH STEP
#___________________________________________________________________________
~WELL INFORMATION
 STRT.F                           10245.00 : START DEPTH
 STOP.F                           18039.00 : STOP DEPTH
 STEP.F                                  1 : STEP VALUE
 NULL.                             -999.25 : NULL VALUE
 COMP.      Magnolia Oil & Gas             : COMPANY
 WELL.      Levi Goodrich Unit 2 3H        : WELL
  FLD.      Giddings                       : FIELD
  LOC.      Washington County              : LOCATION
 CNTY.      Washington County              : PARISH/COUNTY
 STAT.      Texas                          : STATE
 CTRY.      USA                            : COUNTRY
" SRVC.      PetroLog International, Inc.   : SERVICE COMPANY"
 DATE.      06/07/2020                     : LOG DATE
  API.      42-477-31135                   : API REFERENCE NUMBER
#___________________________________________________________________________
~CURVE INFORMATION
#MNEM.UNITS                                : DESCRIPTION
DEPTH.F                                    :  1 DEPTH
 TGAS.Units                                :  2 Chromatograph_TotalGas
 MTHX.PPM                                  :  3 Chromatograph_MethanePPMMax
 ETHX.PPM                                  :  4 Chromatograph_EthanePPMMax
 PRPX.PPM                                  :  5 Chromatograph_PropanePPMMax
 IBTX.PPM                                  :  6 Chromatograph_IButanePPMMax
 NBTX.PPM                                  :  7 Chromatograph_NButanePPMMax
CEMNT.%                                    :  8 Lithology_Cement
SHALE.%                                    :  9 Lithology_Shale
SILTST.%                                   : 10 Lithology_Siltstone
 SAND.%                                    : 11 Lithology_Sand
 LIME.%                                    : 12 Lithology_Lime
 CHLK.%                                    : 13 Lithology_Chalk
  ASH.%                                    : 14 Lithology_Ash
 FRAC.%                                    : 15 Fracture
Kick/Loss.----                             : 16 Kick/Loss
#___________________________________________________________________________
~A        DEPTH           TGAS           MTHX           ETHX           PRPX           IBTX           NBTX          CEMNT          SHALE         SILTST           SAND           LIME           CHLK            ASH           FRAC      Kick/Loss
# ...
          13339       835.1500    106402.0000     13804.0000      3533.0000       280.0000       626.0000              0              0              0              0              0            100              0           0.00         0.0000
          13340       847.4000    112104.0000     14210.0000      3677.0000       280.0000       626.0000              0              0              0              0              0            100              0           0.00         0.0000
          13341       832.1250    112104.0000     14210.0000      3677.0000       272.0000       625.0000              0              0              0              0              0            100              0           0.00         0.0000
          13342       832.7500    112104.0000     14352.0000      3830.0000       272.0000       684.0000              0              0              0              0              0            100              0           0.00         0.0000
          13343       837.0000    110535.0000     14352.0000      3830.0000       150.0000       684.0000              0              0              0              0              0            100              0           0.00         0.0000
          13344       855.9000    110535.0000     14352.0000      3830.0000       150.0000       684.0000              0              0              0              0              0            100              0           0.00         0.0000
          13345       865.7000    111290.0000     14544.0000      3951.0000       197.0000       715.0000              0              0              0              0              0            100              0           0.00         0.0000
          13346       622.7000    111290.0000     14544.0000      3951.0000       197.0000       715.0000              0              0              0              0              0            100              0           0.00         0.0000
          13347       783.2750    111290.0000     14544.0000      3951.0000       197.0000       715.0000              0              0              0              0              0            100              0           0.00         0.0000
          13348       768.0250     74771.0000     10964.0000      3173.0000       167.0000       510.0000              0              0              0              0              0            100              0           0.00         0.0000
          13349       778.4000     74771.0000     10964.0000      3173.0000       167.0000       510.0000              0              0              0              0              0            100              0           0.00         0.0000
          13350       790.0000     74771.0000     10964.0000      3173.0000       167.0000       510.0000              0              0              0              0              0            100              0           0.00         0.0000
          13351       800.3750     74771.0000     10964.0000      3173.0000       167.0000       510.0000              0              0              0              0              0            100              0           0.00         0.0000
          13352       805.2500     74771.0000     10964.0000      3173.0000       167.0000       510.0000              0              0              0              0              0            100              0           0.00         0.0000
          13353       804.0250     74771.0000     10964.0000      3173.0000       167.0000       510.0000              0              0              0              0              0            100              0           0.00         0.0000
          13354       801.0000    100649.0000     13132.0000      3596.0000       278.0000       610.0000              0              0              0              0              0            100              0           0.00         0.0000
          13355       794.8500    100649.0000     13132.0000      3596.0000       278.0000       610.0000              0              0              0              0              0            100              0           0.00         0.0000
          13356       797.3000    100649.0000     13132.0000      3596.0000       278.0000       610.0000              0              0              0              0              0            100              0           0.00         0.0000
          13357       794.8500    100649.0000     13132.0000      3596.0000       278.0000       610.0000              0              0              0              0              0            100              0           0.00         0.0000
          13358       785.1000    100649.0000     13132.0000      3596.0000       278.0000       610.0000              0              0              0              0              0            100              0           0.00         0.0000
          13359       793.6500    100649.0000     13132.0000      3596.0000       278.0000       610.0000              0              0              0              0              0            100              0           0.00         0.0000
          13360       811.9500    100649.0000     13132.0000      3596.0000       278.0000       610.0000              0              0              0              0              0            100              0           0.00         0.0000
          13361       813.2000    100649.0000     13132.0000      3596.0000       278.0000       610.0000              0              0              0              0              0            100              0           0.00         0.0000
          13362       811.9500    100649.0000     13132.0000      3596.0000       278.0000       610.0000              0              0              0              0              0            100              0           0.00         0.0000
          13363       811.9500    100649.0000     13132.0000      3596.0000       278.0000       610.0000              0              0              0              0              0            100              0           0.00         0.0000
          13364       815.6500    100649.0000     13132.0000      3596.0000       278.0000       610.0000              0              0              0              0              0            100              0           0.00         0.0000
          13365       835.1500    100649.0000     13132.0000      3596.0000       278.0000       610.0000              0              0              0              0              0            100              0           0.00         0.0000
          13366       836.4000    100649.0000     13132.0000      3596.0000       278.0000       610.0000              0              0              0              0              0            100              0           0.00         0.0000
          13367       833.9500    100649.0000     13132.0000      3596.0000       278.0000       610.0000              0              0              0              0              0            100              0           0.00         0.0000
          13368       841.2500    100649.0000     13132.0000      3596.0000       278.0000       610.0000              0              0              0              0              0            100              0           0.00         0.0000
          13369       870.6000    100649.0000     13132.0000      3596.0000       278.0000       610.0000              0              0              0              0              0            100              0           0.00         0.0000
          13370       873.6250    100649.0000     13132.0000      3596.0000       278.0000       610.0000              0              0              0              0              0            100              0           0.00         0.0000
          13371       874.2500    100649.0000     13132.0000      3596.0000       278.0000       610.0000              0              0              0              0              0            100              0           0.00         0.0000
          13372       876.7000    100649.0000     13132.0000      3596.0000       278.0000       610.0000              0              0              0              0              0            100              0           0.00         0.0000
