#___________________________________________________________________________
~VERSION INFORMATION
 VERS.                                 2.0 : CWLS LOG ASCII STANDARD - VERSION 2.0
 WRAP.                                  NO : ONE LINE PER DEPTH STEP
#___________________________________________________________________________
~WELL INFORMATION
 STRT.F                           10285.00 : START DEPTH
 STOP.F                           16074.00 : STOP DEPTH
 STEP.F                                  1 : STEP VALUE
 NULL.                             -999.25 : NULL VALUE
 COMP.      Magnolia Oil & Gas             : COMPANY
 WELL.      Levi Goodrich Unit 2 2H        : WELL
  FLD.      Giddings                       : FIELD
  LOC.      Washington County              : LOCATION
 CNTY.      Washington County              : PARISH/COUNTY
 STAT.      Texas                          : STATE
 CTRY.      USA                            : COUNTRY
" SRVC.      PetroLog International, Inc.   : SERVICE COMPANY"
 DATE.      05/13/2020                     : LOG DATE
  API.      42-477-31134                   : API REFERENCE NUMBER
#___________________________________________________________________________
~CURVE INFORMATION
#MNEM.UNITS                                : DESCRIPTION
DEPTH.F                                    :  1 DEPTH
 TGAS.Units                                :  2 Chromatograph_TotalGas
 MTHX.PPM                                  :  3 Chromatograph_MethanePPMMax
 ETHX.PPM                                  :  4 Chromatograph_EthanePPMMax
 PRPX.PPM                                  :  5 Chromatograph_PropanePPMMax
 IBTX.PPM                                  :  6 Chromatograph_IButanePPMMax
 NBTX.PPM                                  :  7 Chromatograph_NButanePPMMax
CEMNT.%                                    :  8 Lithology_Cement
SHALE.%                                    :  9 Lithology_Shale
SILTST.%                                   : 10 Lithology_Siltstone
 SAND.%                                    : 11 Lithology_Sand
 LIME.%                                    : 12 Lithology_Lime
 CHLK.%                                    : 13 Lithology_Chalk
  ASH.%                                    : 14 Lithology_Ash
 FRAC.%                                    : 15 Lithology_Fracture
#___________________________________________________________________________
~A        DEPTH           TGAS           MTHX           ETHX           PRPX           IBTX           NBTX          CEMNT          SHALE         SILTST           SAND           LIME           CHLK            ASH           FRAC
# ...
          14137      1172.1500     97387.0000     26808.0000      9761.0000      1251.0000      2663.0000              0              0              0              0              0            100              0           0.00
          14138      1166.0500     97387.0000     26808.0000      9761.0000      1251.0000      2663.0000              0              0              0              0              0            100              0           0.00
          14139      1163.6000     97387.0000     26808.0000      9761.0000      1251.0000      2663.0000              0              0              0              0              0            100              0           0.00
          14140      1169.7000     97387.0000     26808.0000      9761.0000      1251.0000      2663.0000              0              0              0              0              0            100              0           0.00
          14141      1175.8500     97387.0000     26808.0000      9761.0000      1251.0000      2663.0000              0              0              0              0              0            100              0           0.00
          14142      1180.7000     97387.0000     26808.0000      9761.0000      1251.0000      2663.0000              0              0              0              0              0            100              0           0.00
          14143      1181.9500     97387.0000     26808.0000      9761.0000      1251.0000      2663.0000              0              0              0              0              0            100              0           0.00
          14144      1178.2500     97387.0000     26808.0000      9761.0000      1251.0000      2663.0000              0              0              0              0              0            100              0           0.00
          14145      1175.8500     97387.0000     26808.0000      9761.0000      1251.0000      2663.0000              0              0              0              0              0            100              0           0.00
          14146      1166.6750     97387.0000     26808.0000      9761.0000      1251.0000      2663.0000              0              0              0              0              0            100              0           0.00
          14147      1151.4000     97387.0000     26808.0000      9761.0000      1251.0000      2663.0000              0              0              0              0              0            100              0           0.00
          14148      1151.4000     97387.0000     26808.0000      9761.0000      1251.0000      2663.0000              0              0              0              0              0            100              0           0.00
          14149      1166.0750     97387.0000     26808.0000      9761.0000      1251.0000      2663.0000              0              0              0              0              0            100              0           0.00
          14150      1177.0500     97387.0000     26808.0000      9761.0000      1251.0000      2663.0000              0              0              0              0              0            100              0           0.00
          14151      1189.2500     97387.0000     26808.0000      9761.0000      1251.0000      2663.0000              0              0              0              0              0            100              0           0.00
          14152      1199.0500     97387.0000     26808.0000      9761.0000      1251.0000      2663.0000              0              0              0              0              0            100              0           0.00
          14153      1200.2500     97387.0000     26808.0000      9761.0000      1251.0000      2663.0000              0              0              0              0              0            100              0           0.00
          14154      1195.3500     97387.0000     26808.0000      9761.0000      1251.0000      2663.0000              0              0              0              0              0            100              0           0.00
          14155      1187.4250     97387.0000     26808.0000      9761.0000      1251.0000      2663.0000              0              0              0              0              0            100              0           0.00
          14156      1174.6000    106498.0000     26808.0000      9761.0000      1251.0000      2663.0000              0              0              0              0              0            100              0           0.00
          14157      1175.8500    106498.0000     25057.0000      8488.0000      1135.0000      2508.0000              0              0              0              0              0            100              0           0.00
          14158      1178.2500    106498.0000     25057.0000      8488.0000      1135.0000      2508.0000              0              0              0              0              0            100              0           0.00
          14159      1180.7000    106498.0000     25057.0000      8488.0000      1135.0000      2508.0000              0              0              0              0              0            100              0           0.00
          14160      1178.8750    106498.0000     25057.0000      8488.0000      1135.0000      2508.0000              0              0              0              0              0            100              0           0.00
          14161      1175.8500    106498.0000     25057.0000      8488.0000      1135.0000      2508.0000              0              0              0              0              0            100              0           0.00
          14162      1192.9000    106498.0000     25057.0000      8488.0000      1135.0000      2508.0000              0              0              0              0              0            100              0           0.00
          14163      1197.2000    106498.0000     25057.0000      8488.0000      1135.0000      2508.0000              0              0              0              0              0            100              0           0.00
          14164      1195.3500    106498.0000     25057.0000      8488.0000      1135.0000      2508.0000              0              0              0              0              0            100              0           0.00
          14165      1179.4750    106498.0000     25057.0000      8488.0000      1135.0000      2508.0000              0              0              0              0              0            100              0           0.00
          14166      1161.1500    106498.0000     25057.0000      8488.0000      1135.0000      2508.0000              0              0              0              0              0            100              0           0.00
          14167      1163.6000    106498.0000     25057.0000      8488.0000      1135.0000      2508.0000              0              0              0              0              0            100              0           0.00
          14168      1175.8500    106498.0000     25057.0000      8488.0000      1135.0000      2508.0000              0              0              0              0              0            100              0           0.00
          14169      1176.4500    106498.0000     25057.0000      8488.0000      1135.0000      2508.0000              0              0              0              0              0            100              0           0.00
          14170      1174.6000    106498.0000     25057.0000      8488.0000      1135.0000      2508.0000              0              0              0              0              0            100              0           0.00
          14171      1170.9500    106498.0000     25057.0000      8488.0000      1135.0000      2508.0000              0              0              0              0              0            100              0           0.00
          14172      1163.6000    106498.0000     25057.0000      8488.0000      1135.0000      2508.0000              0              0              0              0              0            100              0           0.00
