#___________________________________________________________________________
~VERSION INFORMATION
 VERS.                                 2.0 : CWLS LOG ASCII STANDARD - VERSION 2.0
 WRAP.                                  NO : ONE LINE PER DEPTH STEP
#___________________________________________________________________________
~WELL INFORMATION
 STRT.F                           10285.00 : START DEPTH
 STOP.F                           16074.00 : STOP DEPTH
 STEP.F                                  1 : STEP VALUE
 NULL.                             -999.25 : NULL VALUE
 COMP.      Magnolia Oil & Gas             : COMPANY
 WELL.      Levi Goodrich Unit 2 2H        : WELL
  FLD.      Giddings                       : FIELD
  LOC.      Washington County              : LOCATION
 CNTY.      Washington County              : PARISH/COUNTY
 STAT.      Texas                          : STATE
 CTRY.      USA                            : COUNTRY
" SRVC.      PetroLog International, Inc.   : SERVICE COMPANY"
 DATE.      05/13/2020                     : LOG DATE
  API.      42-477-31134                   : API REFERENCE NUMBER
#___________________________________________________________________________
~CURVE INFORMATION
#MNEM.UNITS                                : DESCRIPTION
DEPTH.F                                    :  1 DEPTH
 TGAS.Units                                :  2 Chromatograph_TotalGas
 MTHX.PPM                                  :  3 Chromatograph_MethanePPMMax
 ETHX.PPM                                  :  4 Chromatograph_EthanePPMMax
 PRPX.PPM                                  :  5 Chromatograph_PropanePPMMax
 IBTX.PPM                                  :  6 Chromatograph_IButanePPMMax
 NBTX.PPM                                  :  7 Chromatograph_NButanePPMMax
CEMNT.%                                    :  8 Lithology_Cement
SHALE.%                                    :  9 Lithology_Shale
SILTST.%                                   : 10 Lithology_Siltstone
 SAND.%                                    : 11 Lithology_Sand
 LIME.%                                    : 12 Lithology_Lime
 CHLK.%                                    : 13 Lithology_Chalk
  ASH.%                                    : 14 Lithology_Ash
 FRAC.%                                    : 15 Lithology_Fracture
#___________________________________________________________________________
~A        DEPTH           TGAS           MTHX           ETHX           PRPX           IBTX           NBTX          CEMNT          SHALE         SILTST           SAND           LIME           CHLK            ASH           FRAC
# ...
          11041       475.6000     46935.0000     29147.0000     19588.0000      4320.0000      9272.0000              0              0              0              0              0            100              0          20.00
          11042       346.7750     46935.0000     29147.0000     19588.0000      4320.0000      9272.0000              0              0              0              0              0            100              0          20.00
          11043       255.2000     46935.0000     29147.0000     19588.0000      4320.0000      9272.0000              0              0              0              0              0            100              0          20.00
          11044       216.7250     46935.0000     29147.0000     19588.0000      4320.0000      9272.0000              0              0              0              0              0            100              0          20.00
          11045       188.0500     46935.0000     29147.0000     19588.0000      4320.0000      9272.0000              0              0              0              0              0            100              0          20.00
          11046       258.8500       291.0000       382.0000       438.0000         0.0000       484.0000              0              0              0              0              0            100              0          20.00
          11047       893.8000       291.0000       382.0000       438.0000         0.0000       484.0000              0              0              0              0              0            100              0          20.00
          11048      1403.5500       291.0000       382.0000       438.0000         0.0000       484.0000              0              0              0              0              0            100              0          20.00
          11049      1665.4500       291.0000       382.0000       438.0000         0.0000       484.0000              0              0              0              0              0            100              0          20.00
          11050      1749.7000       291.0000       382.0000       438.0000         0.0000       484.0000              0              0              0              0              0            100              0          20.00
          11051      1749.7000       291.0000       382.0000       438.0000         0.0000       484.0000              0              0              0              0              0            100              0          20.00
          11052      1716.7500       291.0000       382.0000       438.0000         0.0000       484.0000              0              0              0              0              0            100              0          20.00
          11053      1683.7500       291.0000       382.0000       438.0000         0.0000       484.0000              0              0              0              0              0            100              0          20.00
          11054      1680.7000       291.0000       382.0000       438.0000         0.0000       484.0000              0              0              0              0              0            100              0          20.00
          11055      1667.9000       291.0000       382.0000       438.0000         0.0000       484.0000              0              0              0              0              0            100              0          20.00
          11056      1644.0750       291.0000       382.0000       438.0000         0.0000       484.0000              0              0              0              0              0            100              0          20.00
          11057      1633.7000       291.0000       382.0000       438.0000         0.0000       484.0000              0              0              0              0              0            100              0          20.00
          11058      1559.2000       291.0000       382.0000       438.0000         0.0000       484.0000              0              0              0              0              0            100              0          20.00
          11059      2518.3250    142448.0000     55800.0000     23783.0000      4708.0000      9582.0000              0              0              0              0              0            100              0          20.00
          11060      1696.5750     73675.0000     37668.0000     18551.0000      3160.0000      6261.0000              0              0              0              0              0            100              0          20.00
          11061      1942.6000     73675.0000     37668.0000     18551.0000      3160.0000      6261.0000              0              0              0              0              0            100              0           4.00
          11062      1820.5000     73675.0000     37668.0000     18551.0000      3160.0000      6261.0000              0              0              0              0              0            100              0           4.00
          11063      1197.2000     73675.0000     37668.0000     18551.0000      3160.0000      6261.0000              0              0              0              0              0            100              0           4.00
          11064      1089.7500     73675.0000     37668.0000     18551.0000      3160.0000      6261.0000              0              0              0              0              0            100              0           4.00
          11065      1202.6750     73675.0000     37668.0000     18551.0000      3160.0000      6261.0000              0              0              0              0              0            100              0           4.00
          11066      1302.8000     73675.0000     37668.0000     18551.0000      3609.0000      7796.0000              0              0              0              0              0            100              0           4.00
          11067      1391.3250     34374.0000     22414.0000     15949.0000      3609.0000      7796.0000              0              0              0              0              0            100              0           4.00
          11068      1394.4000     34374.0000     22414.0000     15949.0000      3609.0000      7796.0000              0              0              0              0              0            100              0           4.00
          11069      1399.2500     34374.0000     22414.0000     15949.0000      3609.0000      7796.0000              0              0              0              0              0            100              0           4.00
          11070      1526.2500     34374.0000     22414.0000     15949.0000      3609.0000      7796.0000              0              0              0              0              0            100              0           4.00
          11071      1840.0500     34374.0000     22414.0000     15949.0000      3609.0000      7796.0000              0              0              0              0              0            100              0           4.00
          11072      1838.8500     34374.0000     22414.0000     15949.0000      3609.0000      7796.0000              0              0              0              0              0            100              0           4.00
          11073      1885.2500     67005.0000     37862.0000     22947.0000      4714.0000      9805.0000              0              0              0              0              0            100              0           4.00
          11074      1908.4500     67005.0000     37862.0000     22947.0000      4714.0000      9805.0000              0              0              0              0              0            100              0           4.00
          11075      1965.8000     67005.0000     37862.0000     22947.0000      4714.0000      9805.0000              0              0              0              0              0            100              0           4.00
          11076      1965.8000     67005.0000     37862.0000     22947.0000      4714.0000      9805.0000              0              0              0              0              0            100              0           4.00
