#___________________________________________________________________________
~VERSION INFORMATION
 VERS.                                 2.0 : CWLS LOG ASCII STANDARD - VERSION 2.0
 WRAP.                                  NO : ONE LINE PER DEPTH STEP
#___________________________________________________________________________
~WELL INFORMATION
 STRT.F                           10245.00 : START DEPTH
 STOP.F                           18039.00 : STOP DEPTH
 STEP.F                                  1 : STEP VALUE
 NULL.                             -999.25 : NULL VALUE
 COMP.      Magnolia Oil & Gas             : COMPANY
 WELL.      Levi Goodrich Unit 2 3H        : WELL
  FLD.      Giddings                       : FIELD
  LOC.      Washington County              : LOCATION
 CNTY.      Washington County              : PARISH/COUNTY
 STAT.      Texas                          : STATE
 CTRY.      USA                            : COUNTRY
" SRVC.      PetroLog International, Inc.   : SERVICE COMPANY"
 DATE.      06/07/2020                     : LOG DATE
  API.      42-477-31135                   : API REFERENCE NUMBER
#___________________________________________________________________________
~CURVE INFORMATION
#MNEM.UNITS                                : DESCRIPTION
DEPTH.F                                    :  1 DEPTH
 TGAS.Units                                :  2 Chromatograph_TotalGas
 MTHX.PPM                                  :  3 Chromatograph_MethanePPMMax
 ETHX.PPM                                  :  4 Chromatograph_EthanePPMMax
 PRPX.PPM                                  :  5 Chromatograph_PropanePPMMax
 IBTX.PPM                                  :  6 Chromatograph_IButanePPMMax
 NBTX.PPM                                  :  7 Chromatograph_NButanePPMMax
CEMNT.%                                    :  8 Lithology_Cement
SHALE.%                                    :  9 Lithology_Shale
SILTST.%                                   : 10 Lithology_Siltstone
 SAND.%                                    : 11 Lithology_Sand
 LIME.%                                    : 12 Lithology_Lime
 CHLK.%                                    : 13 Lithology_Chalk
  ASH.%                                    : 14 Lithology_Ash
 FRAC.%                                    : 15 Fracture
Kick/Loss.----                             : 16 Kick/Loss
#___________________________________________________________________________
~A        DEPTH           TGAS           MTHX           ETHX           PRPX           IBTX           NBTX          CEMNT          SHALE         SILTST           SAND           LIME           CHLK            ASH           FRAC      Kick/Loss
# ...
          17487      2288.7750    328528.0000     48003.0000     12401.0000      1251.0000      2576.0000              0              0              0              0              0            100              0           0.00        -1.0000
          17488      2332.1000    246412.0000     48003.0000     12401.0000      1251.0000      2576.0000              0              0              0              0              0            100              0           0.00        -1.0000
          17489      2326.6250    246412.0000     48003.0000     12401.0000      1251.0000      2576.0000              0              0              0              0              0            100              0           0.00        -1.0000
          17490      2216.7250    246412.0000     48003.0000     12401.0000      1251.0000      2576.0000              0              0              0              0              0            100              0           0.00        -1.0000
          17491      2169.7000    246412.0000     48003.0000     12401.0000      1251.0000      2576.0000              0              0              0              0              0            100              0           0.00        -1.0000
          17492      2140.4000    246412.0000     48003.0000     12401.0000      1251.0000      2576.0000              0              0              0              0              0            100              0           0.00        -1.0000
          17493      2152.6500    246412.0000     48003.0000     12401.0000      1251.0000      2576.0000              0              0              0              0              0            100              0           0.00        -1.0000
          17494      2138.0000    246412.0000     48003.0000     12401.0000      1251.0000      2576.0000              0              0              0              0              0            100              0           0.00        -1.0000
          17495      2170.9500    246412.0000     48003.0000     12401.0000      1251.0000      2576.0000              0              0              0              0              0            100              0           0.00        -1.0000
          17496      2202.0750    246412.0000     48003.0000     12401.0000      1251.0000      2576.0000              0              0              0              0              0            100              0           0.00        -1.0000
          17497      2223.4250    246412.0000     48003.0000     12401.0000      1251.0000      2576.0000              0              0              0              0              0            100              0           0.00        -1.0000
          17498      2328.4500    334384.0000     48003.0000     12401.0000      1251.0000      2576.0000              0              0              0              0              0            100              0           0.00        -1.0000
          17499      2347.3750    334384.0000     31295.0000      7315.0000       740.0000      1618.0000              0              0              0              0              0            100              0           0.00        -1.0000
          17500      2169.1250    334384.0000     31295.0000      7315.0000       740.0000      1618.0000              0              0              0              0              0            100              0           0.00        -1.0000
          17501      2109.9000    334384.0000     31295.0000      7315.0000       740.0000      1618.0000              0              0              0              0              0            100              0           0.00        -1.0000
          17502      2127.0000    334384.0000     31295.0000      7315.0000       740.0000      1618.0000              0              0              0              0              0            100              0           0.00        -1.0000
          17503      2139.2000    334384.0000     31295.0000      7315.0000       740.0000      1618.0000              0              0              0              0              0            100              0           0.00        -1.0000
          17504      2138.0000    334384.0000     31295.0000      7315.0000       740.0000      1618.0000              0              0              0              0              0            100              0           0.00        -1.0000
          17505      2167.3000    334384.0000     33558.0000      8233.0000       845.0000      1809.0000              0              0              0              0              0            100              0           0.00        -1.0000
          17506      2282.0500    298503.0000     33558.0000      8233.0000       845.0000      1809.0000              0              0              0              0              0            100              0           0.00        -1.0000
          17507      2283.2500    298503.0000     33558.0000      8233.0000       845.0000      1809.0000              0              0              0              0              0            100              0           0.00        -1.0000
          17508      2223.4500    298503.0000     33558.0000      8233.0000       845.0000      1809.0000              0              0              0              0              0            100              0           0.00        -1.0000
          17509      2159.9500    298503.0000     42716.0000     10643.0000      1015.0000      2011.0000              0              0              0              0              0            100              0           0.00        -1.0000
          17510      2123.3000    254200.0000     42716.0000     10643.0000      1015.0000      2011.0000              0              0              0              0              0            100              0           0.00        -1.0000
          17511      2057.4000    254200.0000     42716.0000     10643.0000      1015.0000      2011.0000              0              0              0              0              0            100              0           0.00        -1.0000
          17512      2073.2500    254200.0000     42716.0000     10643.0000      1015.0000      2011.0000              0              0              0              0              0            100              0           0.00        -1.0000
          17513      2110.5000    254200.0000     42716.0000     10643.0000      1015.0000      2011.0000              0              0              0              0              0            100              0           0.00        -1.0000
          17514      2199.0500    254200.0000     42716.0000     10643.0000      1015.0000      2011.0000              0              0              0              0              0            100              0           0.00        -1.0000
          17515      2247.8500    254200.0000     42716.0000     10643.0000      1015.0000      2011.0000              0              0              0              0              0            100              0           0.00        -1.0000
          17516      2219.8000    254200.0000     42716.0000     10643.0000      1015.0000      2011.0000              0              0              0              0              0            100              0           0.00        -1.0000
          17517      2106.2500    254200.0000     42716.0000     10643.0000      1015.0000      2011.0000              0              0              0              0              0            100              0           0.00        -1.0000
          17518      2078.1500    254200.0000     42716.0000     10643.0000      1015.0000      2011.0000              0              0              0              0              0            100              0           0.00        -1.0000
          17519      2092.8000    254200.0000     42716.0000     10643.0000      1015.0000      2011.0000              0              0              0              0              0            100              0           0.00        -1.0000
          17520      2203.9000    255142.0000     44490.0000     11220.0000      1149.0000      2293.0000              0              0              0              0              0            100              0           0.00        -1.0000
