#___________________________________________________________________________
~VERSION INFORMATION
 VERS.                                 2.0 : CWLS LOG ASCII STANDARD - VERSION 2.0
 WRAP.                                  NO : ONE LINE PER DEPTH STEP
#___________________________________________________________________________
~WELL INFORMATION
 STRT.F                           10285.00 : START DEPTH
 STOP.F                           16074.00 : STOP DEPTH
 STEP.F                                  1 : STEP VALUE
 NULL.                             -999.25 : NULL VALUE
 COMP.      Magnolia Oil & Gas             : COMPANY
 WELL.      Levi Goodrich Unit 2 2H        : WELL
  FLD.      Giddings                       : FIELD
  LOC.      Washington County              : LOCATION
 CNTY.      Washington County              : PARISH/COUNTY
 STAT.      Texas                          : STATE
 CTRY.      USA                            : COUNTRY
" SRVC.      PetroLog International, Inc.   : SERVICE COMPANY"
 DATE.      05/13/2020                     : LOG DATE
  API.      42-477-31134                   : API REFERENCE NUMBER
#___________________________________________________________________________
~CURVE INFORMATION
#MNEM.UNITS                                : DESCRIPTION
DEPTH.F                                    :  1 DEPTH
 TGAS.Units                                :  2 Chromatograph_TotalGas
 MTHX.PPM                                  :  3 Chromatograph_MethanePPMMax
 ETHX.PPM                                  :  4 Chromatograph_EthanePPMMax
 PRPX.PPM                                  :  5 Chromatograph_PropanePPMMax
 IBTX.PPM                                  :  6 Chromatograph_IButanePPMMax
 NBTX.PPM                                  :  7 Chromatograph_NButanePPMMax
CEMNT.%                                    :  8 Lithology_Cement
SHALE.%                                    :  9 Lithology_Shale
SILTST.%                                   : 10 Lithology_Siltstone
 SAND.%                                    : 11 Lithology_Sand
 LIME.%                                    : 12 Lithology_Lime
 CHLK.%                                    : 13 Lithology_Chalk
  ASH.%                                    : 14 Lithology_Ash
 FRAC.%                                    : 15 Lithology_Fracture
#___________________________________________________________________________
~A        DEPTH           TGAS           MTHX           ETHX           PRPX           IBTX           NBTX          CEMNT          SHALE         SILTST           SAND           LIME           CHLK            ASH           FRAC
# ...
          14893      2213.7000    100324.0000     60727.0000     38673.0000      7394.0000     16228.0000              0              0              0              0              0            100              0           2.00
          14894      2346.7500    100324.0000     60727.0000     38673.0000      7394.0000     16228.0000              0              0              0              0              0            100              0           2.00
          14895      2406.6000    100324.0000     60727.0000     38673.0000      7394.0000     16228.0000              0              0              0              0              0            100              0           2.00
          14896      2462.7750    100324.0000     60727.0000     38673.0000      7394.0000     16228.0000              0              0              0              0              0            100              0           2.00
          14897      2575.1000    100324.0000     60727.0000     38673.0000      7394.0000     16228.0000              0              0              0              0              0            100              0           2.00
          14898      2739.9500    100324.0000     60727.0000     38673.0000      7394.0000     16228.0000              0              0              0              0              0            100              0           2.00
          14899      2800.9750    100324.0000     60727.0000     38673.0000      7394.0000     16228.0000              0              0              0              0              0            100              0           2.00
          14900      2795.4750    138610.0000     75706.0000     43590.0000      7947.0000     16548.0000              0              0              0              0              0            100              0           2.00
          14901      2681.3250    138610.0000     75706.0000     43590.0000      7947.0000     16548.0000              0              0              0              0              0            100              0           0.00
          14902      2560.4500    138610.0000     75706.0000     43590.0000      7947.0000     16548.0000              0              0              0              0              0            100              0           0.00
          14903      2304.0500    138610.0000     75706.0000     43590.0000      7947.0000     16548.0000              0              0              0              0              0            100              0           0.00
          14904      2206.3500    138610.0000     75706.0000     43590.0000      7947.0000     16548.0000              0              0              0              0              0            100              0           0.00
          14905      2438.9500    138610.0000     75706.0000     43590.0000      7947.0000     16548.0000              0              0              0              0              0            100              0           0.00
          14906      2545.8000    138610.0000     75706.0000     43590.0000      7947.0000     16548.0000              0              0              0              0              0            100              0           0.00
          14907      2592.2000    138610.0000     75706.0000     43590.0000      7947.0000     16548.0000              0              0              0              0              0            100              0           0.00
          14908      2584.8500    138610.0000     75706.0000     43590.0000      7947.0000     16548.0000              0              0              0              0              0            100              0           0.00
          14909      2527.5000    138610.0000     75706.0000     43590.0000      7947.0000     16548.0000              0              0              0              0              0            100              0           0.00
          14910      2476.2000    138610.0000     75706.0000     43590.0000      7947.0000     16548.0000              0              0              0              0              0            100              0           0.00
          14911      2460.3250    138610.0000     75706.0000     43590.0000      7947.0000     16548.0000              0              0              0              0              0            100              0           0.00
          14912      2453.0000    138610.0000     75706.0000     43590.0000      7947.0000     16548.0000              0              0              0              0              0            100              0           0.00
          14913      2448.1000    138610.0000     75706.0000     43590.0000      7947.0000     16548.0000              0              0              0              0              0            100              0           0.00
          14914      2402.3250    138610.0000     75706.0000     43590.0000      7947.0000     16548.0000              0              0              0              0              0            100              0           0.00
          14915      2438.3500    138610.0000     75706.0000     43590.0000      7947.0000     16548.0000              0              0              0              0              0            100              0           0.00
          14916      2592.2000    138610.0000     75706.0000     43590.0000      7947.0000     16548.0000              0              0              0              0              0            100              0           0.00
          14917      2824.2000    138610.0000     75706.0000     43590.0000      7947.0000     16548.0000              0              0              0              0              0            100              0           0.00
          14918      2910.8500    138610.0000     75706.0000     43590.0000      7947.0000     16548.0000              0              0              0              0              0            100              0           0.00
          14919      2907.8250    138610.0000     75706.0000     43590.0000      7947.0000     16548.0000              0              0              0              0              0            100              0           0.00
          14920      2864.4500    138610.0000     75706.0000     43590.0000      7947.0000     16548.0000              0              0              0              0              0            100              0           0.00
          14921      2742.3750    138610.0000     75706.0000     43590.0000      7947.0000     16548.0000              0              0              0              0              0            100              0           0.00
          14922      2617.8500    138610.0000     75706.0000     43590.0000      7947.0000     16548.0000              0              0              0              0              0            100              0           0.00
          14923      2484.7500    138610.0000     75706.0000     43590.0000      7947.0000     16548.0000              0              0              0              0              0            100              0           0.00
          14924      2490.2250    138610.0000     75706.0000     43590.0000      8467.0000     18365.0000              0              0              0              0              0            100              0           0.00
          14925      2561.6750     57684.0000     49894.0000     39273.0000      8467.0000     18365.0000              0              0              0              0              0            100              0           0.00
          14926      2606.8500     57684.0000     49894.0000     39273.0000      8467.0000     18365.0000              0              0              0              0              0            100              0           0.00
          14927      2659.3500     57684.0000     49894.0000     39273.0000      8467.0000     18365.0000              0              0              0              0              0            100              0           0.00
          14928      2642.2500     57684.0000     49894.0000     39273.0000      8467.0000     18365.0000              0              0              0              0              0            100              0           0.00
