#___________________________________________________________________________
~VERSION INFORMATION
 VERS.                                 2.0 : CWLS LOG ASCII STANDARD - VERSION 2.0
 WRAP.                                  NO : ONE LINE PER DEPTH STEP
#___________________________________________________________________________
~WELL INFORMATION
 STRT.F                           10245.00 : START DEPTH
 STOP.F                           18039.00 : STOP DEPTH
 STEP.F                                  1 : STEP VALUE
 NULL.                             -999.25 : NULL VALUE
 COMP.      Magnolia Oil & Gas             : COMPANY
 WELL.      Levi Goodrich Unit 2 3H        : WELL
  FLD.      Giddings                       : FIELD
  LOC.      Washington County              : LOCATION
 CNTY.      Washington County              : PARISH/COUNTY
 STAT.      Texas                          : STATE
 CTRY.      USA                            : COUNTRY
" SRVC.      PetroLog International, Inc.   : SERVICE COMPANY"
 DATE.      06/07/2020                     : LOG DATE
  API.      42-477-31135                   : API REFERENCE NUMBER
#___________________________________________________________________________
~CURVE INFORMATION
#MNEM.UNITS                                : DESCRIPTION
DEPTH.F                                    :  1 DEPTH
 TGAS.Units                                :  2 Chromatograph_TotalGas
 MTHX.PPM                                  :  3 Chromatograph_MethanePPMMax
 ETHX.PPM                                  :  4 Chromatograph_EthanePPMMax
 PRPX.PPM                                  :  5 Chromatograph_PropanePPMMax
 IBTX.PPM                                  :  6 Chromatograph_IButanePPMMax
 NBTX.PPM                                  :  7 Chromatograph_NButanePPMMax
CEMNT.%                                    :  8 Lithology_Cement
SHALE.%                                    :  9 Lithology_Shale
SILTST.%                                   : 10 Lithology_Siltstone
 SAND.%                                    : 11 Lithology_Sand
 LIME.%                                    : 12 Lithology_Lime
 CHLK.%                                    : 13 Lithology_Chalk
  ASH.%                                    : 14 Lithology_Ash
 FRAC.%                                    : 15 Fracture
Kick/Loss.----                             : 16 Kick/Loss
#___________________________________________________________________________
~A        DEPTH           TGAS           MTHX           ETHX           PRPX           IBTX           NBTX          CEMNT          SHALE         SILTST           SAND           LIME           CHLK            ASH           FRAC      Kick/Loss
# ...
          16977      1004.2750     87476.0000     33416.0000     11889.0000      1493.0000      2702.0000              0              0              0              0              0            100              0           4.00        -1.0000
          16978       990.2500     87476.0000     33416.0000     11889.0000      1493.0000      2702.0000              0              0              0              0              0            100              0           4.00        -1.0000
          16979       960.3250     87476.0000     33416.0000     11889.0000      1493.0000      2702.0000              0              0              0              0              0            100              0           4.00        -1.0000
          16980       951.1500     87476.0000     33416.0000     11889.0000      1493.0000      2702.0000              0              0              0              0              0            100              0           4.00        -1.0000
          16981       959.1000     87476.0000     33416.0000     11889.0000      1493.0000      2702.0000              0              0              0              0              0            100              0           0.00        -1.0000
          16982       968.2500     87476.0000     33416.0000     11889.0000      1493.0000      2702.0000              0              0              0              0              0            100              0           0.00        -1.0000
          16983       965.8000     86231.0000     26212.0000      7832.0000       870.0000      1641.0000              0              0              0              0              0            100              0           0.00        -1.0000
          16984       968.2500     86231.0000     26212.0000      7832.0000       870.0000      1641.0000              0              0              0              0              0            100              0           0.00        -1.0000
          16985       937.1250     86231.0000     26212.0000      7832.0000       870.0000      1641.0000              0              0              0              0              0            100              0           0.00        -1.0000
          16986       937.7500     86231.0000     26212.0000      7832.0000       870.0000      1641.0000              0              0              0              0              0            100              0           0.00        -1.0000
          16987       941.4000     86231.0000     26212.0000      7832.0000       870.0000      1641.0000              0              0              0              0              0            100              0           0.00        -1.0000
          16988       920.6500     86231.0000     26212.0000      7832.0000       870.0000      1641.0000              0              0              0              0              0            100              0           0.00        -1.0000
          16989       930.4000     86231.0000     26212.0000      7832.0000       870.0000      1641.0000              0              0              0              0              0            100              0           0.00        -1.0000
          16990       912.1000     86231.0000     26212.0000      7832.0000       870.0000      1641.0000              0              0              0              0              0            100              0           0.00        -1.0000
          16991       894.4000     86231.0000     26212.0000      7832.0000       870.0000      1641.0000              0              0              0              0              0            100              0           0.00        -1.0000
          16992       886.4500     84202.0000     22814.0000      6428.0000       652.0000      1290.0000              0              0              0              0              0            100              0           0.00        -1.0000
          16993       836.4000     84202.0000     22814.0000      6428.0000       652.0000      1290.0000              0              0              0              0              0            100              0           0.00        -1.0000
          16994       829.6750     84202.0000     22814.0000      6428.0000       652.0000      1290.0000              0              0              0              0              0            100              0           0.00        -1.0000
          16995       860.8000     84202.0000     22814.0000      6428.0000       652.0000      1290.0000              0              0              0              0              0            100              0           0.00        -1.0000
          16996       874.2500     84202.0000     22814.0000      6428.0000       652.0000      1290.0000              0              0              0              0              0            100              0           0.00        -1.0000
          16997       871.8000     84202.0000     22814.0000      6428.0000       652.0000      1290.0000              0              0              0              0              0            100              0           0.00        -1.0000
          16998       881.5500     84202.0000     22814.0000      6428.0000       652.0000      1290.0000              0              0              0              0              0            100              0           0.00        -1.0000
          16999       876.7000     85001.0000     22814.0000      6428.0000       652.0000      1290.0000              0              0              0              0              0            100              0           0.00        -1.0000
          17000       851.0500     85001.0000     20408.0000      5446.0000       523.0000      1055.0000              0              0              0              0              0            100              0           0.00        -1.0000
          17001       857.1500     85001.0000     20408.0000      5446.0000       523.0000      1055.0000              0              0              0              0              0            100              0           0.00        -1.0000
          17002       864.4500     85001.0000     20408.0000      5446.0000       523.0000      1055.0000              0              0              0              0              0            100              0           0.00        -1.0000
          17003       851.0500     85001.0000     20408.0000      5446.0000       523.0000      1055.0000              0              0              0              0              0            100              0           0.00        -1.0000
          17004       844.9500     85001.0000     20408.0000      5446.0000       523.0000      1055.0000              0              0              0              0              0            100              0           0.00        -1.0000
          17005       820.5000     85001.0000     20408.0000      5446.0000       523.0000      1055.0000              0              0              0              0              0            100              0           0.00        -1.0000
          17006       822.9500     85001.0000     20408.0000      5446.0000       523.0000      1055.0000              0              0              0              0              0            100              0           0.00        -1.0000
          17007       827.8500     85001.0000     20408.0000      5446.0000       523.0000      1055.0000              0              0              0              0              0            100              0           0.00        -1.0000
          17008       851.6500     89908.0000     20408.0000      5446.0000       523.0000      1055.0000              0              0              0              0              0            100              0           0.00        -1.0000
          17009       852.8750     89908.0000     19629.0000      5143.0000       468.0000       968.0000              0              0              0              0              0            100              0           0.00        -1.0000
          17010       841.8750     89908.0000     19629.0000      5143.0000       468.0000       968.0000              0              0              0              0              0            100              0           0.00        -1.0000
