#___________________________________________________________________________
~VERSION INFORMATION
 VERS.                                 2.0 : CWLS LOG ASCII STANDARD - VERSION 2.0
 WRAP.                                  NO : ONE LINE PER DEPTH STEP
#___________________________________________________________________________
~WELL INFORMATION
 STRT.F                           10285.00 : START DEPTH
 STOP.F                           16074.00 : STOP DEPTH
 STEP.F                                  1 : STEP VALUE
 NULL.                             -999.25 : NULL VALUE
 COMP.      Magnolia Oil & Gas             : COMPANY
 WELL.      Levi Goodrich Unit 2 2H        : WELL
  FLD.      Giddings                       : FIELD
  LOC.      Washington County              : LOCATION
 CNTY.      Washington County              : PARISH/COUNTY
 STAT.      Texas                          : STATE
 CTRY.      USA                            : COUNTRY
" SRVC.      PetroLog International, Inc.   : SERVICE COMPANY"
 DATE.      05/13/2020                     : LOG DATE
  API.      42-477-31134                   : API REFERENCE NUMBER
#___________________________________________________________________________
~CURVE INFORMATION
#MNEM.UNITS                                : DESCRIPTION
DEPTH.F                                    :  1 DEPTH
 TGAS.Units                                :  2 Chromatograph_TotalGas
 MTHX.PPM                                  :  3 Chromatograph_MethanePPMMax
 ETHX.PPM                                  :  4 Chromatograph_EthanePPMMax
 PRPX.PPM                                  :  5 Chromatograph_PropanePPMMax
 IBTX.PPM                                  :  6 Chromatograph_IButanePPMMax
 NBTX.PPM                                  :  7 Chromatograph_NButanePPMMax
CEMNT.%                                    :  8 Lithology_Cement
SHALE.%                                    :  9 Lithology_Shale
SILTST.%                                   : 10 Lithology_Siltstone
 SAND.%                                    : 11 Lithology_Sand
 LIME.%                                    : 12 Lithology_Lime
 CHLK.%                                    : 13 Lithology_Chalk
  ASH.%                                    : 14 Lithology_Ash
 FRAC.%                                    : 15 Lithology_Fracture
#___________________________________________________________________________
~A        DEPTH           TGAS           MTHX           ETHX           PRPX           IBTX           NBTX          CEMNT          SHALE         SILTST           SAND           LIME           CHLK            ASH           FRAC
# ...
          11833      1793.6500       968.0000       587.0000       746.0000       101.0000      1090.0000              0              0              0              0              0            100              0           0.00
          11834      1744.8000       968.0000       587.0000       746.0000       101.0000      1090.0000              0              0              0              0              0            100              0           0.00
          11835      1743.6000     66909.0000     33376.0000     18510.0000      3439.0000      7278.0000              0              0              0              0              0            100              0           0.00
          11836      1738.1000     66909.0000     33376.0000     18510.0000      3439.0000      7278.0000              0              0              0              0              0            100              0           0.00
          11837      1732.6000     66909.0000     33376.0000     18510.0000      3439.0000      7278.0000              0              0              0              0              0            100              0           0.00
          11838      1721.0000     66909.0000     33376.0000     18510.0000      3439.0000      7278.0000              0              0              0              0              0            100              0           0.00
          11839      1717.9500     66909.0000     33376.0000     18510.0000      3439.0000      7278.0000              0              0              0              0              0            100              0           0.00
          11840      1696.5750     66909.0000     33376.0000     18510.0000      3439.0000      7278.0000              0              0              0              0              0            100              0           0.00
          11841      1656.9000     66909.0000     33376.0000     18510.0000      3439.0000      7278.0000              0              0              0              0              0            100              0           0.00
          11842      1660.5500     66909.0000     33376.0000     18510.0000      3439.0000      7278.0000              0              0              0              0              0            100              0           0.00
          11843      1652.0000     66909.0000     33376.0000     18510.0000      3439.0000      7278.0000              0              0              0              0              0            100              0           0.00
          11844      1605.0000     66909.0000     33376.0000     18510.0000      3439.0000      7278.0000              0              0              0              0              0            100              0           0.00
          11845      1582.4000     66909.0000     33376.0000     18510.0000      3439.0000      7278.0000              0              0              0              0              0            100              0           0.00
          11846      1553.1000     66909.0000     33376.0000     18510.0000      3439.0000      7278.0000              0              0              0              0              0            100              0           0.00
          11847      1542.1500     66909.0000     33376.0000     18510.0000      3439.0000      7278.0000              0              0              0              0              0            100              0           0.00
          11848      1538.4500     66909.0000     33376.0000     18510.0000      3439.0000      7278.0000              0              0              0              0              0            100              0           0.00
          11849      1510.4000     66909.0000     33376.0000     18510.0000      3439.0000      7278.0000              0              0              0              0              0            100              0           0.00
          11850      1492.6750     66909.0000     33376.0000     18510.0000      3439.0000      7278.0000              0              0              0              0              0            100              0           0.00
          11851      1487.2000     66909.0000     33376.0000     18510.0000      3439.0000      7278.0000              0              0              0              0              0            100              0           0.00
          11852      1489.6000     66909.0000     33376.0000     18510.0000      3439.0000      7278.0000              0              0              0              0              0            100              0           0.00
          11853      1492.6750     66909.0000     33376.0000     18510.0000      3439.0000      7278.0000              0              0              0              0              0            100              0           0.00
          11854      1487.2000     66909.0000     33376.0000     18510.0000      3439.0000      7278.0000              0              0              0              0              0            100              0           0.00
          11855      1478.6500     66909.0000     33376.0000     18510.0000      3439.0000      7278.0000              0              0              0              0              0            100              0           0.00
          11856      1476.2000     80235.0000     33376.0000     18510.0000      3439.0000      7278.0000              0              0              0              0              0            100              0           0.00
          11857      1481.1000     80235.0000     27930.0000     12046.0000      2204.0000      5042.0000              0              0              0              0              0            100              0           0.00
          11858      1462.7500     80235.0000     27930.0000     12046.0000      2204.0000      5042.0000              0              0              0              0              0            100              0           0.00
          11859      1476.2000     80235.0000     27930.0000     12046.0000      2204.0000      5042.0000              0              0              0              0              0            100              0           0.00
          11860      1481.1000     80235.0000     27930.0000     12046.0000      2204.0000      5042.0000              0              0              0              0              0            100              0           0.00
          11861      1477.4250     80235.0000     27930.0000     12046.0000      2204.0000      5042.0000              0              0              0              0              0            100              0           0.00
          11862      1472.5500     80235.0000     27930.0000     12046.0000      2204.0000      5042.0000              0              0              0              0              0            100              0           0.00
          11863      1458.5000     80235.0000     27930.0000     12046.0000      2204.0000      5042.0000              0              0              0              0              0            100              0           0.00
          11864      1455.4500     80235.0000     27930.0000     12046.0000      2204.0000      5042.0000              0              0              0              0              0            100              0           0.00
          11865      1477.4000     80235.0000     27930.0000     12046.0000      2204.0000      5042.0000              0              0              0              0              0            100              0           0.00
          11866      1477.4000     80235.0000     27930.0000     12046.0000      2204.0000      5042.0000              0              0              0              0              0            100              0           0.00
          11867      1457.9000     80235.0000     27930.0000     12046.0000      2204.0000      5042.0000              0              0              0              0              0            100              0           0.00
          11868      1459.7000     80235.0000     27930.0000     12046.0000      2204.0000      5042.0000              0              0              0              0              0            100              0           0.00
