#___________________________________________________________________________
~VERSION INFORMATION
 VERS.                                 2.0 : CWLS LOG ASCII STANDARD - VERSION 2.0
 WRAP.                                  NO : ONE LINE PER DEPTH STEP
#___________________________________________________________________________
~WELL INFORMATION
 STRT.F                           10285.00 : START DEPTH
 STOP.F                           16074.00 : STOP DEPTH
 STEP.F                                  1 : STEP VALUE
 NULL.                             -999.25 : NULL VALUE
 COMP.      Magnolia Oil & Gas             : COMPANY
 WELL.      Levi Goodrich Unit 2 2H        : WELL
  FLD.      Giddings                       : FIELD
  LOC.      Washington County              : LOCATION
 CNTY.      Washington County              : PARISH/COUNTY
 STAT.      Texas                          : STATE
 CTRY.      USA                            : COUNTRY
" SRVC.      PetroLog International, Inc.   : SERVICE COMPANY"
 DATE.      05/13/2020                     : LOG DATE
  API.      42-477-31134                   : API REFERENCE NUMBER
#___________________________________________________________________________
~CURVE INFORMATION
#MNEM.UNITS                                : DESCRIPTION
DEPTH.F                                    :  1 DEPTH
 TGAS.Units                                :  2 Chromatograph_TotalGas
 MTHX.PPM                                  :  3 Chromatograph_MethanePPMMax
 ETHX.PPM                                  :  4 Chromatograph_EthanePPMMax
 PRPX.PPM                                  :  5 Chromatograph_PropanePPMMax
 IBTX.PPM                                  :  6 Chromatograph_IButanePPMMax
 NBTX.PPM                                  :  7 Chromatograph_NButanePPMMax
CEMNT.%                                    :  8 Lithology_Cement
SHALE.%                                    :  9 Lithology_Shale
SILTST.%                                   : 10 Lithology_Siltstone
 SAND.%                                    : 11 Lithology_Sand
 LIME.%                                    : 12 Lithology_Lime
 CHLK.%                                    : 13 Lithology_Chalk
  ASH.%                                    : 14 Lithology_Ash
 FRAC.%                                    : 15 Lithology_Fracture
#___________________________________________________________________________
~A        DEPTH           TGAS           MTHX           ETHX           PRPX           IBTX           NBTX          CEMNT          SHALE         SILTST           SAND           LIME           CHLK            ASH           FRAC
# ...
          12589      1604.4000    106097.0000     45385.0000     18290.0000      2361.0000      4323.0000              0              0              0              0              0            100              0           0.00
          12590      1542.7500    106097.0000     45385.0000     18290.0000      2361.0000      4323.0000              0              0              0              0              0            100              0           0.00
          12591      1492.0500    106097.0000     45385.0000     18290.0000      2361.0000      4323.0000              0              0              0              0              0            100              0           0.00
          12592      1445.0500    106097.0000     45385.0000     18290.0000      2361.0000      4323.0000              0              0              0              0              0            100              0           0.00
          12593      1424.9000    106097.0000     45385.0000     18290.0000      2361.0000      4323.0000              0              0              0              0              0            100              0           0.00
          12594      1405.9750    106097.0000     45385.0000     18290.0000      2361.0000      4323.0000              0              0              0              0              0            100              0           0.00
          12595      1380.3500    106097.0000     45385.0000     18290.0000      2361.0000      4323.0000              0              0              0              0              0            100              0           0.00
          12596      1356.5500    106097.0000     45385.0000     18290.0000      2361.0000      4323.0000              0              0              0              0              0            100              0           0.00
          12597      1337.6000    106097.0000     45385.0000     18290.0000      2361.0000      4323.0000              0              0              0              0              0            100              0           0.00
          12598      1307.7000    106097.0000     45385.0000     18290.0000      2361.0000      4323.0000              0              0              0              0              0            100              0           0.00
          12599      1295.5000    106097.0000     45385.0000     18290.0000      2361.0000      4323.0000              0              0              0              0              0            100              0           0.00
          12600      1296.7000    106097.0000     45385.0000     18290.0000      2361.0000      4323.0000              0              0              0              0              0            100              0           0.00
          12601      1294.2500    106097.0000     45385.0000     18290.0000      2361.0000      4323.0000              0              0              0              0              0            100              0           0.00
          12602      1280.2250    106097.0000     45385.0000     18290.0000      2361.0000      4323.0000              0              0              0              0              0            100              0           0.00
          12603      1256.4000    106097.0000     45385.0000     18290.0000      2361.0000      4323.0000              0              0              0              0              0            100              0           0.00
          12604      1238.7000    106097.0000     45385.0000     18290.0000      2361.0000      4323.0000              0              0              0              0              0            100              0           0.00
          12605      1225.9000    106097.0000     45385.0000     18290.0000      2361.0000      4323.0000              0              0              0              0              0            100              0           0.00
          12606      1211.2500    106097.0000     45385.0000     18290.0000      2361.0000      4323.0000              0              0              0              0              0            100              0           0.00
          12607      1199.0500    111126.0000     45385.0000     18290.0000      2361.0000      4323.0000              0              0              0              0              0            100              0           0.00
          12608      1166.0500    111126.0000     31722.0000      9180.0000       924.0000      1832.0000              0              0              0              0              0            100              0           0.00
          12609      1151.4000    111126.0000     31722.0000      9180.0000       924.0000      1832.0000              0              0              0              0              0            100              0           0.00
          12610      1127.8150    111126.0000     31722.0000      9180.0000       924.0000      1832.0000              0              0              0              0              0            100              0           0.00
          12611      1105.0000    111126.0000     31722.0000      9180.0000       924.0000      1832.0000              0              0              0              0              0            100              0           0.00
          12612      1092.8000    111126.0000     31722.0000      9180.0000       924.0000      1832.0000              0              0              0              0              0            100              0           0.00
          12613      1103.8000    111126.0000     31722.0000      9180.0000       924.0000      1832.0000              0              0              0              0              0            100              0           0.00
          12614      1106.2500    111126.0000     31722.0000      9180.0000       924.0000      1832.0000              0              0              0              0              0            100              0           0.00
          12615      1098.9000    111126.0000     31722.0000      9180.0000       924.0000      1832.0000              0              0              0              0              0            100              0           0.00
          12616      1084.8500    111126.0000     31722.0000      9180.0000       924.0000      1832.0000              0              0              0              0              0            100              0           0.00
          12617      1081.8000    111126.0000     31722.0000      9180.0000       924.0000      1832.0000              0              0              0              0              0            100              0           0.00
          12618      1071.4250    111126.0000     31722.0000      9180.0000       924.0000      1832.0000              0              0              0              0              0            100              0           0.00
          12619      1048.2250    111126.0000     31722.0000      9180.0000       924.0000      1832.0000              0              0              0              0              0            100              0           0.00
          12620      1041.5000    111126.0000     31722.0000      9180.0000       924.0000      1832.0000              0              0              0              0              0            100              0           0.00
          12621      1042.7500    111126.0000     31722.0000      9180.0000       924.0000      1832.0000              0              0              0              0              0            100              0           0.00
          12622      1040.3000    111126.0000     31722.0000      9180.0000       924.0000      1832.0000              0              0              0              0              0            100              0           0.00
          12623      1031.1500    111126.0000     31722.0000      9180.0000       924.0000      1832.0000              0              0              0              0              0            100              0           0.00
          12624      1022.0000    111126.0000     31722.0000      9180.0000       924.0000      1832.0000              0              0              0              0              0            100              0           0.00
