#___________________________________________________________________________
~VERSION INFORMATION
 VERS.                                 2.0 : CWLS LOG ASCII STANDARD - VERSION 2.0
 WRAP.                                  NO : ONE LINE PER DEPTH STEP
#___________________________________________________________________________
~WELL INFORMATION
 STRT.F                           10285.00 : START DEPTH
 STOP.F                           16074.00 : STOP DEPTH
 STEP.F                                  1 : STEP VALUE
 NULL.                             -999.25 : NULL VALUE
 COMP.      Magnolia Oil & Gas             : COMPANY
 WELL.      Levi Goodrich Unit 2 2H        : WELL
  FLD.      Giddings                       : FIELD
  LOC.      Washington County              : LOCATION
 CNTY.      Washington County              : PARISH/COUNTY
 STAT.      Texas                          : STATE
 CTRY.      USA                            : COUNTRY
" SRVC.      PetroLog International, Inc.   : SERVICE COMPANY"
 DATE.      05/13/2020                     : LOG DATE
  API.      42-477-31134                   : API REFERENCE NUMBER
#___________________________________________________________________________
~CURVE INFORMATION
#MNEM.UNITS                                : DESCRIPTION
DEPTH.F                                    :  1 DEPTH
 TGAS.Units                                :  2 Chromatograph_TotalGas
 MTHX.PPM                                  :  3 Chromatograph_MethanePPMMax
 ETHX.PPM                                  :  4 Chromatograph_EthanePPMMax
 PRPX.PPM                                  :  5 Chromatograph_PropanePPMMax
 IBTX.PPM                                  :  6 Chromatograph_IButanePPMMax
 NBTX.PPM                                  :  7 Chromatograph_NButanePPMMax
CEMNT.%                                    :  8 Lithology_Cement
SHALE.%                                    :  9 Lithology_Shale
SILTST.%                                   : 10 Lithology_Siltstone
 SAND.%                                    : 11 Lithology_Sand
 LIME.%                                    : 12 Lithology_Lime
 CHLK.%                                    : 13 Lithology_Chalk
  ASH.%                                    : 14 Lithology_Ash
 FRAC.%                                    : 15 Lithology_Fracture
#___________________________________________________________________________
~A        DEPTH           TGAS           MTHX           ETHX           PRPX           IBTX           NBTX          CEMNT          SHALE         SILTST           SAND           LIME           CHLK            ASH           FRAC
# ...
          14497      1976.8000    107197.0000     52658.0000     24907.0000      3999.0000      7862.0000              0              0              0              0              0            100              0           0.00
          14498      1978.0000    107197.0000     52658.0000     24907.0000      3999.0000      7862.0000              0              0              0              0              0            100              0           0.00
          14499      1899.9000    112882.0000     51082.0000     22024.0000      3381.0000      6665.0000              0              0              0              0              0            100              0           0.00
          14500      1978.0000    112882.0000     51082.0000     22024.0000      3381.0000      6665.0000              0              0              0              0              0            100              0           0.00
          14501      2016.5000    112882.0000     51082.0000     22410.0000      3654.0000      7177.0000              0              0              0              0              0            100              0           0.00
          14502      1932.2500     97144.0000     47401.0000     22410.0000      3654.0000      7177.0000              0              0              0              0              0            100              0           0.00
          14503      1940.7750     97144.0000     47401.0000     22410.0000      3654.0000      7177.0000              0              0              0              0              0            100              0           0.00
          14504      2048.8500     97144.0000     47401.0000     22410.0000      3654.0000      7177.0000              0              0              0              0              0            100              0           0.00
          14505      1850.4250     97144.0000     47401.0000     22410.0000      3654.0000      7177.0000              0              0              0              0              0            100              0           0.00
          14506      1437.1000     97144.0000     47401.0000     22410.0000      3654.0000      7177.0000              0              0              0              0              0            100              0           0.00
          14507      1019.5500     97144.0000     47401.0000     22410.0000      3654.0000      7177.0000              0              0              0              0              0            100              0           0.00
          14508       747.2500     97144.0000     47401.0000     22410.0000      3654.0000      7177.0000              0              0              0              0              0            100              0           0.00
          14509       538.4500     97144.0000     47401.0000     22410.0000      3654.0000      7177.0000              0              0              0              0              0            100              0           0.00
          14510       432.2500     97144.0000     47401.0000     22410.0000      3654.0000      7177.0000              0              0              0              0              0            100              0           0.00
          14511       355.3250      6698.0000      4258.0000      3470.0000       664.0000      2618.0000              0              0              0              0              0            100              0           0.00
          14512       316.8500      6698.0000      4258.0000      3470.0000       664.0000      2618.0000              0              0              0              0              0            100              0           0.00
          14513       288.7750      6698.0000      4258.0000      3470.0000       664.0000      2618.0000              0              0              0              0              0            100              0           0.00
          14514       269.8500      6698.0000      4258.0000      3470.0000       664.0000      2618.0000              0              0              0              0              0            100              0           0.00
          14515       258.8500      6698.0000      4258.0000      3470.0000       664.0000      2618.0000              0              0              0              0              0            100              0           0.00
          14516       367.5250      6698.0000      4258.0000      3470.0000       664.0000      2618.0000              0              0              0              0              0            100              0           0.00
          14517       706.3500      6698.0000      4258.0000      3470.0000       664.0000      2618.0000              0              0              0              0              0            100              0           0.00
          14518      1150.2000      6698.0000      4258.0000      3470.0000       664.0000      2618.0000              0              0              0              0              0            100              0           0.00
          14519      1468.8500      6698.0000      4258.0000      3470.0000       664.0000      2618.0000              0              0              0              0              0            100              0           0.00
          14520      1698.4000      6698.0000      4258.0000      3470.0000       664.0000      2618.0000              0              0              0              0              0            100              0           0.00
          14521      1817.4750      6698.0000      4258.0000      3470.0000       664.0000      2618.0000              0              0              0              0              0            100              0           0.00
          14522      1887.6500      6698.0000      4258.0000      3470.0000       664.0000      2618.0000              0              0              0              0              0            100              0           0.00
          14523      1924.3000      6698.0000      4258.0000      3470.0000       664.0000      2618.0000              0              0              0              0              0            100              0           0.00
          14524      2005.5000      6698.0000      4258.0000      3470.0000       664.0000      2618.0000              0              0              0              0              0            100              0           0.00
          14525      2135.5500      6698.0000      4258.0000      3470.0000       664.0000      2618.0000              0              0              0              0              0            100              0           0.00
          14526      2214.9000      6698.0000      4258.0000      3470.0000       664.0000      2618.0000              0              0              0              0              0            100              0           0.00
          14527      2232.6000      6698.0000      4258.0000      3470.0000       664.0000      2618.0000              0              0              0              0              0            100              0           0.00
          14528      2212.4500      6698.0000      4258.0000      3470.0000       664.0000      2618.0000              0              0              0              0              0            100              0           0.00
          14529      2147.7500      6698.0000      4258.0000      3470.0000       664.0000      2618.0000              0              0              0              0              0            100              0           0.00
          14530      2094.6250      6698.0000      4258.0000      3470.0000       664.0000      2618.0000              0              0              0              0              0            100              0           0.00
          14531      2081.8000      6698.0000      4258.0000      3470.0000       664.0000      2618.0000              0              0              0              0              0            100              0           0.00
          14532      2050.0500      6698.0000      4258.0000      3470.0000       664.0000      2618.0000              0              0              0              0              0            100              0           0.00
