#___________________________________________________________________________
~VERSION INFORMATION
 VERS.                                 2.0 : CWLS LOG ASCII STANDARD - VERSION 2.0
 WRAP.                                  NO : ONE LINE PER DEPTH STEP
#___________________________________________________________________________
~WELL INFORMATION
 STRT.F                           10245.00 : START DEPTH
 STOP.F                           18039.00 : STOP DEPTH
 STEP.F                                  1 : STEP VALUE
 NULL.                             -999.25 : NULL VALUE
 COMP.      Magnolia Oil & Gas             : COMPANY
 WELL.      Levi Goodrich Unit 2 3H        : WELL
  FLD.      Giddings                       : FIELD
  LOC.      Washington County              : LOCATION
 CNTY.      Washington County              : PARISH/COUNTY
 STAT.      Texas                          : STATE
 CTRY.      USA                            : COUNTRY
" SRVC.      PetroLog International, Inc.   : SERVICE COMPANY"
 DATE.      06/07/2020                     : LOG DATE
  API.      42-477-31135                   : API REFERENCE NUMBER
#___________________________________________________________________________
~CURVE INFORMATION
#MNEM.UNITS                                : DESCRIPTION
DEPTH.F                                    :  1 DEPTH
 TGAS.Units                                :  2 Chromatograph_TotalGas
 MTHX.PPM                                  :  3 Chromatograph_MethanePPMMax
 ETHX.PPM                                  :  4 Chromatograph_EthanePPMMax
 PRPX.PPM                                  :  5 Chromatograph_PropanePPMMax
 IBTX.PPM                                  :  6 Chromatograph_IButanePPMMax
 NBTX.PPM                                  :  7 Chromatograph_NButanePPMMax
CEMNT.%                                    :  8 Lithology_Cement
SHALE.%                                    :  9 Lithology_Shale
SILTST.%                                   : 10 Lithology_Siltstone
 SAND.%                                    : 11 Lithology_Sand
 LIME.%                                    : 12 Lithology_Lime
 CHLK.%                                    : 13 Lithology_Chalk
  ASH.%                                    : 14 Lithology_Ash
 FRAC.%                                    : 15 Fracture
Kick/Loss.----                             : 16 Kick/Loss
#___________________________________________________________________________
~A        DEPTH           TGAS           MTHX           ETHX           PRPX           IBTX           NBTX          CEMNT          SHALE         SILTST           SAND           LIME           CHLK            ASH           FRAC      Kick/Loss
# ...
          10755      1200.8500    156353.0000     22501.0000      5062.0000       388.0000       680.0000              0              0              0              0              0            100              0           0.00         0.0000
          10756      1156.9000    156353.0000     22501.0000      5062.0000       388.0000       680.0000              0              0              0              0              0            100              0           0.00         0.0000
          10757      1170.9500    156353.0000     22501.0000      5062.0000       388.0000       680.0000              0              0              0              0              0            100              0           0.00         0.0000
          10758      1190.5000    151038.0000     21283.0000      4821.0000       359.0000       325.0000              0              0              0              0              0            100              0           0.00         0.0000
          10759      1191.1000    151038.0000     21283.0000      4821.0000       359.0000       325.0000              0              0              0              0              0            100              0           0.00         0.0000
          10760      1178.2500    151038.0000     21283.0000      4821.0000       359.0000       325.0000              0              0              0              0              0            100              0           0.00         0.0000
          10761      1155.0500    151038.0000     21283.0000      4821.0000       359.0000       325.0000              0              0              0              0              0            100              0           0.00         0.0000
          10762      1167.3000    151038.0000     21283.0000      4821.0000       359.0000       325.0000              0              0              0              0              0            100              0           0.00         0.0000
          10763      1170.9500    151038.0000     21283.0000      4821.0000       359.0000       325.0000              0              0              0              0              0            100              0           0.00         0.0000
          10764      1164.8500    151038.0000     21283.0000      4821.0000       359.0000       325.0000              0              0              0              0              0            100              0           0.00         0.0000
          10765      1159.3500    151038.0000     21283.0000      4821.0000       359.0000       325.0000              0              0              0              0              0            100              0           0.00         0.0000
          10766      1152.6500    153326.0000     21283.0000      4821.0000       359.0000       401.0000              0              0              0              0              0            100              0           0.00         0.0000
          10767      1155.0500    153326.0000     20918.0000      4704.0000       350.0000       401.0000              0              0              0              0              0            100              0           0.00         0.0000
          10768      1161.7750    153326.0000     20918.0000      4704.0000       350.0000       401.0000              0              0              0              0              0            100              0           0.00         0.0000
          10769      1192.9000    153326.0000     20918.0000      4704.0000       350.0000       401.0000              0              0              0              0              0            100              0           0.00         0.0000
          10770      1192.9000    153326.0000     20918.0000      4704.0000       350.0000       401.0000              0              0              0              0              0            100              0           0.00         0.0000
          10771      1163.6250    153326.0000     20918.0000      4704.0000       350.0000       401.0000              0              0              0              0              0            100              0           0.00         0.0000
          10772      1173.4000    153326.0000     20918.0000      4704.0000       350.0000       401.0000              0              0              0              0              0            100              0           0.00         0.0000
          10773      1173.4000    153326.0000     20918.0000      4704.0000       350.0000       401.0000              0              0              0              0              0            100              0           0.00         0.0000
          10774      1315.0000    156802.0000     20918.0000      4704.0000       350.0000       508.0000              0              0              0              0              0            100              0           0.00         0.0000
          10775       977.4000    156802.0000     20641.0000      4566.0000       244.0000       508.0000              0              0              0              0              0            100              0           0.00         0.0000
          10776       991.4500    156802.0000     20641.0000      4566.0000       244.0000       508.0000              0              0              0              0              0            100              0           0.00         0.0000
          10777      1050.6750    156802.0000     20641.0000      4566.0000       244.0000       508.0000              0              0              0              0              0            100              0           0.00         0.0000
          10778      1144.1000    156802.0000     20641.0000      4566.0000       244.0000       508.0000              0              0              0              0              0            100              0           0.00         0.0000
          10779      1228.3500    156802.0000     20641.0000      4566.0000       244.0000       508.0000              0              0              0              0              0            100              0           0.00         0.0000
          10780      1282.0500    156802.0000     27130.0000      7075.0000       588.0000      1074.0000              0              0              0              0              0            100              0           0.00         0.0000
          10781      1283.2500    151161.0000     27130.0000      7075.0000       588.0000      1074.0000              0              0              0              0              0            100              0           0.00         0.0000
          10782      1246.6500    151161.0000     27130.0000      7075.0000       588.0000      1074.0000              0              0              0              0              0            100              0           0.00         0.0000
          10783      1185.6000    151161.0000     27130.0000      7075.0000       588.0000      1074.0000              0              0              0              0              0            100              0           0.00         0.0000
          10784      1172.1500    151161.0000     27130.0000      7075.0000       588.0000      1074.0000              0              0              0              0              0            100              0           0.00         0.0000
          10785      1146.5000    151161.0000     27130.0000      7075.0000       588.0000      1074.0000              0              0              0              0              0            100              0           0.00         0.0000
          10786      1147.7500    151161.0000     27130.0000      7075.0000       588.0000      1074.0000              0              0              0              0              0            100              0           0.00         0.0000
          10787      1145.3000    151161.0000     27130.0000      7075.0000       588.0000      1074.0000              0              0              0              0              0            100              0           0.00         0.0000
          10788      1146.5000    151161.0000     27130.0000      7075.0000       588.0000      1074.0000              0              0              0              0              0            100              0           0.00         0.0000
