#___________________________________________________________________________
~VERSION INFORMATION
 VERS.                                 2.0 : CWLS LOG ASCII STANDARD - VERSION 2.0
 WRAP.                                  NO : ONE LINE PER DEPTH STEP
#___________________________________________________________________________
~WELL INFORMATION
 STRT.F                           10245.00 : START DEPTH
 STOP.F                           18039.00 : STOP DEPTH
 STEP.F                                  1 : STEP VALUE
 NULL.                             -999.25 : NULL VALUE
 COMP.      Magnolia Oil & Gas             : COMPANY
 WELL.      Levi Goodrich Unit 2 3H        : WELL
  FLD.      Giddings                       : FIELD
  LOC.      Washington County              : LOCATION
 CNTY.      Washington County              : PARISH/COUNTY
 STAT.      Texas                          : STATE
 CTRY.      USA                            : COUNTRY
" SRVC.      PetroLog International, Inc.   : SERVICE COMPANY"
 DATE.      06/07/2020                     : LOG DATE
  API.      42-477-31135                   : API REFERENCE NUMBER
#___________________________________________________________________________
~CURVE INFORMATION
#MNEM.UNITS                                : DESCRIPTION
DEPTH.F                                    :  1 DEPTH
 TGAS.Units                                :  2 Chromatograph_TotalGas
 MTHX.PPM                                  :  3 Chromatograph_MethanePPMMax
 ETHX.PPM                                  :  4 Chromatograph_EthanePPMMax
 PRPX.PPM                                  :  5 Chromatograph_PropanePPMMax
 IBTX.PPM                                  :  6 Chromatograph_IButanePPMMax
 NBTX.PPM                                  :  7 Chromatograph_NButanePPMMax
CEMNT.%                                    :  8 Lithology_Cement
SHALE.%                                    :  9 Lithology_Shale
SILTST.%                                   : 10 Lithology_Siltstone
 SAND.%                                    : 11 Lithology_Sand
 LIME.%                                    : 12 Lithology_Lime
 CHLK.%                                    : 13 Lithology_Chalk
  ASH.%                                    : 14 Lithology_Ash
 FRAC.%                                    : 15 Fracture
Kick/Loss.----                             : 16 Kick/Loss
#___________________________________________________________________________
~A        DEPTH           TGAS           MTHX           ETHX           PRPX           IBTX           NBTX          CEMNT          SHALE         SILTST           SAND           LIME           CHLK            ASH           FRAC      Kick/Loss
# ...
          14903       934.0750     19277.0000      7334.0000      2968.0000       152.0000       813.0000              0              0              0              0              0            100              0           0.00         0.0000
          14904      1079.3500     19277.0000      7334.0000      2968.0000       152.0000       813.0000              0              0              0              0              0            100              0           0.00         0.0000
          14905      1162.4000     19277.0000      7334.0000      2968.0000       152.0000       813.0000              0              0              0              0              0            100              0           0.00         0.0000
          14906      1212.4500     19277.0000      7334.0000      2968.0000       152.0000       813.0000              0              0              0              0              0            100              0           0.00         0.0000
          14907      1246.0250     19277.0000      7334.0000      2968.0000       152.0000       813.0000              0              0              0              0              0            100              0           0.00         0.0000
          14908      1269.8250     19277.0000      7334.0000      2968.0000       152.0000       813.0000              0              0              0              0              0            100              0           0.00         0.0000
          14909      1287.5500     19277.0000      7334.0000      2968.0000       152.0000       813.0000              0              0              0              0              0            100              0           0.00         0.0000
          14910      1306.4500     19277.0000      7334.0000      2968.0000       152.0000       813.0000              0              0              0              0              0            100              0           0.00         0.0000
          14911      1332.1000     19277.0000      7334.0000      2968.0000       152.0000       813.0000              0              0              0              0              0            100              0           0.00         0.0000
          14912      1357.7500     19277.0000      7334.0000      2968.0000       152.0000       813.0000              0              0              0              0              0            100              0           0.00         0.0000
          14913      1363.8500     19277.0000      7334.0000      2968.0000       152.0000       813.0000              0              0              0              0              0            100              0           0.00         0.0000
          14914      1377.3000    155597.0000     39541.0000     11612.0000      1461.0000      2587.0000              0              0              0              0              0            100              0           0.00         0.0000
          14915       164.8500    155597.0000     39541.0000     11612.0000      1461.0000      2587.0000              0              0              0              0              0            100              0           0.00         0.0000
          14916       183.1500    155597.0000     39541.0000     11612.0000      1461.0000      2587.0000              0              0              0              0              0            100              0           0.00         0.0000
          14917       528.7000    155597.0000     39541.0000     11612.0000      1461.0000      2587.0000              0              0              0              0              0            100              0           0.00         0.0000
          14918       843.7000     11347.0000      5065.0000      2031.0000        45.0000       154.0000              0              0              0              0              0            100              0           0.00         0.0000
          14919      1026.8500     11347.0000      5065.0000      2031.0000        45.0000       154.0000              0              0              0              0              0            100              0           0.00         0.0000
          14920      1131.8500     11347.0000      5065.0000      2031.0000        45.0000       154.0000              0              0              0              0              0            100              0           0.00         0.0000
          14921      1213.6750     11347.0000      5065.0000      2031.0000        45.0000       154.0000              0              0              0              0              0            100              0           0.00         0.0000
          14922      1285.7250     11347.0000      5065.0000      2031.0000        45.0000       154.0000              0              0              0              0              0            100              0           0.00         0.0000
          14923      1321.1500     11347.0000      5065.0000      2031.0000        45.0000       154.0000              0              0              0              0              0            100              0           0.00         0.0000
          14924      1334.5500     11347.0000      5065.0000      2031.0000        45.0000       154.0000              0              0              0              0              0            100              0           0.00         0.0000
          14925      1361.4000     11347.0000      5065.0000      2031.0000        45.0000       154.0000              0              0              0              0              0            100              0           0.00         0.0000
          14926      1388.3000     11347.0000      5065.0000      2031.0000        45.0000       154.0000              0              0              0              0              0            100              0           0.00         0.0000
          14927      1401.7000     11347.0000      5065.0000      2031.0000        45.0000       154.0000              0              0              0              0              0            100              0           0.00         0.0000
          14928      1399.2500     11347.0000      5065.0000      2031.0000        45.0000       154.0000              0              0              0              0              0            100              0           0.00         0.0000
          14929      1387.6750     11347.0000      5065.0000      2031.0000        45.0000       154.0000              0              0              0              0              0            100              0           0.00         0.0000
          14930      1369.9500     11347.0000      5065.0000      2031.0000        45.0000       154.0000              0              0              0              0              0            100              0           0.00         0.0000
          14931      1340.0500     11347.0000      5065.0000      2031.0000        45.0000       154.0000              0              0              0              0              0            100              0           0.00         0.0000
          14932      1344.3000     11347.0000      5065.0000      2031.0000        45.0000       154.0000              0              0              0              0              0            100              0           0.00         0.0000
          14933      1352.2500     11347.0000      5065.0000      2031.0000        45.0000       154.0000              0              0              0              0              0            100              0           0.00         0.0000
          14934      1374.8500    138649.0000     36666.0000     11285.0000      1472.0000      2602.0000              0              0              0              0              0            100              0           0.00         0.0000
          14935      1382.2000    138649.0000     36666.0000     11285.0000      1472.0000      2602.0000              0              0              0              0              0            100              0           0.00         0.0000
          14936      1378.5000    138649.0000     36666.0000     11285.0000      1472.0000      2602.0000              0              0              0              0              0            100              0           0.00         0.0000
