#___________________________________________________________________________
~VERSION INFORMATION
 VERS.                                 2.0 : CWLS LOG ASCII STANDARD - VERSION 2.0
 WRAP.                                  NO : ONE LINE PER DEPTH STEP
#___________________________________________________________________________
~WELL INFORMATION
 STRT.F                           10245.00 : START DEPTH
 STOP.F                           18039.00 : STOP DEPTH
 STEP.F                                  1 : STEP VALUE
 NULL.                             -999.25 : NULL VALUE
 COMP.      Magnolia Oil & Gas             : COMPANY
 WELL.      Levi Goodrich Unit 2 3H        : WELL
  FLD.      Giddings                       : FIELD
  LOC.      Washington County              : LOCATION
 CNTY.      Washington County              : PARISH/COUNTY
 STAT.      Texas                          : STATE
 CTRY.      USA                            : COUNTRY
" SRVC.      PetroLog International, Inc.   : SERVICE COMPANY"
 DATE.      06/07/2020                     : LOG DATE
  API.      42-477-31135                   : API REFERENCE NUMBER
#___________________________________________________________________________
~CURVE INFORMATION
#MNEM.UNITS                                : DESCRIPTION
DEPTH.F                                    :  1 DEPTH
 TGAS.Units                                :  2 Chromatograph_TotalGas
 MTHX.PPM                                  :  3 Chromatograph_MethanePPMMax
 ETHX.PPM                                  :  4 Chromatograph_EthanePPMMax
 PRPX.PPM                                  :  5 Chromatograph_PropanePPMMax
 IBTX.PPM                                  :  6 Chromatograph_IButanePPMMax
 NBTX.PPM                                  :  7 Chromatograph_NButanePPMMax
CEMNT.%                                    :  8 Lithology_Cement
SHALE.%                                    :  9 Lithology_Shale
SILTST.%                                   : 10 Lithology_Siltstone
 SAND.%                                    : 11 Lithology_Sand
 LIME.%                                    : 12 Lithology_Lime
 CHLK.%                                    : 13 Lithology_Chalk
  ASH.%                                    : 14 Lithology_Ash
 FRAC.%                                    : 15 Fracture
Kick/Loss.----                             : 16 Kick/Loss
#___________________________________________________________________________
~A        DEPTH           TGAS           MTHX           ETHX           PRPX           IBTX           NBTX          CEMNT          SHALE         SILTST           SAND           LIME           CHLK            ASH           FRAC      Kick/Loss
          10245        22.0000       174.0000         0.0000         0.0000         0.0000         0.0000             20              0              0              0              0             80              0           0.00         0.0000
          10246        20.1500       174.0000         0.0000         0.0000         0.0000         0.0000             20              0              0              0              0             80              0           0.00         0.0000
          10247        23.2000       174.0000         0.0000         0.0000         0.0000         0.0000             20              0              0              0              0             80              0           0.00         0.0000
          10248        24.4000       174.0000         0.0000         0.0000         0.0000         0.0000             20              0              0              0              0             80              0           0.00         0.0000
          10249        28.1000       294.0000         0.0000         0.0000         0.0000         0.0000             20              0              0              0              0             80              0           0.00         0.0000
          10250        21.3750       211.0000         0.0000         0.0000         0.0000         0.0000             20              0              0              0              0             80              0           0.00         0.0000
          10251        24.0000       211.0000         0.0000         0.0000         0.0000         0.0000             20              0              0              0              0             80              0           0.00         0.0000
          10252        22.0000       211.0000         0.0000         0.0000         0.0000         0.0000             20              0              0              0              0             80              0           0.00         0.0000
          10253        25.6500       209.0000         0.0000         0.0000         0.0000         0.0000             20              0              0              0              0             80              0           0.00         0.0000
          10254        28.1000       732.0000         0.0000         0.0000         0.0000         0.0000             20              0              0              0              0             80              0           0.00         0.0000
          10255        22.0000       301.0000         0.0000         0.0000         0.0000         0.0000             20              0              0              0              0             80              0           0.00         0.0000
          10256        23.8000       301.0000         0.0000         0.0000         0.0000         0.0000              0             10              0              0              0             90              0           0.00         0.0000
          10257        25.6500       301.0000         0.0000         0.0000         0.0000         0.0000              0             10              0              0              0             90              0           0.00         0.0000
          10258        25.6500       301.0000         0.0000         0.0000         0.0000         0.0000              0             10              0              0              0             90              0           0.00         0.0000
          10259        26.8500       301.0000         0.0000         0.0000         0.0000         0.0000              0             10              0              0              0             90              0           0.00         0.0000
          10260        26.2500       261.0000         0.0000         0.0000         0.0000         0.0000              0             10              0              0              0             90              0           0.00         0.0000
          10261        26.8500       261.0000         0.0000         0.0000         0.0000         0.0000              0             10              0              0              0             90              0           0.00         0.0000
          10262        27.4750       380.0000         0.0000         0.0000         0.0000         0.0000              0             10              0              0              0             90              0           0.00         0.0000
          10263        26.8500       380.0000         0.0000         0.0000         0.0000         0.0000              0             10              0              0              0             90              0           0.00         0.0000
          10264        26.8500       380.0000         0.0000         0.0000         0.0000         0.0000              0             10              0              0              0             90              0           0.00         0.0000
          10265        28.1000       380.0000         0.0000         0.0000         0.0000         0.0000              0             10              0              0              0             90              0           0.00         0.0000
          10266        28.1000       653.0000         0.0000         0.0000         0.0000         0.0000              0             10              0              0              0             90              0           0.00         0.0000
          10267        28.1000       653.0000         0.0000         0.0000         0.0000         0.0000              0             10              0              0              0             90              0           0.00         0.0000
          10268        22.0000       653.0000         0.0000         0.0000         0.0000         0.0000              0             10              0              0              0             90              0           0.00         0.0000
          10269        22.0000       653.0000         0.0000         0.0000         0.0000         0.0000              0             10              0              0              0             90              0           0.00         0.0000
          10270        28.1000       653.0000         0.0000         0.0000         0.0000         0.0000              0             10              0              0              0             90              0           0.00         0.0000
          10271        30.5500       653.0000         0.0000         0.0000         0.0000         0.0000              0             10              0              0              0             90              0           0.00         0.0000
          10272        31.7500       994.0000         0.0000         0.0000         0.0000         0.0000              0             10              0              0              0             90              0           0.00         0.0000
          10273        30.5500       994.0000         0.0000         0.0000         0.0000         0.0000              0             10              0              0              0             90              0           0.00         0.0000
          10274        25.6500       994.0000         0.0000         0.0000         0.0000         0.0000              0             10              0              0              0             90              0           0.00         0.0000
          10275        20.7750       994.0000         0.0000         0.0000         0.0000         0.0000              0             10              0              0              0             90              0           0.00         0.0000
          10276        20.7500       994.0000         0.0000         0.0000         0.0000         0.0000              0             10              0              0              0             90              0           0.00         0.0000
          10277        20.7500       711.0000         0.0000         0.0000         0.0000         0.0000              0             10              0              0              0             90              0           0.00         0.0000
          10278        20.7500       711.0000         0.0000         0.0000         0.0000         0.0000              0             10              0              0              0             90              0           0.00         0.0000
