#___________________________________________________________________________
~VERSION INFORMATION
 VERS.                                 2.0 : CWLS LOG ASCII STANDARD - VERSION 2.0
 WRAP.                                  NO : ONE LINE PER DEPTH STEP
#___________________________________________________________________________
~WELL INFORMATION
 STRT.F                           10245.00 : START DEPTH
 STOP.F                           18039.00 : STOP DEPTH
 STEP.F                                  1 : STEP VALUE
 NULL.                             -999.25 : NULL VALUE
 COMP.      Magnolia Oil & Gas             : COMPANY
 WELL.      Levi Goodrich Unit 2 3H        : WELL
  FLD.      Giddings                       : FIELD
  LOC.      Washington County              : LOCATION
 CNTY.      Washington County              : PARISH/COUNTY
 STAT.      Texas                          : STATE
 CTRY.      USA                            : COUNTRY
" SRVC.      PetroLog International, Inc.   : SERVICE COMPANY"
 DATE.      06/07/2020                     : LOG DATE
  API.      42-477-31135                   : API REFERENCE NUMBER
#___________________________________________________________________________
~CURVE INFORMATION
#MNEM.UNITS                                : DESCRIPTION
DEPTH.F                                    :  1 DEPTH
 TGAS.Units                                :  2 Chromatograph_TotalGas
 MTHX.PPM                                  :  3 Chromatograph_MethanePPMMax
 ETHX.PPM                                  :  4 Chromatograph_EthanePPMMax
 PRPX.PPM                                  :  5 Chromatograph_PropanePPMMax
 IBTX.PPM                                  :  6 Chromatograph_IButanePPMMax
 NBTX.PPM                                  :  7 Chromatograph_NButanePPMMax
CEMNT.%                                    :  8 Lithology_Cement
SHALE.%                                    :  9 Lithology_Shale
SILTST.%                                   : 10 Lithology_Siltstone
 SAND.%                                    : 11 Lithology_Sand
 LIME.%                                    : 12 Lithology_Lime
 CHLK.%                                    : 13 Lithology_Chalk
  ASH.%                                    : 14 Lithology_Ash
 FRAC.%                                    : 15 Fracture
Kick/Loss.----                             : 16 Kick/Loss
#___________________________________________________________________________
~A        DEPTH           TGAS           MTHX           ETHX           PRPX           IBTX           NBTX          CEMNT          SHALE         SILTST           SAND           LIME           CHLK            ASH           FRAC      Kick/Loss
# ...
          15923       906.6000    117483.0000     23329.0000      6389.0000       765.0000      1566.0000              0              0              0              0              0            100              0           0.00        -1.0000
          15924       550.6500    117483.0000     23329.0000      6389.0000       765.0000      1566.0000              0              0              0              0              0            100              0           0.00        -1.0000
          15925       326.0250    117483.0000     23329.0000      6389.0000       765.0000      1566.0000              0              0              0              0              0            100              0           0.00        -1.0000
          15926       720.4000    117483.0000     23329.0000      6389.0000       765.0000      1566.0000              0              0              0              0              0            100              0           0.00        -1.0000
          15927      1083.0250    117483.0000     23329.0000      6389.0000       765.0000      1566.0000              0              0              0              0              0            100              0           0.00        -1.0000
          15928      1155.6750    117483.0000     23329.0000      6389.0000       765.0000      1566.0000              0              0              0              0              0            100              0           0.00        -1.0000
          15929      1212.4500    117483.0000     23329.0000      6389.0000       765.0000      1566.0000              0              0              0              0              0            100              0           0.00        -1.0000
          15930      1227.7250    110297.0000     20560.0000      5556.0000       654.0000      1339.0000              0              0              0              0              0            100              0           0.00        -1.0000
          15931      1213.7000    110297.0000     20560.0000      5556.0000       654.0000      1339.0000              0              0              0              0              0            100              0           0.00        -1.0000
          15932      1206.3500    110297.0000     20560.0000      5556.0000       654.0000      1339.0000              0              0              0              0              0            100              0           0.00        -1.0000
          15933      1205.1500    110297.0000     20560.0000      5556.0000       654.0000      1339.0000              0              0              0              0              0            100              0           0.00        -1.0000
          15934      1207.5500    110297.0000     20560.0000      5556.0000       654.0000      1339.0000              0              0              0              0              0            100              0           0.00        -1.0000
          15935      1221.0000    110297.0000     20560.0000      5556.0000       654.0000      1339.0000              0              0              0              0              0            100              0           0.00        -1.0000
          15936      1217.3500    110297.0000     20560.0000      5556.0000       654.0000      1339.0000              0              0              0              0              0            100              0           0.00        -1.0000
          15937      1253.3500    110297.0000     20560.0000      5556.0000       654.0000      1339.0000              0              0              0              0              0            100              0           0.00        -1.0000
          15938      1281.4500    123877.0000     21372.0000      5717.0000       681.0000      1440.0000              0              0              0              0              0            100              0           0.00        -1.0000
          15939      1238.1000    123877.0000     21372.0000      5717.0000       681.0000      1440.0000              0              0              0              0              0            100              0           0.00        -1.0000
          15940      1213.7000    123877.0000     21372.0000      5717.0000       681.0000      1440.0000              0              0              0              0              0            100              0           0.00        -1.0000
          15941      1206.3500    123877.0000     21372.0000      5717.0000       681.0000      1440.0000              0              0              0              0              0            100              0           0.00        -1.0000
          15942      1217.9500    123877.0000     21372.0000      5717.0000       681.0000      1440.0000              0              0              0              0              0            100              0           0.00        -1.0000
          15943      1221.0000    123877.0000     21372.0000      5717.0000       681.0000      1440.0000              0              0              0              0              0            100              0           0.00        -1.0000
          15944      1218.5500    123877.0000     21372.0000      5717.0000       681.0000      1440.0000              0              0              0              0              0            100              0           0.00        -1.0000
          15945      1230.7500    123877.0000     21372.0000      5717.0000       681.0000      1440.0000              0              0              0              0              0            100              0           0.00        -1.0000
          15946      1258.8500    123877.0000     21372.0000      5717.0000       681.0000      1440.0000              0              0              0              0              0            100              0           0.00        -1.0000
          15947      1291.8000    123877.0000     21372.0000      5717.0000       681.0000      1440.0000              0              0              0              0              0            100              0           0.00        -1.0000
          15948      1291.8000    127050.0000     21416.0000      5717.0000       681.0000      1440.0000              0              0              0              0              0            100              0           0.00        -1.0000
          15949      1310.1500    127050.0000     21416.0000      5683.0000       668.0000      1413.0000              0              0              0              0              0            100              0           0.00        -1.0000
          15950      1319.9000    127050.0000     21416.0000      5683.0000       668.0000      1413.0000              0              0              0              0              0            100              0           0.00        -1.0000
          15951      1316.2500    127050.0000     21416.0000      5683.0000       668.0000      1413.0000              0              0              0              0              0            100              0           0.00        -1.0000
          15952      1291.2000    127050.0000     21416.0000      5683.0000       668.0000      1413.0000              0              0              0              0              0            100              0           0.00        -1.0000
          15953      1310.1500    127050.0000     21416.0000      5683.0000       668.0000      1413.0000              0              0              0              0              0            100              0           0.00        -1.0000
          15954      1312.6000    127050.0000     21416.0000      5683.0000       668.0000      1413.0000              0              0              0              0              0            100              0           0.00        -1.0000
          15955      1318.7000    127050.0000     21416.0000      5683.0000       668.0000      1413.0000              0              0              0              0              0            100              0           0.00        -1.0000
          15956      1319.9000    127050.0000     21416.0000      5683.0000       668.0000      1413.0000              0              0              0              0              0            100              0           0.00        -1.0000
