#___________________________________________________________________________
~VERSION INFORMATION
 VERS.                                 2.0 : CWLS LOG ASCII STANDARD - VERSION 2.0
 WRAP.                                  NO : ONE LINE PER DEPTH STEP
#___________________________________________________________________________
~WELL INFORMATION
 STRT.F                           10285.00 : START DEPTH
 STOP.F                           16074.00 : STOP DEPTH
 STEP.F                                  1 : STEP VALUE
 NULL.                             -999.25 : NULL VALUE
 COMP.      Magnolia Oil & Gas             : COMPANY
 WELL.      Levi Goodrich Unit 2 2H        : WELL
  FLD.      Giddings                       : FIELD
  LOC.      Washington County              : LOCATION
 CNTY.      Washington County              : PARISH/COUNTY
 STAT.      Texas                          : STATE
 CTRY.      USA                            : COUNTRY
" SRVC.      PetroLog International, Inc.   : SERVICE COMPANY"
 DATE.      05/13/2020                     : LOG DATE
  API.      42-477-31134                   : API REFERENCE NUMBER
#___________________________________________________________________________
~CURVE INFORMATION
#MNEM.UNITS                                : DESCRIPTION
DEPTH.F                                    :  1 DEPTH
 TGAS.Units                                :  2 Chromatograph_TotalGas
 MTHX.PPM                                  :  3 Chromatograph_MethanePPMMax
 ETHX.PPM                                  :  4 Chromatograph_EthanePPMMax
 PRPX.PPM                                  :  5 Chromatograph_PropanePPMMax
 IBTX.PPM                                  :  6 Chromatograph_IButanePPMMax
 NBTX.PPM                                  :  7 Chromatograph_NButanePPMMax
CEMNT.%                                    :  8 Lithology_Cement
SHALE.%                                    :  9 Lithology_Shale
SILTST.%                                   : 10 Lithology_Siltstone
 SAND.%                                    : 11 Lithology_Sand
 LIME.%                                    : 12 Lithology_Lime
 CHLK.%                                    : 13 Lithology_Chalk
  ASH.%                                    : 14 Lithology_Ash
 FRAC.%                                    : 15 Lithology_Fracture
#___________________________________________________________________________
~A        DEPTH           TGAS           MTHX           ETHX           PRPX           IBTX           NBTX          CEMNT          SHALE         SILTST           SAND           LIME           CHLK            ASH           FRAC
# ...
          12985      1937.7500    107486.0000     33387.0000     14608.0000      2479.0000      5371.0000              0              0              0              0              0            100              0           0.00
          12986      1933.4500    107486.0000     33387.0000     14608.0000      2479.0000      5371.0000              0              0              0              0              0            100              0           0.00
          12987      1811.3500    107486.0000     33387.0000     14608.0000      2479.0000      5371.0000              0              0              0              0              0            100              0           0.00
          12988      1628.8000    107486.0000     33387.0000     14608.0000      2479.0000      5371.0000              0              0              0              0              0            100              0           0.00
          12989      1490.8500    107486.0000     33387.0000     14608.0000      2479.0000      5371.0000              0              0              0              0              0            100              0           0.00
          12990      1321.7500    107486.0000     33387.0000     14608.0000      2479.0000      5371.0000              0              0              0              0              0            100              0           0.00
          12991      1195.3500    107486.0000     33387.0000     14608.0000      2479.0000      5371.0000              0              0              0              0              0            100              0           0.00
          12992      1260.1000    107486.0000     33387.0000     14608.0000      2479.0000      5371.0000              0              0              0              0              0            100              0           0.00
          12993      1326.6250     64569.0000     25699.0000     12769.0000      2349.0000      5176.0000              0              0              0              0              0            100              0           0.00
          12994      1404.1500     64569.0000     25699.0000     12769.0000      2349.0000      5176.0000              0              0              0              0              0            100              0           0.00
          12995      1523.2000     64569.0000     25699.0000     12769.0000      2349.0000      5176.0000              0              0              0              0              0            100              0           0.00
          12996      1653.2500     64569.0000     25699.0000     12769.0000      2349.0000      5176.0000              0              0              0              0              0            100              0           0.00
          12997      1813.2000     64569.0000     25699.0000     12769.0000      2349.0000      5176.0000              0              0              0              0              0            100              0           0.00
          12998      1963.9750     64569.0000     25699.0000     12769.0000      2349.0000      5176.0000              0              0              0              0              0            100              0           0.00
          12999      2082.4250     64569.0000     25699.0000     12769.0000      2349.0000      5176.0000              0              0              0              0              0            100              0           0.00
          13000      2168.5000     64569.0000     25699.0000     12769.0000      2349.0000      5176.0000              0              0              0              0              0            100              0           0.00
          13001      2216.7250     64569.0000     25699.0000     12769.0000      2349.0000      5176.0000              0              0              0              0              0            100              0           0.00
          13002      2224.0500     64569.0000     25699.0000     12769.0000      2349.0000      5176.0000              0              0              0              0              0            100              0           0.00
          13003      2232.0000     64569.0000     25699.0000     12769.0000      2349.0000      5176.0000              0              0              0              0              0            100              0           0.00
          13004      2241.7500     64569.0000     25699.0000     12769.0000      2349.0000      5176.0000              0              0              0              0              0            100              0           0.00
          13005      2253.9500     64569.0000     25699.0000     12769.0000      2349.0000      5176.0000              0              0              0              0              0            100              0           0.00
          13006      2269.8500     64569.0000     25699.0000     12769.0000      2349.0000      5176.0000              0              0              0              0              0            100              0           0.00
          13007      2274.7500     64569.0000     25699.0000     12769.0000      2349.0000      5176.0000              0              0              0              0              0            100              0           0.00
          13008      2282.0500     64569.0000     25699.0000     12769.0000      2349.0000      5176.0000              0              0              0              0              0            100              0           0.00
          13009      2280.8500     64569.0000     25699.0000     12769.0000      2349.0000      5176.0000              0              0              0              0              0            100              0           0.00
          13010      2272.3000     64569.0000     25699.0000     12769.0000      2349.0000      5176.0000              0              0              0              0              0            100              0           0.00
          13011      2249.7000     64569.0000     25699.0000     12769.0000      2349.0000      5176.0000              0              0              0              0              0            100              0           0.00
          13012      2233.2000     64569.0000     25699.0000     12769.0000      2349.0000      5176.0000              0              0              0              0              0            100              0           0.00
          13013      2251.5500     64569.0000     25699.0000     12769.0000      2349.0000      5176.0000              0              0              0              0              0            100              0           0.00
          13014      2313.8000     64569.0000     25699.0000     12769.0000      2349.0000      5176.0000              0              0              0              0              0            100              0           0.00
          13015      2413.3250     64569.0000     25699.0000     12769.0000      2349.0000      5176.0000              0              0              0              0              0            100              0           0.00
          13016      2490.8500    129080.0000     66928.0000     35806.0000      6155.0000     12240.0000              0              0              0              0              0            100              0           0.00
          13017      2599.5000    129080.0000     66928.0000     35806.0000      6155.0000     12240.0000              0              0              0              0              0            100              0           0.00
          13018      2599.5000    129080.0000     66928.0000     35806.0000      6155.0000     12240.0000              0              0              0              0              0            100              0           0.00
          13019      2551.9000    129080.0000     66928.0000     35806.0000      6155.0000     12240.0000              0              0              0              0              0            100              0           0.00
          13020      2424.9000    129080.0000     66928.0000     35806.0000      6155.0000     12240.0000              0              0              0              0              0            100              0           0.00
