#___________________________________________________________________________
~VERSION INFORMATION
 VERS.                                 2.0 : CWLS LOG ASCII STANDARD - VERSION 2.0
 WRAP.                                  NO : ONE LINE PER DEPTH STEP
#___________________________________________________________________________
~WELL INFORMATION
 STRT.F                           10285.00 : START DEPTH
 STOP.F                           16074.00 : STOP DEPTH
 STEP.F                                  1 : STEP VALUE
 NULL.                             -999.25 : NULL VALUE
 COMP.      Magnolia Oil & Gas             : COMPANY
 WELL.      Levi Goodrich Unit 2 2H        : WELL
  FLD.      Giddings                       : FIELD
  LOC.      Washington County              : LOCATION
 CNTY.      Washington County              : PARISH/COUNTY
 STAT.      Texas                          : STATE
 CTRY.      USA                            : COUNTRY
" SRVC.      PetroLog International, Inc.   : SERVICE COMPANY"
 DATE.      05/13/2020                     : LOG DATE
  API.      42-477-31134                   : API REFERENCE NUMBER
#___________________________________________________________________________
~CURVE INFORMATION
#MNEM.UNITS                                : DESCRIPTION
DEPTH.F                                    :  1 DEPTH
 TGAS.Units                                :  2 Chromatograph_TotalGas
 MTHX.PPM                                  :  3 Chromatograph_MethanePPMMax
 ETHX.PPM                                  :  4 Chromatograph_EthanePPMMax
 PRPX.PPM                                  :  5 Chromatograph_PropanePPMMax
 IBTX.PPM                                  :  6 Chromatograph_IButanePPMMax
 NBTX.PPM                                  :  7 Chromatograph_NButanePPMMax
CEMNT.%                                    :  8 Lithology_Cement
SHALE.%                                    :  9 Lithology_Shale
SILTST.%                                   : 10 Lithology_Siltstone
 SAND.%                                    : 11 Lithology_Sand
 LIME.%                                    : 12 Lithology_Lime
 CHLK.%                                    : 13 Lithology_Chalk
  ASH.%                                    : 14 Lithology_Ash
 FRAC.%                                    : 15 Lithology_Fracture
#___________________________________________________________________________
~A        DEPTH           TGAS           MTHX           ETHX           PRPX           IBTX           NBTX          CEMNT          SHALE         SILTST           SAND           LIME           CHLK            ASH           FRAC
# ...
          10681       412.7000     52972.0000      7931.0000      2007.0000       168.0000       199.0000              0              0              0              0              0            100              0           0.00
          10682       387.6750     52972.0000      7931.0000      2007.0000       168.0000       199.0000              0              0              0              0              0            100              0           0.00
          10683       380.9500     52972.0000      7931.0000      2007.0000       168.0000       199.0000              0              0              0              0              0            100              0           0.00
          10684       388.3000     52972.0000      7931.0000      2007.0000       168.0000       199.0000              0              0              0              0              0            100              0           0.00
          10685       385.2250     52972.0000      7931.0000      2007.0000       168.0000       199.0000              0              0              0              0              0            100              0           0.00
          10686       388.3000     52972.0000      7931.0000      2007.0000       168.0000       199.0000              0              0              0              0              0            100              0           0.00
          10687       406.6000     52972.0000      7931.0000      2007.0000       168.0000       199.0000              0              0              0              0              0            100              0           0.00
          10688       444.4500     52972.0000      7931.0000      2007.0000       168.0000       199.0000              0              0              0              0              0            100              0           0.00
          10689       473.7500     44664.0000      6315.0000      1517.0000        46.0000        75.0000              0              0              0              0              0            100              0           0.00
          10690       494.5000     44664.0000      6315.0000      1517.0000        46.0000        75.0000              0              0              0              0              0            100              0           0.00
          10691       502.4500     44664.0000      6315.0000      1517.0000        46.0000        75.0000              0              0              0              0              0            100              0           0.00
          10692       500.6000     44664.0000      6315.0000      1517.0000        46.0000        75.0000              0              0              0              0              0            100              0           0.00
          10693       487.2000     44664.0000      6315.0000      1517.0000        46.0000        75.0000              0              0              0              0              0            100              0           0.00
          10694       499.4000     44664.0000      6315.0000      1517.0000        46.0000        75.0000              0              0              0              0              0            100              0           0.00
          10695       504.3000     44664.0000      6315.0000      1517.0000        46.0000        75.0000              0              0              0              0              0            100              0           0.00
          10696       496.9500     44664.0000      6315.0000      1517.0000        46.0000        75.0000              0              0              0              0              0            100              0           0.00
          10697       511.6000     44664.0000      6315.0000      1517.0000        46.0000        75.0000              0              0              0              0              0            100              0           0.00
          10698       511.6000     56743.0000      7833.0000      1849.0000       108.0000       126.0000              0              0              0              0              0            100              0           0.00
          10699       510.3750     56743.0000      7833.0000      1849.0000       108.0000       126.0000              0              0              0              0              0            100              0           0.00
          10700       514.0500     56743.0000      7833.0000      1849.0000       108.0000       126.0000              0              0              0              0              0            100              0           0.00
          10701       523.8000     56743.0000      7833.0000      1849.0000       108.0000       126.0000              0              0              0              0              0            100              0           0.00
          10702       523.8250     56743.0000      7833.0000      1849.0000       108.0000       126.0000              0              0              0              0              0            100              0           0.00
          10703       521.3500     56743.0000      7833.0000      1849.0000       108.0000       126.0000              0              0              0              0              0            100              0           0.00
          10704       530.5250     56743.0000      7833.0000      1849.0000       108.0000       126.0000              0              0              0              0              0            100              0           0.00
          10705       544.5500     56743.0000      7833.0000      1849.0000       108.0000       126.0000              0              0              0              0              0            100              0           0.00
          10706       556.8000     57058.0000      8302.0000      1932.0000       167.0000       126.0000              0              0              0              0              0            100              0           0.00
          10707       544.5500     57058.0000      8302.0000      1932.0000       167.0000        76.0000              0              0              0              0              0            100              0           0.00
          10708       538.4500     57058.0000      8302.0000      1932.0000       167.0000        76.0000              0              0              0              0              0            100              0           0.00
          10709       518.9500     57058.0000      8302.0000      1932.0000       167.0000        76.0000              0              0              0              0              0            100              0           0.00
          10710       503.0500     57058.0000      8302.0000      1932.0000       181.0000       169.0000              0              0              0              0              0            100              0           0.00
          10711       492.0500     55331.0000      7547.0000      1743.0000       181.0000       169.0000              0              0              0              0              0            100              0           0.00
          10712       485.9500     55331.0000      7547.0000      1743.0000       181.0000       169.0000              0              0              0              0              0            100              0           0.00
          10713       484.7500     55331.0000      7547.0000      1743.0000       181.0000       169.0000              0              0              0              0              0            100              0           0.00
          10714       474.3500     55331.0000      7547.0000      1743.0000       181.0000       169.0000              0              0              0              0              0            100              0           0.00
          10715       478.6500     55331.0000      7547.0000      1743.0000       181.0000       169.0000              0              0              0              0              0            100              0           0.00
          10716       479.8500     55331.0000      7547.0000      1743.0000       181.0000       169.0000              0              0              0              0              0            100              0           0.00
