#___________________________________________________________________________
~VERSION INFORMATION
 VERS.                                 2.0 : CWLS LOG ASCII STANDARD - VERSION 2.0
 WRAP.                                  NO : ONE LINE PER DEPTH STEP
#___________________________________________________________________________
~WELL INFORMATION
 STRT.F                           10245.00 : START DEPTH
 STOP.F                           18039.00 : STOP DEPTH
 STEP.F                                  1 : STEP VALUE
 NULL.                             -999.25 : NULL VALUE
 COMP.      Magnolia Oil & Gas             : COMPANY
 WELL.      Levi Goodrich Unit 2 3H        : WELL
  FLD.      Giddings                       : FIELD
  LOC.      Washington County              : LOCATION
 CNTY.      Washington County              : PARISH/COUNTY
 STAT.      Texas                          : STATE
 CTRY.      USA                            : COUNTRY
" SRVC.      PetroLog International, Inc.   : SERVICE COMPANY"
 DATE.      06/07/2020                     : LOG DATE
  API.      42-477-31135                   : API REFERENCE NUMBER
#___________________________________________________________________________
~CURVE INFORMATION
#MNEM.UNITS                                : DESCRIPTION
DEPTH.F                                    :  1 DEPTH
 TGAS.Units                                :  2 Chromatograph_TotalGas
 MTHX.PPM                                  :  3 Chromatograph_MethanePPMMax
 ETHX.PPM                                  :  4 Chromatograph_EthanePPMMax
 PRPX.PPM                                  :  5 Chromatograph_PropanePPMMax
 IBTX.PPM                                  :  6 Chromatograph_IButanePPMMax
 NBTX.PPM                                  :  7 Chromatograph_NButanePPMMax
CEMNT.%                                    :  8 Lithology_Cement
SHALE.%                                    :  9 Lithology_Shale
SILTST.%                                   : 10 Lithology_Siltstone
 SAND.%                                    : 11 Lithology_Sand
 LIME.%                                    : 12 Lithology_Lime
 CHLK.%                                    : 13 Lithology_Chalk
  ASH.%                                    : 14 Lithology_Ash
 FRAC.%                                    : 15 Fracture
Kick/Loss.----                             : 16 Kick/Loss
#___________________________________________________________________________
~A        DEPTH           TGAS           MTHX           ETHX           PRPX           IBTX           NBTX          CEMNT          SHALE         SILTST           SAND           LIME           CHLK            ASH           FRAC      Kick/Loss
# ...
          13849       599.5000     74212.0000      9324.0000      2242.0000         0.0000       176.0000              0              0              0              0              0            100              0           0.00        -1.0000
          13850       600.1250     74212.0000      9324.0000      2242.0000         0.0000       176.0000              0              0              0              0              0            100              0           0.00        -1.0000
          13851       600.7500     76316.0000      9430.0000      2298.0000        40.0000       191.0000              0              0              0              0              0            100              0           0.00        -1.0000
          13852       605.0000     76316.0000      9430.0000      2298.0000        40.0000       191.0000              0              0              0              0              0            100              0           0.00        -1.0000
          13853       606.2250     76316.0000      9430.0000      2298.0000        40.0000       191.0000              0              0              0              0              0            100              0           0.00        -1.0000
          13854       601.9500     76316.0000      9430.0000      2298.0000        40.0000       191.0000              0              0              0              0              0            100              0           0.00        -1.0000
          13855       606.8500     76316.0000      9430.0000      2298.0000        40.0000       191.0000              0              0              0              0              0            100              0           0.00        -1.0000
          13856       614.7750     76316.0000      9430.0000      2298.0000        40.0000       191.0000              0              0              0              0              0            100              0           0.00        -1.0000
          13857       611.7000     76316.0000      9430.0000      2298.0000        40.0000       191.0000              0              0              0              0              0            100              0           0.00        -1.0000
          13858       609.3000     76316.0000      9430.0000      2298.0000        40.0000       191.0000              0              0              0              0              0            100              0           0.00        -1.0000
          13859       606.8500     76316.0000      9430.0000      2298.0000        40.0000       191.0000              0              0              0              0              0            100              0           0.00        -1.0000
          13860       598.3000     76316.0000      9430.0000      2298.0000        40.0000       191.0000              0              0              0              0              0            100              0           0.00        -1.0000
          13861       608.6750     76316.0000      9430.0000      2298.0000        40.0000       191.0000              0              0              0              0              0            100              0           0.00        -1.0000
          13862       622.7000     76316.0000      9430.0000      2298.0000        40.0000       191.0000              0              0              0              0              0            100              0           0.00        -1.0000
          13863       625.7750     76316.0000      9430.0000      2298.0000        40.0000       191.0000              0              0              0              0              0            100              0           0.00        -1.0000
          13864       636.1500     76316.0000      9430.0000      2298.0000        40.0000       191.0000              0              0              0              0              0            100              0           0.00        -1.0000
          13865       644.7000     76316.0000      9430.0000      2298.0000        40.0000       191.0000              0              0              0              0              0            100              0           0.00        -1.0000
          13866       648.3500     83247.0000     10583.0000      2624.0000        40.0000       191.0000              0              0              0              0              0            100              0           0.00        -1.0000
          13867       654.4500     83247.0000     10583.0000      2624.0000         0.0000       162.0000              0              0              0              0              0            100              0           0.00        -1.0000
          13868       666.0500     83247.0000     10583.0000      2624.0000         0.0000       162.0000              0              0              0              0              0            100              0           0.00        -1.0000
          13869       668.5000     83247.0000     10583.0000      2624.0000         0.0000       162.0000              0              0              0              0              0            100              0           0.00        -1.0000
          13870       670.3500     83247.0000     10583.0000      2624.0000         0.0000       162.0000              0              0              0              0              0            100              0           0.00        -1.0000
          13871       677.6500     83247.0000     10583.0000      2624.0000         0.0000       162.0000              0              0              0              0              0            100              0           0.00        -1.0000
          13872       678.9000     83247.0000     10583.0000      2624.0000         0.0000       162.0000              0              0              0              0              0            100              0           0.00        -1.0000
          13873       679.5000     83247.0000     10583.0000      2624.0000         0.0000       162.0000              0              0              0              0              0            100              0           0.00        -1.0000
          13874       681.3000     83247.0000     10583.0000      2624.0000         0.0000       162.0000              0              0              0              0              0            100              0           0.00        -1.0000
          13875       677.6500     83247.0000     10583.0000      2624.0000         0.0000       162.0000              0              0              0              0              0            100              0           0.00        -1.0000
          13876       664.2500     83247.0000     10583.0000      2624.0000         0.0000       162.0000              0              0              0              0              0            100              0           0.00        -1.0000
          13877       684.3750     83247.0000     10583.0000      2624.0000         0.0000       162.0000              0              0              0              0              0            100              0           0.00        -1.0000
          13878       695.9500     83247.0000     10583.0000      2624.0000         0.0000       162.0000              0              0              0              0              0            100              0           0.00        -1.0000
          13879       699.6500     83247.0000     10583.0000      2624.0000         0.0000       162.0000              0              0              0              0              0            100              0           0.00        -1.0000
          13880       706.9500     83247.0000     10583.0000      2624.0000         0.0000       162.0000              0              0              0              0              0            100              0           0.00        -1.0000
          13881       715.5000     83247.0000     10583.0000      2624.0000         0.0000       162.0000              0              0              0              0              0            100              0           0.00        -1.0000
          13882       726.5000     83247.0000     10583.0000      2624.0000         0.0000       162.0000              0              0              0              0              0            100              0           0.00        -1.0000
