#___________________________________________________________________________
~VERSION INFORMATION
 VERS.                                 2.0 : CWLS LOG ASCII STANDARD - VERSION 2.0
 WRAP.                                  NO : ONE LINE PER DEPTH STEP
#___________________________________________________________________________
~WELL INFORMATION
 STRT.F                           10285.00 : START DEPTH
 STOP.F                           16074.00 : STOP DEPTH
 STEP.F                                  1 : STEP VALUE
 NULL.                             -999.25 : NULL VALUE
 COMP.      Magnolia Oil & Gas             : COMPANY
 WELL.      Levi Goodrich Unit 2 2H        : WELL
  FLD.      Giddings                       : FIELD
  LOC.      Washington County              : LOCATION
 CNTY.      Washington County              : PARISH/COUNTY
 STAT.      Texas                          : STATE
 CTRY.      USA                            : COUNTRY
" SRVC.      PetroLog International, Inc.   : SERVICE COMPANY"
 DATE.      05/13/2020                     : LOG DATE
  API.      42-477-31134                   : API REFERENCE NUMBER
#___________________________________________________________________________
~CURVE INFORMATION
#MNEM.UNITS                                : DESCRIPTION
DEPTH.F                                    :  1 DEPTH
 TGAS.Units                                :  2 Chromatograph_TotalGas
 MTHX.PPM                                  :  3 Chromatograph_MethanePPMMax
 ETHX.PPM                                  :  4 Chromatograph_EthanePPMMax
 PRPX.PPM                                  :  5 Chromatograph_PropanePPMMax
 IBTX.PPM                                  :  6 Chromatograph_IButanePPMMax
 NBTX.PPM                                  :  7 Chromatograph_NButanePPMMax
CEMNT.%                                    :  8 Lithology_Cement
SHALE.%                                    :  9 Lithology_Shale
SILTST.%                                   : 10 Lithology_Siltstone
 SAND.%                                    : 11 Lithology_Sand
 LIME.%                                    : 12 Lithology_Lime
 CHLK.%                                    : 13 Lithology_Chalk
  ASH.%                                    : 14 Lithology_Ash
 FRAC.%                                    : 15 Lithology_Fracture
#___________________________________________________________________________
~A        DEPTH           TGAS           MTHX           ETHX           PRPX           IBTX           NBTX          CEMNT          SHALE         SILTST           SAND           LIME           CHLK            ASH           FRAC
# ...
          13741      1248.4750    124289.0000     24941.0000      7913.0000      1120.0000      2565.0000              0              0              0              0              0            100              0           0.00
          13742      1289.4000    116560.0000     23101.0000      7639.0000      1120.0000      2565.0000              0              0              0              0              0            100              0           0.00
          13743      1286.9500    116560.0000     23101.0000      7639.0000      1120.0000      2565.0000              0              0              0              0              0            100              0           0.00
          13744      1279.6000    116560.0000     23707.0000      8627.0000      1371.0000      3075.0000              0              0              0              0              0            100              0           0.00
          13745      1363.8500    113300.0000     23707.0000      8627.0000      1371.0000      3075.0000              0              0              0              0              0            100              0           0.00
          13746      1363.8500    113300.0000     28092.0000     10707.0000      1719.0000      3638.0000              0              0              0              0              0            100              0           0.00
          13747      1371.8000    107542.0000     28092.0000     10707.0000      1719.0000      3638.0000              0              0              0              0              0            100              0           0.00
          13748      1404.1500    107542.0000     28092.0000     10707.0000      1719.0000      3638.0000              0              0              0              0              0            100              0           0.00
          13749      1479.8500    107542.0000     28092.0000     10707.0000      1719.0000      3638.0000              0              0              0              0              0            100              0           0.00
          13750      1545.1750    107542.0000     28092.0000     10707.0000      1719.0000      3638.0000              0              0              0              0              0            100              0           0.00
          13751      1559.2000    107542.0000     28092.0000     10707.0000      1719.0000      3638.0000              0              0              0              0              0            100              0           0.00
          13752      1564.1000    107542.0000     28092.0000     10707.0000      1719.0000      3638.0000              0              0              0              0              0            100              0           0.00
          13753      1567.7500    107542.0000     28092.0000     10707.0000      1719.0000      3638.0000              0              0              0              0              0            100              0           0.00
          13754      1565.9500    107542.0000     28092.0000     10707.0000      1719.0000      3638.0000              0              0              0              0              0            100              0           0.00
          13755      1554.3500    107542.0000     28092.0000     10707.0000      1719.0000      3638.0000              0              0              0              0              0            100              0           0.00
          13756      1545.8000    107542.0000     28092.0000     10707.0000      1719.0000      3638.0000              0              0              0              0              0            100              0           0.00
          13757      1589.7500    107542.0000     28092.0000     10707.0000      1719.0000      3638.0000              0              0              0              0              0            100              0           0.00
          13758      1605.6000    107542.0000     28092.0000     10707.0000      1719.0000      3638.0000              0              0              0              0              0            100              0           0.00
          13759      1612.9500    107542.0000     28092.0000     10707.0000      1719.0000      3638.0000              0              0              0              0              0            100              0           0.00
          13760      1612.3250    107542.0000     28092.0000     10707.0000      1719.0000      3638.0000              0              0              0              0              0            100              0           0.00
          13761      1604.4000    107542.0000     28092.0000     10707.0000      1719.0000      3638.0000              0              0              0              0              0            100              0           0.00
          13762      1615.4000    107542.0000     28092.0000     10707.0000      1719.0000      3638.0000              0              0              0              0              0            100              0           0.00
          13763      1630.0500    107542.0000     28092.0000     10707.0000      1719.0000      3638.0000              0              0              0              0              0            100              0           0.00
          13764      1653.2500    107542.0000     28092.0000     10707.0000      1719.0000      3638.0000              0              0              0              0              0            100              0           0.00
          13765      1672.7500    107542.0000     28092.0000     10707.0000      1719.0000      3638.0000              0              0              0              0              0            100              0           0.00
          13766      1686.8250    107542.0000     28092.0000     10707.0000      1719.0000      3638.0000              0              0              0              0              0            100              0           0.00
          13767      1702.1000    107542.0000     28092.0000     10707.0000      1719.0000      3638.0000              0              0              0              0              0            100              0           0.00
          13768      1704.5000    107542.0000     28092.0000     10707.0000      1719.0000      3638.0000              0              0              0              0              0            100              0           0.00
          13769      1706.3500    107542.0000     28092.0000     10707.0000      1719.0000      3638.0000              0              0              0              0              0            100              0           0.00
          13770      1722.8500    107542.0000     28092.0000     10707.0000      1719.0000      3638.0000              0              0              0              0              0            100              0           0.00
          13771      1737.4750    107542.0000     28092.0000     10707.0000      1719.0000      3638.0000              0              0              0              0              0            100              0           0.00
          13772      1737.5000    107542.0000     28092.0000     10707.0000      1719.0000      3638.0000              0              0              0              0              0            100              0           0.00
          13773      1711.8500    107542.0000     42539.0000     19067.0000      2931.0000      5883.0000              0              0              0              0              0            100              0           0.00
          13774      1735.0500     98565.0000     42539.0000     19067.0000      2931.0000      5883.0000              0              0              0              0              0            100              0           0.00
          13775      1732.6000     98565.0000     42539.0000     19067.0000      2931.0000      5883.0000              0              0              0              0              0            100              0           0.00
          13776      1720.4000     98565.0000     42539.0000     19067.0000      2931.0000      5883.0000              0              0              0              0              0            100              0           0.00
