#___________________________________________________________________________
~VERSION INFORMATION
 VERS.                                 2.0 : CWLS LOG ASCII STANDARD - VERSION 2.0
 WRAP.                                  NO : ONE LINE PER DEPTH STEP
#___________________________________________________________________________
~WELL INFORMATION
 STRT.F                           10245.00 : START DEPTH
 STOP.F                           18039.00 : STOP DEPTH
 STEP.F                                  1 : STEP VALUE
 NULL.                             -999.25 : NULL VALUE
 COMP.      Magnolia Oil & Gas             : COMPANY
 WELL.      Levi Goodrich Unit 2 3H        : WELL
  FLD.      Giddings                       : FIELD
  LOC.      Washington County              : LOCATION
 CNTY.      Washington County              : PARISH/COUNTY
 STAT.      Texas                          : STATE
 CTRY.      USA                            : COUNTRY
" SRVC.      PetroLog International, Inc.   : SERVICE COMPANY"
 DATE.      06/07/2020                     : LOG DATE
  API.      42-477-31135                   : API REFERENCE NUMBER
#___________________________________________________________________________
~CURVE INFORMATION
#MNEM.UNITS                                : DESCRIPTION
DEPTH.F                                    :  1 DEPTH
 TGAS.Units                                :  2 Chromatograph_TotalGas
 MTHX.PPM                                  :  3 Chromatograph_MethanePPMMax
 ETHX.PPM                                  :  4 Chromatograph_EthanePPMMax
 PRPX.PPM                                  :  5 Chromatograph_PropanePPMMax
 IBTX.PPM                                  :  6 Chromatograph_IButanePPMMax
 NBTX.PPM                                  :  7 Chromatograph_NButanePPMMax
CEMNT.%                                    :  8 Lithology_Cement
SHALE.%                                    :  9 Lithology_Shale
SILTST.%                                   : 10 Lithology_Siltstone
 SAND.%                                    : 11 Lithology_Sand
 LIME.%                                    : 12 Lithology_Lime
 CHLK.%                                    : 13 Lithology_Chalk
  ASH.%                                    : 14 Lithology_Ash
 FRAC.%                                    : 15 Fracture
Kick/Loss.----                             : 16 Kick/Loss
#___________________________________________________________________________
~A        DEPTH           TGAS           MTHX           ETHX           PRPX           IBTX           NBTX          CEMNT          SHALE         SILTST           SAND           LIME           CHLK            ASH           FRAC      Kick/Loss
# ...
          16433      1138.6000    102737.0000     38808.0000     13952.0000      1831.0000      3576.0000              0              0              0              0              0            100              0           3.00        -1.0000
          16434      1146.5000    102737.0000     26471.0000      8235.0000      1027.0000      2273.0000              0              0              0              0              0            100              0           3.00        -1.0000
          16435      1151.4000    102737.0000     26471.0000      8235.0000      1027.0000      2273.0000              0              0              0              0              0            100              0           3.00        -1.0000
          16436      1150.2000    102737.0000     26471.0000      8235.0000      1027.0000      2273.0000              0              0              0              0              0            100              0           3.00        -1.0000
          16437      1142.8500    102737.0000     26471.0000      8235.0000      1027.0000      2273.0000              0              0              0              0              0            100              0           3.00        -1.0000
          16438      1123.9250    102737.0000     26471.0000      8235.0000      1027.0000      2273.0000              0              0              0              0              0            100              0           3.00        -1.0000
          16439      1111.1000    102737.0000     26471.0000      8235.0000      1027.0000      2273.0000              0              0              0              0              0            100              0           3.00        -1.0000
          16440      1106.2500    102737.0000     26471.0000      8235.0000      1027.0000      2273.0000              0              0              0              0              0            100              0           3.00        -1.0000
          16441      1101.3500    102737.0000     26471.0000      8235.0000      1027.0000      2273.0000              0              0              0              0              0            100              0           3.00        -1.0000
          16442      1101.3500    102737.0000     26471.0000      8235.0000      1027.0000      2273.0000              0              0              0              0              0            100              0           3.00        -1.0000
          16443      1100.1000    102737.0000     26471.0000      8235.0000      1027.0000      2273.0000              0              0              0              0              0            100              0           3.00        -1.0000
          16444      1092.8000    102737.0000     26471.0000      8235.0000      1027.0000      2273.0000              0              0              0              0              0            100              0           3.00        -1.0000
          16445      1084.2500    102737.0000     26471.0000      8235.0000      1027.0000      2273.0000              0              0              0              0              0            100              0           3.00        -1.0000
          16446      1079.3500    102737.0000     26471.0000      8235.0000      1027.0000      2273.0000              0              0              0              0              0            100              0           3.00        -1.0000
          16447      1070.8000    102737.0000     26471.0000      8235.0000      1027.0000      2273.0000              0              0              0              0              0            100              0           3.00        -1.0000
          16448      1062.2500    102737.0000     26471.0000      8235.0000      1027.0000      2273.0000              0              0              0              0              0            100              0           3.00        -1.0000
          16449      1058.6000    102737.0000     26471.0000      8235.0000      1027.0000      2273.0000              0              0              0              0              0            100              0           3.00        -1.0000
          16450      1054.9500    102737.0000     26471.0000      8235.0000      1027.0000      2273.0000              0              0              0              0              0            100              0           3.00        -1.0000
          16451      1051.2750    102737.0000     26471.0000      8235.0000      1027.0000      2273.0000              0              0              0              0              0            100              0           3.00        -1.0000
          16452      1051.3000    102737.0000     26471.0000      8235.0000      1027.0000      2273.0000              0              0              0              0              0            100              0           3.00        -1.0000
          16453      1044.5750    102737.0000     26471.0000      8235.0000      1027.0000      2273.0000              0              0              0              0              0            100              0           3.00        -1.0000
          16454      1031.7500    102737.0000     26471.0000      8235.0000      1027.0000      2273.0000              0              0              0              0              0            100              0           3.00        -1.0000
          16455      1022.0000    102737.0000     26471.0000      8235.0000      1027.0000      2273.0000              0              0              0              0              0            100              0           3.00        -1.0000
          16456      1019.5500    102737.0000     26471.0000      8235.0000      1027.0000      2273.0000              0              0              0              0              0            100              0           3.00        -1.0000
          16457       962.1500    102295.0000     20259.0000      5794.0000       738.0000       879.0000              0              0              0              0              0            100              0           3.00        -1.0000
          16458      1034.8000    102295.0000     20259.0000      5794.0000       738.0000       879.0000              0              0              0              0              0            100              0           3.00        -1.0000
          16459       921.8500    102295.0000     20259.0000      5794.0000       738.0000       879.0000              0              0              0              0              0            100              0           3.00        -1.0000
          16460       921.8500    102295.0000     20259.0000      5794.0000       738.0000       879.0000              0              0              0              0              0            100              0           3.00        -1.0000
          16461       920.6500    102295.0000     20259.0000      5794.0000       738.0000       879.0000              0              0              0              0              0            100              0           3.00        -1.0000
          16462       915.1500    102295.0000     20259.0000      5794.0000       738.0000       879.0000              0              0              0              0              0            100              0           3.00        -1.0000
          16463       908.4500    102295.0000     20259.0000      5794.0000       738.0000       879.0000              0              0              0              0              0            100              0           3.00        -1.0000
          16464       907.2000    102295.0000     20259.0000      5794.0000       738.0000       879.0000              0              0              0              0              0            100              0           3.00        -1.0000
          16465       903.5500    102295.0000     20259.0000      5794.0000       738.0000       879.0000              0              0              0              0              0            100              0           3.00        -1.0000
          16466       899.9000    102295.0000     20259.0000      5794.0000       738.0000       879.0000              0              0              0              0              0            100              0           3.00        -1.0000
