#___________________________________________________________________________
~VERSION INFORMATION
 VERS.                                 2.0 : CWLS LOG ASCII STANDARD - VERSION 2.0
 WRAP.                                  NO : ONE LINE PER DEPTH STEP
#___________________________________________________________________________
~WELL INFORMATION
 STRT.F                           10245.00 : START DEPTH
 STOP.F                           18039.00 : STOP DEPTH
 STEP.F                                  1 : STEP VALUE
 NULL.                             -999.25 : NULL VALUE
 COMP.      Magnolia Oil & Gas             : COMPANY
 WELL.      Levi Goodrich Unit 2 3H        : WELL
  FLD.      Giddings                       : FIELD
  LOC.      Washington County              : LOCATION
 CNTY.      Washington County              : PARISH/COUNTY
 STAT.      Texas                          : STATE
 CTRY.      USA                            : COUNTRY
" SRVC.      PetroLog International, Inc.   : SERVICE COMPANY"
 DATE.      06/07/2020                     : LOG DATE
  API.      42-477-31135                   : API REFERENCE NUMBER
#___________________________________________________________________________
~CURVE INFORMATION
#MNEM.UNITS                                : DESCRIPTION
DEPTH.F                                    :  1 DEPTH
 TGAS.Units                                :  2 Chromatograph_TotalGas
 MTHX.PPM                                  :  3 Chromatograph_MethanePPMMax
 ETHX.PPM                                  :  4 Chromatograph_EthanePPMMax
 PRPX.PPM                                  :  5 Chromatograph_PropanePPMMax
 IBTX.PPM                                  :  6 Chromatograph_IButanePPMMax
 NBTX.PPM                                  :  7 Chromatograph_NButanePPMMax
CEMNT.%                                    :  8 Lithology_Cement
SHALE.%                                    :  9 Lithology_Shale
SILTST.%                                   : 10 Lithology_Siltstone
 SAND.%                                    : 11 Lithology_Sand
 LIME.%                                    : 12 Lithology_Lime
 CHLK.%                                    : 13 Lithology_Chalk
  ASH.%                                    : 14 Lithology_Ash
 FRAC.%                                    : 15 Fracture
Kick/Loss.----                             : 16 Kick/Loss
#___________________________________________________________________________
~A        DEPTH           TGAS           MTHX           ETHX           PRPX           IBTX           NBTX          CEMNT          SHALE         SILTST           SAND           LIME           CHLK            ASH           FRAC      Kick/Loss
# ...
          14393      1112.3500    136183.0000     25430.0000      6187.0000       465.0000       852.0000              0              0              0              0              0            100              0           0.00        -1.0000
          14394      1119.6500    136183.0000     25430.0000      6187.0000       465.0000       852.0000              0              0              0              0              0            100              0           0.00        -1.0000
          14395      1114.8000    130517.0000     24507.0000      6066.0000       436.0000       833.0000              0              0              0              0              0            100              0           0.00        -1.0000
          14396      1089.1500    130517.0000     24692.0000      6383.0000       521.0000       948.0000              0              0              0              0              0            100              0           0.00        -1.0000
          14397      1089.1500    127679.0000     24692.0000      6383.0000       521.0000       948.0000              0              0              0              0              0            100              0           0.00        -1.0000
          14398      1087.9000    127679.0000     24692.0000      6383.0000       521.0000       948.0000              0              0              0              0              0            100              0           0.00        -1.0000
          14399      1083.0500    127679.0000     24692.0000      6383.0000       521.0000       948.0000              0              0              0              0              0            100              0           0.00        -1.0000
          14400      1114.7750    131934.0000     25493.0000      6654.0000       555.0000      1025.0000              0              0              0              0              0            100              0           0.00        -1.0000
          14401      1111.1000    131934.0000     25493.0000      6654.0000       555.0000      1025.0000              0              0              0              0              0            100              0           0.00        -1.0000
          14402      1100.7250    131934.0000     25493.0000      6654.0000       555.0000      1025.0000              0              0              0              0              0            100              0           0.00        -1.0000
          14403      1002.4250    131934.0000     25493.0000      6654.0000       555.0000      1025.0000              0              0              0              0              0            100              0           0.00        -1.0000
          14404       947.5000    131934.0000     25493.0000      6654.0000       555.0000      1025.0000              0              0              0              0              0            100              0           0.00        -1.0000
          14405       700.8500    131934.0000     25493.0000      6654.0000       555.0000      1025.0000              0              0              0              0              0            100              0           0.00        -1.0000
          14406       360.2000    131934.0000     25493.0000      6654.0000       555.0000      1025.0000              0              0              0              0              0            100              0           0.00        -1.0000
          14407       192.9250    131934.0000     25493.0000      6654.0000       555.0000      1025.0000              0              0              0              0              0            100              0           0.00        -1.0000
          14408       328.4500    131934.0000     25493.0000      6654.0000       555.0000      1025.0000              0              0              0              0              0            100              0           0.00        -1.0000
          14409       711.2250    131934.0000     25493.0000      6654.0000       555.0000      1025.0000              0              0              0              0              0            100              0           0.00        -1.0000
          14410       838.2250    131934.0000     25493.0000      6654.0000       555.0000      1025.0000              0              0              0              0              0            100              0           0.00        -1.0000
          14411       892.5500    131934.0000     25493.0000      6654.0000       555.0000      1025.0000              0              0              0              0              0            100              0           0.00        -1.0000
          14412       923.7000    131934.0000     25493.0000      6654.0000       555.0000      1025.0000              0              0              0              0              0            100              0           0.00        -1.0000
          14413       947.5000    131934.0000     25493.0000      6654.0000       555.0000      1025.0000              0              0              0              0              0            100              0           0.00        -1.0000
          14414      1030.5500    105682.0000     23079.0000      6386.0000       537.0000       927.0000              0              0              0              0              0            100              0           0.00        -1.0000
          14415      1082.4250    105682.0000     23079.0000      6386.0000       537.0000       927.0000              0              0              0              0              0            100              0           0.00        -1.0000
          14416      1092.8000    105682.0000     23079.0000      6386.0000       537.0000       927.0000              0              0              0              0              0            100              0           0.00        -1.0000
          14417      1087.9000    105682.0000     23079.0000      6386.0000       537.0000       927.0000              0              0              0              0              0            100              0           0.00        -1.0000
          14418      1361.4000    158932.0000     32056.0000      8372.0000       764.0000      1317.0000              0              0              0              0              0            100              0           0.00        -1.0000
          14419      1124.5500    158932.0000     32056.0000      8372.0000       764.0000      1317.0000              0              0              0              0              0            100              0           0.00        -1.0000
          14420      1029.3000    158932.0000     32056.0000      8372.0000       764.0000      1317.0000              0              0              0              0              0            100              0           0.00        -1.0000
          14421      1011.0000    158932.0000     32056.0000      8372.0000       764.0000      1317.0000              0              0              0              0              0            100              0           0.00        -1.0000
          14422      1031.7500    158932.0000     32056.0000      8372.0000       764.0000      1317.0000              0              0              0              0              0            100              0           0.00        -1.0000
          14423      1052.5000    158932.0000     32056.0000      8372.0000       764.0000      1317.0000              0              0              0              0              0            100              0           0.00        -1.0000
          14424      1100.7250    158932.0000     32056.0000      8372.0000       764.0000      1317.0000              0              0              0              0              0            100              0           0.00        -1.0000
          14425      1139.8000    158932.0000     32056.0000      8372.0000       764.0000      1317.0000              0              0              0              0              0            100              0           0.00        -1.0000
          14426      1183.1500    158932.0000     32056.0000      8372.0000       764.0000      1317.0000              0              0              0              0              0            100              0           0.00        -1.0000
