#___________________________________________________________________________
~VERSION INFORMATION
 VERS.                                 2.0 : CWLS LOG ASCII STANDARD - VERSION 2.0
 WRAP.                                  NO : ONE LINE PER DEPTH STEP
#___________________________________________________________________________
~WELL INFORMATION
 STRT.F                           10245.00 : START DEPTH
 STOP.F                           18039.00 : STOP DEPTH
 STEP.F                                  1 : STEP VALUE
 NULL.                             -999.25 : NULL VALUE
 COMP.      Magnolia Oil & Gas             : COMPANY
 WELL.      Levi Goodrich Unit 2 3H        : WELL
  FLD.      Giddings                       : FIELD
  LOC.      Washington County              : LOCATION
 CNTY.      Washington County              : PARISH/COUNTY
 STAT.      Texas                          : STATE
 CTRY.      USA                            : COUNTRY
" SRVC.      PetroLog International, Inc.   : SERVICE COMPANY"
 DATE.      06/07/2020                     : LOG DATE
  API.      42-477-31135                   : API REFERENCE NUMBER
#___________________________________________________________________________
~CURVE INFORMATION
#MNEM.UNITS                                : DESCRIPTION
DEPTH.F                                    :  1 DEPTH
 TGAS.Units                                :  2 Chromatograph_TotalGas
 MTHX.PPM                                  :  3 Chromatograph_MethanePPMMax
 ETHX.PPM                                  :  4 Chromatograph_EthanePPMMax
 PRPX.PPM                                  :  5 Chromatograph_PropanePPMMax
 IBTX.PPM                                  :  6 Chromatograph_IButanePPMMax
 NBTX.PPM                                  :  7 Chromatograph_NButanePPMMax
CEMNT.%                                    :  8 Lithology_Cement
SHALE.%                                    :  9 Lithology_Shale
SILTST.%                                   : 10 Lithology_Siltstone
 SAND.%                                    : 11 Lithology_Sand
 LIME.%                                    : 12 Lithology_Lime
 CHLK.%                                    : 13 Lithology_Chalk
  ASH.%                                    : 14 Lithology_Ash
 FRAC.%                                    : 15 Fracture
Kick/Loss.----                             : 16 Kick/Loss
#___________________________________________________________________________
~A        DEPTH           TGAS           MTHX           ETHX           PRPX           IBTX           NBTX          CEMNT          SHALE         SILTST           SAND           LIME           CHLK            ASH           FRAC      Kick/Loss
# ...
          15413      1113.5500     99310.0000     36710.0000     12947.0000      1499.0000      2729.0000              0              0              0              0              0            100              0           0.00        -1.0000
          15414      1119.6500     99310.0000     36710.0000     12947.0000      1499.0000      2729.0000              0              0              0              0              0            100              0           0.00        -1.0000
          15415      1119.6500     99310.0000     36710.0000     12947.0000      1499.0000      2729.0000              0              0              0              0              0            100              0           0.00        -1.0000
          15416      1127.0000    102479.0000     36710.0000     12947.0000      1499.0000      2729.0000              0              0              0              0              0            100              0           0.00        -1.0000
          15417      1141.6500    102479.0000     34587.0000     11047.0000      1166.0000      2192.0000              0              0              0              0              0            100              0           0.00        -1.0000
          15418      1139.2000    102479.0000     34587.0000     11047.0000      1166.0000      2192.0000              0              0              0              0              0            100              0           0.00        -1.0000
          15419      1831.5000    203614.0000     57083.0000     15646.0000      1702.0000      2924.0000              0              0              0              0              0            100              0           0.00        -1.0000
          15420      1075.7000    203614.0000     57083.0000     15646.0000      1702.0000      2924.0000              0              0              0              0              0            100              0           0.00        -1.0000
          15421       548.2500    203614.0000     57083.0000     15646.0000      1702.0000      2924.0000              0              0              0              0              0            100              0           0.00        -1.0000
          15422       301.6000    203614.0000     57083.0000     15646.0000      1702.0000      2924.0000              0              0              0              0              0            100              0           0.00        -1.0000
          15423       208.8000    203614.0000     57083.0000     15646.0000      1702.0000      2924.0000              0              0              0              0              0            100              0           0.00        -1.0000
          15424       152.6500    203614.0000     57083.0000     15646.0000      1702.0000      2924.0000              0              0              0              0              0            100              0           0.00        -1.0000
          15425       192.9250    203614.0000     57083.0000     15646.0000      1702.0000      2924.0000              0              0              0              0              0            100              0           0.00        -1.0000
          15426       517.7000    203614.0000     57083.0000     15646.0000      1702.0000      2924.0000              0              0              0              0              0            100              0           0.00        -1.0000
          15427       644.0750    203614.0000     57083.0000     15646.0000      1702.0000      2924.0000              0              0              0              0              0            100              0           0.00        -1.0000
          15428       621.5000    203614.0000     57083.0000     15646.0000      1702.0000      2924.0000              0              0              0              0              0            100              0           0.00        -1.0000
          15429       489.6000     44605.0000     13284.0000      4845.0000       439.0000      1056.0000              0              0              0              0              0            100              0           0.00        -1.0000
          15430       654.4500     44605.0000     13284.0000      4845.0000       439.0000      1056.0000              0              0              0              0              0            100              0           0.00        -1.0000
          15431       981.7000     44605.0000     13284.0000      4845.0000       439.0000      1056.0000              0              0              0              0              0            100              0           0.00        -1.0000
          15432      1323.5500     44605.0000     13284.0000      4845.0000       439.0000      1056.0000              0              0              0              0              0            100              0           0.00        -1.0000
          15433      1792.4250     44605.0000     13284.0000      4845.0000       439.0000      1056.0000              0              0              0              0              0            100              0           0.00        -1.0000
          15434      2343.1000     44605.0000     13284.0000      4845.0000       439.0000      1056.0000              0              0              0              0              0            100              0           0.00        -1.0000
          15435      2586.1000     44605.0000     13284.0000      4845.0000       439.0000      1056.0000              0              0              0              0              0            100              0           0.00        -1.0000
          15436      2643.4500     78381.0000     64550.0000     51352.0000     10196.0000     20416.0000              0              0              0              0              0            100              0           0.00        -1.0000
          15437      2363.8500     78381.0000     64550.0000     51352.0000     10196.0000     20416.0000              0              0              0              0              0            100              0           0.00        -1.0000
          15438      2261.3000     78381.0000     64550.0000     51352.0000     10196.0000     20416.0000              0              0              0              0              0            100              0           0.00        -1.0000
          15439      2116.0000     93701.0000     64550.0000     51352.0000     10196.0000     20416.0000              0              0              0              0              0            100              0           0.00        -1.0000
          15440      1597.0500     93701.0000     45919.0000     22555.0000      3531.0000      7262.0000              0              0              0              0              0            100              0           0.00        -1.0000
          15441      1525.0500     93701.0000     45919.0000     22555.0000      3531.0000      7262.0000              0              0              0              0              0            100              0           0.00        -1.0000
          15442      1490.8500     93701.0000     45919.0000     22555.0000      3531.0000      7262.0000              0              0              0              0              0            100              0           0.00        -1.0000
          15443      1411.5000     93701.0000     45919.0000     22555.0000      3531.0000      7262.0000              0              0              0              0              0            100              0           0.00        -1.0000
          15444      1363.8500     93701.0000     45919.0000     22555.0000      3531.0000      7262.0000              0              0              0              0              0            100              0           0.00        -1.0000
          15445      1357.7500     93701.0000     45919.0000     22555.0000      3531.0000      7262.0000              0              0              0              0              0            100              0           0.00        -1.0000
          15446      1332.7250     93701.0000     45919.0000     22555.0000      3531.0000      7262.0000              0              0              0              0              0            100              0           0.00        -1.0000
