#___________________________________________________________________________
~VERSION INFORMATION
 VERS.                                 2.0 : CWLS LOG ASCII STANDARD - VERSION 2.0
 WRAP.                                  NO : ONE LINE PER DEPTH STEP
#___________________________________________________________________________
~WELL INFORMATION
 STRT.F                           10245.00 : START DEPTH
 STOP.F                           18039.00 : STOP DEPTH
 STEP.F                                  1 : STEP VALUE
 NULL.                             -999.25 : NULL VALUE
 COMP.      Magnolia Oil & Gas             : COMPANY
 WELL.      Levi Goodrich Unit 2 3H        : WELL
  FLD.      Giddings                       : FIELD
  LOC.      Washington County              : LOCATION
 CNTY.      Washington County              : PARISH/COUNTY
 STAT.      Texas                          : STATE
 CTRY.      USA                            : COUNTRY
" SRVC.      PetroLog International, Inc.   : SERVICE COMPANY"
 DATE.      06/07/2020                     : LOG DATE
  API.      42-477-31135                   : API REFERENCE NUMBER
#___________________________________________________________________________
~CURVE INFORMATION
#MNEM.UNITS                                : DESCRIPTION
DEPTH.F                                    :  1 DEPTH
 TGAS.Units                                :  2 Chromatograph_TotalGas
 MTHX.PPM                                  :  3 Chromatograph_MethanePPMMax
 ETHX.PPM                                  :  4 Chromatograph_EthanePPMMax
 PRPX.PPM                                  :  5 Chromatograph_PropanePPMMax
 IBTX.PPM                                  :  6 Chromatograph_IButanePPMMax
 NBTX.PPM                                  :  7 Chromatograph_NButanePPMMax
CEMNT.%                                    :  8 Lithology_Cement
SHALE.%                                    :  9 Lithology_Shale
SILTST.%                                   : 10 Lithology_Siltstone
 SAND.%                                    : 11 Lithology_Sand
 LIME.%                                    : 12 Lithology_Lime
 CHLK.%                                    : 13 Lithology_Chalk
  ASH.%                                    : 14 Lithology_Ash
 FRAC.%                                    : 15 Fracture
Kick/Loss.----                             : 16 Kick/Loss
#___________________________________________________________________________
~A        DEPTH           TGAS           MTHX           ETHX           PRPX           IBTX           NBTX          CEMNT          SHALE         SILTST           SAND           LIME           CHLK            ASH           FRAC      Kick/Loss
# ...
          11809      1086.0750    135518.0000     19971.0000      5941.0000       506.0000      1236.0000              0              0              0              0              0            100              0           0.00        -1.0000
          11810      1087.3000    135518.0000     19971.0000      5941.0000       506.0000      1236.0000              0              0              0              0              0            100              0           0.00        -1.0000
          11811      1089.1500    129216.0000     18130.0000      5317.0000       427.0000       543.0000              0              0              0              0              0            100              0           0.00        -1.0000
          11812      1085.4750    129216.0000     18130.0000      5317.0000       427.0000       543.0000              0              0              0              0              0            100              0           0.00        -1.0000
          11813      1200.2500    129216.0000     18130.0000      5317.0000       427.0000       543.0000              0              0              0              0              0            100              0           0.00        -1.0000
          11814      1141.6500    129216.0000     18130.0000      5317.0000       427.0000       543.0000              0              0              0              0              0            100              0           0.00        -1.0000
          11815      1167.9000    129216.0000     18130.0000      5317.0000       427.0000       543.0000              0              0              0              0              0            100              0           0.00        -1.0000
          11816      1224.6500    129216.0000     24154.0000      7776.0000       784.0000      1661.0000              0              0              0              0              0            100              0           0.00        -1.0000
          11817      1277.1500    123795.0000     24154.0000      7776.0000       784.0000      1661.0000              0              0              0              0              0            100              0           0.00        -1.0000
          11818      1583.6500    123824.0000     24154.0000      7776.0000       784.0000      1661.0000              0              0              0              0              0            100              0           0.00        -1.0000
          11819       996.3500    123824.0000     21652.0000      6639.0000       568.0000      1360.0000              0              0              0              0              0            100              0           0.00        -1.0000
          11820       984.1500    112978.0000     16719.0000      4576.0000       334.0000       897.0000              0              0              0              0              0            100              0           0.00        -1.0000
          11821       971.9000    112978.0000     16719.0000      4576.0000       334.0000       897.0000              0              0              0              0              0            100              0           0.00        -1.0000
          11822       985.9500    112978.0000     16719.0000      4576.0000       334.0000       897.0000              0              0              0              0              0            100              0           0.00        -1.0000
          11823       946.3000    112978.0000     16719.0000      4576.0000       334.0000       897.0000              0              0              0              0              0            100              0           0.00        -1.0000
          11824       937.7500    110922.0000     15621.0000      4305.0000       325.0000       853.0000              0              0              0              0              0            100              0           0.00        -1.0000
          11825       919.4000    110922.0000     15621.0000      4305.0000       325.0000       853.0000              0              0              0              0              0            100              0           0.00        -1.0000
          11826       929.2000    110922.0000     15621.0000      4305.0000       325.0000       853.0000              0              0              0              0              0            100              0           0.00        -1.0000
          11827       945.6750    110922.0000     15621.0000      4305.0000       325.0000       853.0000              0              0              0              0              0            100              0           0.00        -1.0000
          11828       943.8500    112756.0000     15621.0000      4376.0000       337.0000       894.0000              0              0              0              0              0            100              0           0.00        -1.0000
          11829       929.2000    112756.0000     15409.0000      4376.0000       337.0000       894.0000              0              0              0              0              0            100              0           0.00        -1.0000
          11830       907.8250    112756.0000     15409.0000      4376.0000       337.0000       894.0000              0              0              0              0              0            100              0           0.00        -1.0000
          11831       952.4000    112756.0000     15409.0000      4376.0000       337.0000       894.0000              0              0              0              0              0            100              0           0.00        -1.0000
          11832       965.8000    112756.0000     15409.0000      4529.0000       341.0000       919.0000              0              0              0              0              0            100              0           0.00        -1.0000
          11833       941.4000    111353.0000     15383.0000      4529.0000       341.0000       919.0000              0              0              0              0              0            100              0           0.00        -1.0000
          11834       927.9500    111353.0000     15383.0000      4529.0000       341.0000       919.0000              0              0              0              0              0            100              0           0.00        -1.0000
          11835       927.9500    111353.0000     15383.0000      4529.0000       341.0000       919.0000              0              0              0              0              0            100              0           0.00        -1.0000
          11836       921.8500    111353.0000     15383.0000      4529.0000       341.0000       919.0000              0              0              0              0              0            100              0           0.00        -1.0000
          11837       907.2000    107737.0000     14821.0000      4448.0000       326.0000       894.0000              0              0              0              0              0            100              0           0.00        -1.0000
          11838       897.4500    107737.0000     14821.0000      4448.0000       326.0000       894.0000              0              0              0              0              0            100              0           0.00        -1.0000
          11839       899.9000    107737.0000     14821.0000      4448.0000       326.0000       894.0000              0              0              0              0              0            100              0           0.00        -1.0000
          11840       926.7500    108194.0000     14848.0000      4486.0000       326.0000       900.0000              0              0              0              0              0            100              0           0.00        -1.0000
          11841       924.9000    108194.0000     14848.0000      4486.0000       165.0000       900.0000              0              0              0              0              0            100              0           0.00        -1.0000
          11842       534.8000    108194.0000     14848.0000      4486.0000       165.0000       900.0000              0              0              0              0              0            100              0           0.00        -1.0000
