#___________________________________________________________________________
~VERSION INFORMATION
 VERS.                                 2.0 : CWLS LOG ASCII STANDARD - VERSION 2.0
 WRAP.                                  NO : ONE LINE PER DEPTH STEP
#___________________________________________________________________________
~WELL INFORMATION
 STRT.F                           10285.00 : START DEPTH
 STOP.F                           16074.00 : STOP DEPTH
 STEP.F                                  1 : STEP VALUE
 NULL.                             -999.25 : NULL VALUE
 COMP.      Magnolia Oil & Gas             : COMPANY
 WELL.      Levi Goodrich Unit 2 2H        : WELL
  FLD.      Giddings                       : FIELD
  LOC.      Washington County              : LOCATION
 CNTY.      Washington County              : PARISH/COUNTY
 STAT.      Texas                          : STATE
 CTRY.      USA                            : COUNTRY
" SRVC.      PetroLog International, Inc.   : SERVICE COMPANY"
 DATE.      05/13/2020                     : LOG DATE
  API.      42-477-31134                   : API REFERENCE NUMBER
#___________________________________________________________________________
~CURVE INFORMATION
#MNEM.UNITS                                : DESCRIPTION
DEPTH.F                                    :  1 DEPTH
 TGAS.Units                                :  2 Chromatograph_TotalGas
 MTHX.PPM                                  :  3 Chromatograph_MethanePPMMax
 ETHX.PPM                                  :  4 Chromatograph_EthanePPMMax
 PRPX.PPM                                  :  5 Chromatograph_PropanePPMMax
 IBTX.PPM                                  :  6 Chromatograph_IButanePPMMax
 NBTX.PPM                                  :  7 Chromatograph_NButanePPMMax
CEMNT.%                                    :  8 Lithology_Cement
SHALE.%                                    :  9 Lithology_Shale
SILTST.%                                   : 10 Lithology_Siltstone
 SAND.%                                    : 11 Lithology_Sand
 LIME.%                                    : 12 Lithology_Lime
 CHLK.%                                    : 13 Lithology_Chalk
  ASH.%                                    : 14 Lithology_Ash
 FRAC.%                                    : 15 Lithology_Fracture
#___________________________________________________________________________
~A        DEPTH           TGAS           MTHX           ETHX           PRPX           IBTX           NBTX          CEMNT          SHALE         SILTST           SAND           LIME           CHLK            ASH           FRAC
# ...
          15649      3302.8000     67958.0000     43485.0000     31477.0000      6306.0000     15967.0000              0              0              0              0              0            100              0          20.00
          15650      3299.7500     67958.0000     43485.0000     31477.0000      6306.0000     15967.0000              0              0              0              0              0            100              0          20.00
          15651      3213.0500    119468.0000     71477.0000     46104.0000      8519.0000     19717.0000              0              0              0              0              0            100              0          20.00
          15652      2982.9000    119468.0000     71477.0000     46104.0000      8519.0000     19717.0000              0              0              0              0              0            100              0          20.00
          15653      2882.1750    119468.0000     71477.0000     46104.0000      8519.0000     19717.0000              0              0              0              0              0            100              0          20.00
          15654      2998.8000    119468.0000     71477.0000     46104.0000      8519.0000     19717.0000              0              0              0              0              0            100              0          20.00
          15655      3119.6500    119468.0000     71477.0000     46104.0000      8519.0000     19717.0000              0              0              0              0              0            100              0          20.00
          15656      3123.3000    119468.0000     71477.0000     46104.0000      8519.0000     19717.0000              0              0              0              0              0            100              0          20.00
          15657      3106.8500    119468.0000     71477.0000     46104.0000      8519.0000     19717.0000              0              0              0              0              0            100              0          20.00
          15658      3047.6000    119468.0000     71477.0000     46104.0000      8519.0000     19717.0000              0              0              0              0              0            100              0          20.00
          15659      3006.1250    119468.0000     71477.0000     46104.0000      8519.0000     19717.0000              0              0              0              0              0            100              0          20.00
          15660      3035.4000    119468.0000     71477.0000     46104.0000      8519.0000     19717.0000              0              0              0              0              0            100              0          20.00
          15661      3035.4000    119468.0000     71477.0000     46104.0000      8519.0000     19717.0000              0              0              0              0              0            100              0          20.00
          15662      2915.1250    119468.0000     71477.0000     46104.0000      8519.0000     19717.0000              0              0              0              0              0            100              0          20.00
          15663      2877.9000    119468.0000     71477.0000     46104.0000      8519.0000     19717.0000              0              0              0              0              0            100              0          20.00
          15664      3166.6500    119468.0000     71477.0000     46104.0000      8519.0000     19717.0000              0              0              0              0              0            100              0          20.00
          15665      3218.5500    119468.0000     71477.0000     46104.0000      8519.0000     19717.0000              0              0              0              0              0            100              0          20.00
          15666      3214.9000    119468.0000     71477.0000     46104.0000      8519.0000     19717.0000              0              0              0              0              0            100              0          20.00
          15667      3100.1250    119468.0000     71477.0000     46104.0000      8519.0000     19717.0000              0              0              0              0              0            100              0          20.00
          15668      2887.6750    119468.0000     71477.0000     46104.0000      8519.0000     19717.0000              0              0              0              0              0            100              0          20.00
          15669      2942.0000    119468.0000     71477.0000     46104.0000      8519.0000     19717.0000              0              0              0              0              0            100              0          20.00
          15670      2945.0500    119468.0000     71477.0000     46104.0000      8519.0000     19762.0000              0              0              0              0              0            100              0          20.00
          15671      1586.1000    106360.0000     67352.0000     44338.0000      8431.0000     19762.0000              0              0              0              0              0            100              0          20.00
          15672      1203.9000    106360.0000     67352.0000     44338.0000      8431.0000     19762.0000              0              0              0              0              0            100              0          20.00
          15673       881.5750    106360.0000     67352.0000     44338.0000      8431.0000     19762.0000              0              0              0              0              0            100              0          20.00
          15674       721.6000    106360.0000     67352.0000     44338.0000      8431.0000     19762.0000              0              0              0              0              0            100              0          20.00
          15675       612.3250    106360.0000     67352.0000     44338.0000      8431.0000     19762.0000              0              0              0              0              0            100              0          20.00
          15676       533.5750    106360.0000     67352.0000     44338.0000      8431.0000     19762.0000              0              0              0              0              0            100              0          20.00
          15677       485.9750    106360.0000     67352.0000     44338.0000      8431.0000     19762.0000              0              0              0              0              0            100              0          20.00
          15678       452.3750    106360.0000     67352.0000     44338.0000      8431.0000     19762.0000              0              0              0              0              0            100              0          20.00
          15679       433.4500    106360.0000     67352.0000     44338.0000      8431.0000     19762.0000              0              0              0              0              0            100              0          20.00
          15680       418.8000    106360.0000     67352.0000     44338.0000      8431.0000     19762.0000              0              0              0              0              0            100              0          20.00
          15681       688.0500    106360.0000     67352.0000     44338.0000      8431.0000     19762.0000              0              0              0              0              0            100              0          20.00
          15682      1214.9000    106360.0000     67352.0000     44338.0000      8431.0000     19762.0000              0              0              0              0              0            100              0          20.00
          15683      1304.0500    106360.0000     67352.0000     44338.0000      8431.0000     19762.0000              0              0              0              0              0            100              0          20.00
          15684      1212.4500    106360.0000     67352.0000     44338.0000      8431.0000     19762.0000              0              0              0              0              0            100              0          20.00
