#___________________________________________________________________________
~VERSION INFORMATION
 VERS.                                 2.0 : CWLS LOG ASCII STANDARD - VERSION 2.0
 WRAP.                                  NO : ONE LINE PER DEPTH STEP
#___________________________________________________________________________
~WELL INFORMATION
 STRT.F                           10285.00 : START DEPTH
 STOP.F                           16074.00 : STOP DEPTH
 STEP.F                                  1 : STEP VALUE
 NULL.                             -999.25 : NULL VALUE
 COMP.      Magnolia Oil & Gas             : COMPANY
 WELL.      Levi Goodrich Unit 2 2H        : WELL
  FLD.      Giddings                       : FIELD
  LOC.      Washington County              : LOCATION
 CNTY.      Washington County              : PARISH/COUNTY
 STAT.      Texas                          : STATE
 CTRY.      USA                            : COUNTRY
" SRVC.      PetroLog International, Inc.   : SERVICE COMPANY"
 DATE.      05/13/2020                     : LOG DATE
  API.      42-477-31134                   : API REFERENCE NUMBER
#___________________________________________________________________________
~CURVE INFORMATION
#MNEM.UNITS                                : DESCRIPTION
DEPTH.F                                    :  1 DEPTH
 TGAS.Units                                :  2 Chromatograph_TotalGas
 MTHX.PPM                                  :  3 Chromatograph_MethanePPMMax
 ETHX.PPM                                  :  4 Chromatograph_EthanePPMMax
 PRPX.PPM                                  :  5 Chromatograph_PropanePPMMax
 IBTX.PPM                                  :  6 Chromatograph_IButanePPMMax
 NBTX.PPM                                  :  7 Chromatograph_NButanePPMMax
CEMNT.%                                    :  8 Lithology_Cement
SHALE.%                                    :  9 Lithology_Shale
SILTST.%                                   : 10 Lithology_Siltstone
 SAND.%                                    : 11 Lithology_Sand
 LIME.%                                    : 12 Lithology_Lime
 CHLK.%                                    : 13 Lithology_Chalk
  ASH.%                                    : 14 Lithology_Ash
 FRAC.%                                    : 15 Lithology_Fracture
#___________________________________________________________________________
~A        DEPTH           TGAS           MTHX           ETHX           PRPX           IBTX           NBTX          CEMNT          SHALE         SILTST           SAND           LIME           CHLK            ASH           FRAC
# ...
          12193       792.4500     55595.0000      8786.0000      3176.0000        62.0000       509.0000              0              0              0              0              0            100              0           0.00
          12194       734.4250     55595.0000      8786.0000      3176.0000        62.0000       509.0000              0              0              0              0              0            100              0           0.00
          12195       727.7000     55595.0000      8786.0000      3176.0000        62.0000       509.0000              0              0              0              0              0            100              0           0.00
          12196       715.5000     55595.0000      8786.0000      3176.0000        62.0000       509.0000              0              0              0              0              0            100              0           0.00
          12197       746.0500     55595.0000      8786.0000      3176.0000        62.0000       509.0000              0              0              0              0              0            100              0           0.00
          12198       763.1500     55595.0000      8786.0000      3176.0000        62.0000       509.0000              0              0              0              0              0            100              0           0.00
          12199       763.1500     55595.0000      8786.0000      3176.0000        62.0000       509.0000              0              0              0              0              0            100              0           0.00
          12200       760.0750     66854.0000     14789.0000      5530.0000       466.0000      1048.0000              0              0              0              0              0            100              0           0.00
          12201       738.1000     66854.0000     14789.0000      5530.0000       466.0000      1048.0000              0              0              0              0              0            100              0           0.00
          12202       697.2000     66854.0000     14789.0000      5530.0000       466.0000      1048.0000              0              0              0              0              0            100              0           0.00
          12203       670.3500     66854.0000     14789.0000      5530.0000       466.0000      1048.0000              0              0              0              0              0            100              0           0.00
          12204       666.6500     66854.0000     14789.0000      5530.0000       466.0000      1048.0000              0              0              0              0              0            100              0           0.00
          12205       656.9000     66854.0000     14789.0000      5530.0000       466.0000      1048.0000              0              0              0              0              0            100              0           0.00
          12206       643.4500     66854.0000     14789.0000      5530.0000       466.0000      1048.0000              0              0              0              0              0            100              0           0.00
          12207       633.7000     66854.0000     14789.0000      5530.0000       466.0000      1048.0000              0              0              0              0              0            100              0           0.00
          12208       628.8000     66854.0000     14789.0000      5530.0000       466.0000      1048.0000              0              0              0              0              0            100              0           0.00
          12209       625.1500     66854.0000     14789.0000      5530.0000       466.0000      1048.0000              0              0              0              0              0            100              0           0.00
          12210       627.6000     66854.0000     14789.0000      5530.0000       466.0000      1048.0000              0              0              0              0              0            100              0           0.00
          12211       626.4000     66854.0000     14789.0000      5530.0000       466.0000      1048.0000              0              0              0              0              0            100              0           0.00
          12212       623.3250     66854.0000     14789.0000      5530.0000       466.0000      1048.0000              0              0              0              0              0            100              0           0.00
          12213       622.7000     66854.0000     14789.0000      5530.0000       466.0000      1048.0000              0              0              0              0              0            100              0           0.00
          12214       621.5000     66854.0000     14789.0000      5530.0000       466.0000      1048.0000              0              0              0              0              0            100              0           0.00
          12215       619.6500     66854.0000     14789.0000      5530.0000       466.0000      1048.0000              0              0              0              0              0            100              0           0.00
          12216       617.8500     66854.0000     14789.0000      5530.0000       466.0000      1048.0000              0              0              0              0              0            100              0           0.00
          12217       622.7000     66854.0000     14789.0000      5530.0000       466.0000      1048.0000              0              0              0              0              0            100              0           0.00
          12218       628.8000     66854.0000     14789.0000      5530.0000       466.0000      1048.0000              0              0              0              0              0            100              0           0.00
          12219       637.3500     66854.0000     14789.0000      5530.0000       466.0000      1048.0000              0              0              0              0              0            100              0           0.00
          12220       642.8500     66854.0000     14789.0000      5530.0000       466.0000      1048.0000              0              0              0              0              0            100              0           0.00
          12221       645.9000     57736.0000     11237.0000      4186.0000       309.0000       827.0000              0              0              0              0              0            100              0           0.00
          12222       648.3500     57736.0000     11237.0000      4186.0000       309.0000       827.0000              0              0              0              0              0            100              0           0.00
          12223       660.5500     57736.0000     11237.0000      4186.0000       309.0000       827.0000              0              0              0              0              0            100              0           0.00
          12224       669.1000     57736.0000     11237.0000      4186.0000       309.0000       827.0000              0              0              0              0              0            100              0           0.00
          12225       672.7500     57736.0000     11237.0000      4186.0000       309.0000       827.0000              0              0              0              0              0            100              0           0.00
          12226       676.4500     57736.0000     11237.0000      4186.0000       309.0000       827.0000              0              0              0              0              0            100              0           0.00
          12227       681.3000     57736.0000     11237.0000      4186.0000       309.0000       827.0000              0              0              0              0              0            100              0           0.00
          12228       683.7500     57736.0000     11237.0000      4186.0000       309.0000       827.0000              0              0              0              0              0            100              0           0.00
