#___________________________________________________________________________
~VERSION INFORMATION
 VERS.                                 2.0 : CWLS LOG ASCII STANDARD - VERSION 2.0
 WRAP.                                  NO : ONE LINE PER DEPTH STEP
#___________________________________________________________________________
~WELL INFORMATION
 STRT.F                           10245.00 : START DEPTH
 STOP.F                           18039.00 : STOP DEPTH
 STEP.F                                  1 : STEP VALUE
 NULL.                             -999.25 : NULL VALUE
 COMP.      Magnolia Oil & Gas             : COMPANY
 WELL.      Levi Goodrich Unit 2 3H        : WELL
  FLD.      Giddings                       : FIELD
  LOC.      Washington County              : LOCATION
 CNTY.      Washington County              : PARISH/COUNTY
 STAT.      Texas                          : STATE
 CTRY.      USA                            : COUNTRY
" SRVC.      PetroLog International, Inc.   : SERVICE COMPANY"
 DATE.      06/07/2020                     : LOG DATE
  API.      42-477-31135                   : API REFERENCE NUMBER
#___________________________________________________________________________
~CURVE INFORMATION
#MNEM.UNITS                                : DESCRIPTION
DEPTH.F                                    :  1 DEPTH
 TGAS.Units                                :  2 Chromatograph_TotalGas
 MTHX.PPM                                  :  3 Chromatograph_MethanePPMMax
 ETHX.PPM                                  :  4 Chromatograph_EthanePPMMax
 PRPX.PPM                                  :  5 Chromatograph_PropanePPMMax
 IBTX.PPM                                  :  6 Chromatograph_IButanePPMMax
 NBTX.PPM                                  :  7 Chromatograph_NButanePPMMax
CEMNT.%                                    :  8 Lithology_Cement
SHALE.%                                    :  9 Lithology_Shale
SILTST.%                                   : 10 Lithology_Siltstone
 SAND.%                                    : 11 Lithology_Sand
 LIME.%                                    : 12 Lithology_Lime
 CHLK.%                                    : 13 Lithology_Chalk
  ASH.%                                    : 14 Lithology_Ash
 FRAC.%                                    : 15 Fracture
Kick/Loss.----                             : 16 Kick/Loss
#___________________________________________________________________________
~A        DEPTH           TGAS           MTHX           ETHX           PRPX           IBTX           NBTX          CEMNT          SHALE         SILTST           SAND           LIME           CHLK            ASH           FRAC      Kick/Loss
# ...
          12319       725.9000     91473.0000     11500.0000      2949.0000        76.0000       201.0000              0              0              0              0              0            100              0           0.00        -1.0000
          12320       715.5000     91473.0000     11500.0000      2949.0000        76.0000       272.0000              0              0              0              0              0            100              0           0.00        -1.0000
          12321       702.1000     89641.0000     10854.0000      2747.0000        42.0000       272.0000              0              0              0              0              0            100              0           0.00        -1.0000
          12322       685.0000     89641.0000     10854.0000      2747.0000        42.0000       272.0000              0              0              0              0              0            100              0           0.00        -1.0000
          12323       660.5500     86172.0000      9973.0000      2493.0000         0.0000       103.0000              0              0              0              0              0            100              0           0.00        -1.0000
          12324       661.8000     86172.0000      9973.0000      2493.0000         0.0000       113.0000              0              0              0              0              0            100              0           0.00        -1.0000
          12325       675.8250     82376.0000      9435.0000      2357.0000         0.0000       213.0000              0              0              0              0              0            100              0           0.00        -1.0000
          12326       663.6250     84517.0000      9552.0000      2354.0000         0.0000       213.0000              0              0              0              0              0            100              0           0.00        -1.0000
          12327       153.8500     78873.0000      9154.0000      2236.0000         0.0000       155.0000              0              0              0              0              0            100              0           0.00        -1.0000
          12328       537.2500     78873.0000      9154.0000      2236.0000         0.0000       155.0000              0              0              0              0              0            100              0           0.00        -1.0000
          12329       567.1500     63166.0000      8071.0000      2056.0000         0.0000       105.0000              0              0              0              0              0            100              0           0.00        -1.0000
          12330       603.2000     63166.0000      8071.0000      2056.0000         0.0000       105.0000              0              0              0              0              0            100              0           0.00        -1.0000
          12331       620.2750     63166.0000      8071.0000      2056.0000         0.0000       105.0000              0              0              0              0              0            100              0           0.00        -1.0000
          12332       617.8250     63166.0000      8071.0000      2056.0000         0.0000       105.0000              0              0              0              0              0            100              0           0.00        -1.0000
          12333       637.3500     79798.0000      9595.0000      2381.0000         0.0000       105.0000              0              0              0              0              0            100              0           0.00        -1.0000
          12334       630.0500     79798.0000      9595.0000      2381.0000         0.0000       104.0000              0              0              0              0              0            100              0           0.00        -1.0000
          12335       620.8750     79798.0000      9595.0000      2381.0000         0.0000       104.0000              0              0              0              0              0            100              0           0.00        -1.0000
          12336       631.2500     79798.0000      9595.0000      2381.0000         0.0000       104.0000              0              0              0              0              0            100              0           0.00        -1.0000
          12337       639.2000     79798.0000      9595.0000      2381.0000         0.0000       104.0000              0              0              0              0              0            100              0           0.00        -1.0000
          12338       638.6000     79798.0000      9686.0000      2409.0000         0.0000       159.0000              0              0              0              0              0            100              0           0.00        -1.0000
          12339       622.7000     79324.0000      9686.0000      2409.0000         0.0000       159.0000              0              0              0              0              0            100              0           0.00        -1.0000
          12340       628.2000     79324.0000      9686.0000      2409.0000         0.0000       159.0000              0              0              0              0              0            100              0           0.00        -1.0000
          12341       636.7500     79324.0000      9686.0000      2409.0000         0.0000       159.0000              0              0              0              0              0            100              0           0.00        -1.0000
          12342       637.3500     79324.0000      9686.0000      2409.0000         0.0000       159.0000              0              0              0              0              0            100              0           0.00        -1.0000
          12343       631.8750     79324.0000      9686.0000      2409.0000         0.0000       159.0000              0              0              0              0              0            100              0           0.00        -1.0000
          12344       631.2500     79324.0000      9686.0000      2409.0000         0.0000       159.0000              0              0              0              0              0            100              0           0.00        -1.0000
          12345       631.2500     79324.0000      9686.0000      2409.0000         0.0000       159.0000              0              0              0              0              0            100              0           0.00        -1.0000
          12346       631.2500     79324.0000      9686.0000      2409.0000         0.0000       159.0000              0              0              0              0              0            100              0           0.00        -1.0000
          12347       625.7750     79324.0000      9686.0000      2409.0000         0.0000       159.0000              0              0              0              0              0            100              0           0.00        -1.0000
          12348       641.0500     79324.0000      9686.0000      2409.0000         0.0000       159.0000              0              0              0              0              0            100              0           0.00        -1.0000
          12349       642.8500     79324.0000      9686.0000      2409.0000         0.0000       159.0000              0              0              0              0              0            100              0           0.00        -1.0000
          12350       651.4000     79324.0000      9686.0000      2409.0000         0.0000       159.0000              0              0              0              0              0            100              0           0.00        -1.0000
          12351       655.7000     82603.0000     10176.0000      2569.0000         0.0000       159.0000              0              0              0              0              0            100              0           0.00        -1.0000
          12352       658.7250     82603.0000     10176.0000      2569.0000         0.0000       158.0000              0              0              0              0              0            100              0           0.00        -1.0000
