#___________________________________________________________________________
~VERSION INFORMATION
 VERS.                                 2.0 : CWLS LOG ASCII STANDARD - VERSION 2.0
 WRAP.                                  NO : ONE LINE PER DEPTH STEP
#___________________________________________________________________________
~WELL INFORMATION
 STRT.F                           10245.00 : START DEPTH
 STOP.F                           18039.00 : STOP DEPTH
 STEP.F                                  1 : STEP VALUE
 NULL.                             -999.25 : NULL VALUE
 COMP.      Magnolia Oil & Gas             : COMPANY
 WELL.      Levi Goodrich Unit 2 3H        : WELL
  FLD.      Giddings                       : FIELD
  LOC.      Washington County              : LOCATION
 CNTY.      Washington County              : PARISH/COUNTY
 STAT.      Texas                          : STATE
 CTRY.      USA                            : COUNTRY
" SRVC.      PetroLog International, Inc.   : SERVICE COMPANY"
 DATE.      06/07/2020                     : LOG DATE
  API.      42-477-31135                   : API REFERENCE NUMBER
#___________________________________________________________________________
~CURVE INFORMATION
#MNEM.UNITS                                : DESCRIPTION
DEPTH.F                                    :  1 DEPTH
 TGAS.Units                                :  2 Chromatograph_TotalGas
 MTHX.PPM                                  :  3 Chromatograph_MethanePPMMax
 ETHX.PPM                                  :  4 Chromatograph_EthanePPMMax
 PRPX.PPM                                  :  5 Chromatograph_PropanePPMMax
 IBTX.PPM                                  :  6 Chromatograph_IButanePPMMax
 NBTX.PPM                                  :  7 Chromatograph_NButanePPMMax
CEMNT.%                                    :  8 Lithology_Cement
SHALE.%                                    :  9 Lithology_Shale
SILTST.%                                   : 10 Lithology_Siltstone
 SAND.%                                    : 11 Lithology_Sand
 LIME.%                                    : 12 Lithology_Lime
 CHLK.%                                    : 13 Lithology_Chalk
  ASH.%                                    : 14 Lithology_Ash
 FRAC.%                                    : 15 Fracture
Kick/Loss.----                             : 16 Kick/Loss
#___________________________________________________________________________
~A        DEPTH           TGAS           MTHX           ETHX           PRPX           IBTX           NBTX          CEMNT          SHALE         SILTST           SAND           LIME           CHLK            ASH           FRAC      Kick/Loss
# ...
          12829       742.3500     92244.0000     10637.0000      2610.0000         0.0000       259.0000              0              0              0              0              0            100              0           0.00         0.0000
          12830       741.1500     92244.0000     10637.0000      2610.0000         0.0000       259.0000              0              0              0              0              0            100              0           0.00         0.0000
          12831       759.4500     92244.0000     10637.0000      2610.0000         0.0000       259.0000              0              0              0              0              0            100              0           0.00         0.0000
          12832       785.1000     92244.0000     10637.0000      2610.0000         0.0000       259.0000              0              0              0              0              0            100              0           0.00         0.0000
          12833       794.8500     92244.0000     10637.0000      2610.0000         0.0000       259.0000              0              0              0              0              0            100              0           0.00         0.0000
          12834       794.2500     92244.0000     10637.0000      2610.0000         0.0000       259.0000              0              0              0              0              0            100              0           0.00         0.0000
          12835       781.4500     92244.0000     10637.0000      2610.0000         0.0000       259.0000              0              0              0              0              0            100              0           0.00         0.0000
          12836       786.3500     92244.0000     10637.0000      2610.0000         0.0000       259.0000              0              0              0              0              0            100              0           0.00         0.0000
          12837       791.8250     92244.0000     10637.0000      2610.0000         0.0000       259.0000              0              0              0              0              0            100              0           0.00         0.0000
          12838       788.7500    100302.0000     12463.0000      3167.0000        92.0000       337.0000              0              0              0              0              0            100              0           0.00         0.0000
          12839       804.6500    100302.0000     12463.0000      3167.0000        92.0000       337.0000              0              0              0              0              0            100              0           0.00         0.0000
          12840       809.5500    100302.0000     12463.0000      3167.0000        92.0000       337.0000              0              0              0              0              0            100              0           0.00         0.0000
          12841       810.7500    100302.0000     12463.0000      3167.0000        92.0000       337.0000              0              0              0              0              0            100              0           0.00         0.0000
          12842       809.5500    100302.0000     12463.0000      3167.0000        92.0000       337.0000              0              0              0              0              0            100              0           0.00         0.0000
          12843       800.3750    100302.0000     12463.0000      3167.0000        92.0000       337.0000              0              0              0              0              0            100              0           0.00         0.0000
          12844       814.4000    100302.0000     12463.0000      3167.0000        92.0000       337.0000              0              0              0              0              0            100              0           0.00         0.0000
          12845       838.2250    100302.0000     12463.0000      3167.0000        92.0000       337.0000              0              0              0              0              0            100              0           0.00         0.0000
          12846       866.9000    100302.0000     12463.0000      3167.0000        92.0000       337.0000              0              0              0              0              0            100              0           0.00         0.0000
          12847       898.6500    100302.0000     12463.0000      3167.0000        92.0000       337.0000              0              0              0              0              0            100              0           0.00         0.0000
          12848       903.5500    100302.0000     17969.0000      5334.0000       345.0000       337.0000              0              0              0              0              0            100              0           0.00         0.0000
          12849       774.1000     97589.0000     17969.0000      5334.0000       345.0000         0.0000              0              0              0              0              0            100              0           0.00         0.0000
          12850       559.8250     97589.0000     17969.0000      5334.0000       345.0000         0.0000              0              0              0              0              0            100              0           0.00         0.0000
          12851       343.7000     97589.0000     17969.0000      5334.0000       345.0000         0.0000              0              0              0              0              0            100              0           0.00         0.0000
          12852       206.3500     97589.0000     17969.0000      5334.0000       345.0000         0.0000              0              0              0              0              0            100              0           0.00         0.0000
          12853       151.4250     97589.0000     17969.0000      5334.0000       345.0000         0.0000              0              0              0              0              0            100              0           0.00         0.0000
          12854       118.4500     97589.0000     17969.0000      5334.0000       345.0000         0.0000              0              0              0              0              0            100              0           0.00         0.0000
          12855       101.3500     97589.0000     17969.0000      5334.0000       345.0000         0.0000              0              0              0              0              0            100              0           0.00         0.0000
          12856       822.9500     97589.0000     17969.0000      5334.0000       345.0000         0.0000              0              0              0              0              0            100              0           0.00         0.0000
          12857       946.8750     97589.0000     17969.0000      5334.0000       345.0000         0.0000              0              0              0              0              0            100              0           0.00         0.0000
          12858      1053.7500     97589.0000     17969.0000      5334.0000       345.0000         0.0000              0              0              0              0              0            100              0           0.00         0.0000
          12859      1067.1500     97589.0000     17969.0000      5334.0000       345.0000         0.0000              0              0              0              0              0            100              0           0.00         0.0000
          12860      1067.1750    107220.0000     25148.0000      8431.0000       825.0000         0.0000              0              0              0              0              0            100              0           0.00         0.0000
          12861      1081.2000    107220.0000     25148.0000      8431.0000       825.0000         0.0000              0              0              0              0              0            100              0           0.00         0.0000
          12862      1102.5500    107220.0000     25148.0000      8431.0000       825.0000         0.0000              0              0              0              0              0            100              0           0.00         0.0000
