#___________________________________________________________________________
~VERSION INFORMATION
 VERS.                                 2.0 : CWLS LOG ASCII STANDARD - VERSION 2.0
 WRAP.                                  NO : ONE LINE PER DEPTH STEP
#___________________________________________________________________________
~WELL INFORMATION
 STRT.F                           10285.00 : START DEPTH
 STOP.F                           16074.00 : STOP DEPTH
 STEP.F                                  1 : STEP VALUE
 NULL.                             -999.25 : NULL VALUE
 COMP.      Magnolia Oil & Gas             : COMPANY
 WELL.      Levi Goodrich Unit 2 2H        : WELL
  FLD.      Giddings                       : FIELD
  LOC.      Washington County              : LOCATION
 CNTY.      Washington County              : PARISH/COUNTY
 STAT.      Texas                          : STATE
 CTRY.      USA                            : COUNTRY
" SRVC.      PetroLog International, Inc.   : SERVICE COMPANY"
 DATE.      05/13/2020                     : LOG DATE
  API.      42-477-31134                   : API REFERENCE NUMBER
#___________________________________________________________________________
~CURVE INFORMATION
#MNEM.UNITS                                : DESCRIPTION
DEPTH.F                                    :  1 DEPTH
 TGAS.Units                                :  2 Chromatograph_TotalGas
 MTHX.PPM                                  :  3 Chromatograph_MethanePPMMax
 ETHX.PPM                                  :  4 Chromatograph_EthanePPMMax
 PRPX.PPM                                  :  5 Chromatograph_PropanePPMMax
 IBTX.PPM                                  :  6 Chromatograph_IButanePPMMax
 NBTX.PPM                                  :  7 Chromatograph_NButanePPMMax
CEMNT.%                                    :  8 Lithology_Cement
SHALE.%                                    :  9 Lithology_Shale
SILTST.%                                   : 10 Lithology_Siltstone
 SAND.%                                    : 11 Lithology_Sand
 LIME.%                                    : 12 Lithology_Lime
 CHLK.%                                    : 13 Lithology_Chalk
  ASH.%                                    : 14 Lithology_Ash
 FRAC.%                                    : 15 Lithology_Fracture
#___________________________________________________________________________
~A        DEPTH           TGAS           MTHX           ETHX           PRPX           IBTX           NBTX          CEMNT          SHALE         SILTST           SAND           LIME           CHLK            ASH           FRAC
# ...
          13345      1925.5000    110852.0000     52900.0000     23459.0000      3756.0000      7504.0000              0              0              0              0              0            100              0           0.00
          13346      1924.9000    110852.0000     52900.0000     23459.0000      3756.0000      7504.0000              0              0              0              0              0            100              0           0.00
          13347      2014.6500     68596.0000     40674.0000     21925.0000      3734.0000      7523.0000              0              0              0              0              0            100              0           0.00
          13348      2000.0000     68596.0000     40674.0000     21925.0000      3734.0000      7523.0000              0              0              0              0              0            100              0           0.00
          13349      1845.5500    106194.0000     49072.0000     21925.0000      3734.0000      7523.0000              0              0              0              0              0            100              0           0.00
          13350      1799.7500    106194.0000     49072.0000     20493.0000      3244.0000      6403.0000              0              0              0              0              0            100              0           0.00
          13351      1888.9000    107406.0000     49072.0000     20493.0000      3332.0000      6444.0000              0              0              0              0              0            100              0           0.00
          13352      1851.0500    107406.0000     49040.0000     20490.0000      3332.0000      6444.0000              0              0              0              0              0            100              0           0.00
          13353      2054.9500    107406.0000     49040.0000     25770.0000      4653.0000      9551.0000              0              0              0              0              0            100              0           0.00
          13354      2183.1500     75059.0000     43918.0000     25770.0000      4653.0000      9551.0000              0              0              0              0              0            100              0           0.00
          13355      2178.2500     75059.0000     43918.0000     25770.0000      4653.0000      9551.0000              0              0              0              0              0            100              0           0.00
          13356      2054.3500     75059.0000     43918.0000     25770.0000      4653.0000      9551.0000              0              0              0              0              0            100              0           0.00
          13357      1885.8500     73680.0000     43232.0000     25732.0000      4538.0000      9263.0000              0              0              0              0              0            100              0           0.00
          13358      1747.2500     73680.0000     42212.0000     23228.0000      3992.0000      8280.0000              0              0              0              0              0            100              0           0.00
          13359      1604.4000     70896.0000     41805.0000     22010.0000      3730.0000      7456.0000              0              0              0              0              0            100              0           0.00
          13360      1702.7000     86705.0000     44674.0000     22010.0000      3730.0000      7456.0000              0              0              0              0              0            100              0           0.00
          13361      1665.4500     86705.0000     44674.0000     20906.0000      3457.0000      6883.0000              0              0              0              0              0            100              0           0.00
          13362      1783.2750     86705.0000     44674.0000     20906.0000      3457.0000      6883.0000              0              0              0              0              0            100              0           0.00
          13363      1741.1500     86705.0000     44674.0000     20906.0000      3486.0000      6917.0000              0              0              0              0              0            100              0           0.00
          13364      1835.1500     78590.0000     41951.0000     20409.0000      3486.0000      6917.0000              0              0              0              0              0            100              0           0.00
          13365      1683.7500     78590.0000     41951.0000     21088.0000      3671.0000      7423.0000              0              0              0              0              0            100              0           0.00
          13366      1735.0500     70278.0000     39904.0000     21088.0000      3671.0000      7423.0000              0              0              0              0              0            100              0           0.00
          13367      1585.4750     70278.0000     39904.0000     21088.0000      3671.0000      7423.0000              0              0              0              0              0            100              0           0.00
          13368      1614.1500     70278.0000     39904.0000     21088.0000      3671.0000      7423.0000              0              0              0              0              0            100              0           0.00
          13369      1598.9000     70278.0000     39904.0000     21088.0000      3671.0000      7423.0000              0              0              0              0              0            100              0           0.00
          13370      1542.7500     70278.0000     39904.0000     21088.0000      3671.0000      7423.0000              0              0              0              0              0            100              0           0.00
          13371      1484.7500     70278.0000     39904.0000     21088.0000      3671.0000      7423.0000              0              0              0              0              0            100              0           0.00
          13372      1493.9000     70278.0000     39904.0000     21088.0000      3671.0000      7423.0000              0              0              0              0              0            100              0           0.00
          13373      1583.6500     70278.0000     39904.0000     21088.0000      3671.0000      7423.0000              0              0              0              0              0            100              0           0.00
          13374      1654.4500     70278.0000     39904.0000     21088.0000      3671.0000      7423.0000              0              0              0              0              0            100              0           0.00
          13375      1678.9000     70278.0000     39904.0000     21088.0000      3671.0000      7423.0000              0              0              0              0              0            100              0           0.00
          13376      1675.8250     70278.0000     39904.0000     21088.0000      3671.0000      7423.0000              0              0              0              0              0            100              0           0.00
          13377      1599.5250     70278.0000     39904.0000     21088.0000      3671.0000      7423.0000              0              0              0              0              0            100              0           0.00
          13378      1525.0500     70278.0000     39904.0000     21088.0000      3671.0000      7423.0000              0              0              0              0              0            100              0           0.00
          13379      1444.4500     70278.0000     39904.0000     21088.0000      3671.0000      7423.0000              0              0              0              0              0            100              0           0.00
          13380      1445.6500     57644.0000     34659.0000     19504.0000      3458.0000      7123.0000              0              0              0              0              0            100              0           0.00
